[
  {
    "FIPS": 45001,
    "County": "Abbeville",
    "Province_State": "South Carolina",
    "Country_Region": "US",
    "Last_Update": "2020-06-10 04:07:00",
    "Latitude": 34.22333378,
    "Longitude": -82.46170658,
    "Confirmed": 60,
    "Deaths": 0,
    "Recovered": 0,
    "Active": 60,
    "Combined_Key": "Abbeville, South Carolina, US",
    "Incidence_Rate": 244.62836873649448,
    "Case-Fatality_Ratio": 0
  },
  {
    "FIPS": 22001,
    "County": "Acadia",
    "Province_State": "Louisiana",
    "Country_Region": "US",
    "Last_Update": "2020-06-10 04:07:00",
    "Latitude": 30.295064899999996,
    "Longitude": -92.41419698,
    "Confirmed": 517,
    "Deaths": 29,
    "Recovered": 0,
    "Active": 488,
    "Combined_Key": "Acadia, Louisiana, US",
    "Incidence_Rate": 833.2661777741962,
    "Case-Fatality_Ratio": 5.609284332688588
  },
  {
    "FIPS": 51001,
    "County": "Accomack",
    "Province_State": "Virginia",
    "Country_Region": "US",
    "Last_Update": "2020-06-10 04:07:00",
    "Latitude": 37.76707161,
    "Longitude": -75.63234615,
    "Confirmed": 983,
    "Deaths": 13,
    "Recovered": 0,
    "Active": 970,
    "Combined_Key": "Accomack, Virginia, US",
    "Incidence_Rate": 3041.8368609976483,
    "Case-Fatality_Ratio": 1.3224821973550356
  },
  {
    "FIPS": 16001,
    "County": "Ada",
    "Province_State": "Idaho",
    "Country_Region": "US",
    "Last_Update": "2020-06-10 04:07:00",
    "Latitude": 43.4526575,
    "Longitude": -116.24155159999998,
    "Confirmed": 848,
    "Deaths": 22,
    "Recovered": 0,
    "Active": 826,
    "Combined_Key": "Ada, Idaho, US",
    "Incidence_Rate": 176.08448733043042,
    "Case-Fatality_Ratio": 2.5943396226415096
  },
  {
    "FIPS": 19001,
    "County": "Adair",
    "Province_State": "Iowa",
    "Country_Region": "US",
    "Last_Update": "2020-06-10 04:07:00",
    "Latitude": 41.33075609,
    "Longitude": -94.47105874,
    "Confirmed": 9,
    "Deaths": 0,
    "Recovered": 0,
    "Active": 9,
    "Combined_Key": "Adair, Iowa, US",
    "Incidence_Rate": 125.83892617449665,
    "Case-Fatality_Ratio": 0
  },
  {
    "FIPS": 21001,
    "County": "Adair",
    "Province_State": "Kentucky",
    "Country_Region": "US",
    "Last_Update": "2020-06-10 04:07:00",
    "Latitude": 37.10459774,
    "Longitude": -85.28129668,
    "Confirmed": 100,
    "Deaths": 19,
    "Recovered": 0,
    "Active": 81,
    "Combined_Key": "Adair, Kentucky, US",
    "Incidence_Rate": 520.7790855119258,
    "Case-Fatality_Ratio": 19
  },
  {
    "FIPS": 29001,
    "County": "Adair",
    "Province_State": "Missouri",
    "Country_Region": "US",
    "Last_Update": "2020-06-10 04:07:00",
    "Latitude": 40.19058551,
    "Longitude": -92.60078167,
    "Confirmed": 74,
    "Deaths": 0,
    "Recovered": 0,
    "Active": 74,
    "Combined_Key": "Adair, Missouri, US",
    "Incidence_Rate": 291.99384445408987,
    "Case-Fatality_Ratio": 0
  },
  {
    "FIPS": 40001,
    "County": "Adair",
    "Province_State": "Oklahoma",
    "Country_Region": "US",
    "Last_Update": "2020-06-10 04:07:00",
    "Latitude": 35.88494195,
    "Longitude": -94.65859267,
    "Confirmed": 95,
    "Deaths": 4,
    "Recovered": 0,
    "Active": 91,
    "Combined_Key": "Adair, Oklahoma, US",
    "Incidence_Rate": 428.0436153915473,
    "Case-Fatality_Ratio": 4.2105263157894735
  },
  {
    "FIPS": 8001,
    "County": "Adams",
    "Province_State": "Colorado",
    "Country_Region": "US",
    "Last_Update": "2020-06-10 04:07:00",
    "Latitude": 39.87432092,
    "Longitude": -104.3362578,
    "Confirmed": 3627,
    "Deaths": 140,
    "Recovered": 0,
    "Active": 3487,
    "Combined_Key": "Adams, Colorado, US",
    "Incidence_Rate": 700.9765742016656,
    "Case-Fatality_Ratio": 3.8599393438103116
  },
  {
    "FIPS": 16003,
    "County": "Adams",
    "Province_State": "Idaho",
    "Country_Region": "US",
    "Last_Update": "2020-06-10 04:07:00",
    "Latitude": 44.89333571,
    "Longitude": -116.4545247,
    "Confirmed": 3,
    "Deaths": 0,
    "Recovered": 0,
    "Active": 3,
    "Combined_Key": "Adams, Idaho, US",
    "Incidence_Rate": 69.86492780624127,
    "Case-Fatality_Ratio": 0
  },
  {
    "FIPS": 17001,
    "County": "Adams",
    "Province_State": "Illinois",
    "Country_Region": "US",
    "Last_Update": "2020-06-10 04:07:00",
    "Latitude": 39.98815591,
    "Longitude": -91.18786813,
    "Confirmed": 45,
    "Deaths": 1,
    "Recovered": 0,
    "Active": 44,
    "Combined_Key": "Adams, Illinois, US",
    "Incidence_Rate": 68.77053564606098,
    "Case-Fatality_Ratio": 2.2222222222222223
  },
  {
    "FIPS": 18001,
    "County": "Adams",
    "Province_State": "Indiana",
    "Country_Region": "US",
    "Last_Update": "2020-06-10 04:07:00",
    "Latitude": 40.7457653,
    "Longitude": -84.93671406,
    "Confirmed": 23,
    "Deaths": 1,
    "Recovered": 0,
    "Active": 22,
    "Combined_Key": "Adams, Indiana, US",
    "Incidence_Rate": 64.28711183162366,
    "Case-Fatality_Ratio": 4.3478260869565215
  },
  {
    "FIPS": 19003,
    "County": "Adams",
    "Province_State": "Iowa",
    "Country_Region": "US",
    "Last_Update": "2020-06-10 04:07:00",
    "Latitude": 41.02903567,
    "Longitude": -94.69932645,
    "Confirmed": 7,
    "Deaths": 0,
    "Recovered": 0,
    "Active": 7,
    "Combined_Key": "Adams, Iowa, US",
    "Incidence_Rate": 194.3364797334814,
    "Case-Fatality_Ratio": 0
  },
  {
    "FIPS": 28001,
    "County": "Adams",
    "Province_State": "Mississippi",
    "Country_Region": "US",
    "Last_Update": "2020-06-10 04:07:00",
    "Latitude": 31.47669768,
    "Longitude": -91.35326037,
    "Confirmed": 222,
    "Deaths": 17,
    "Recovered": 0,
    "Active": 205,
    "Combined_Key": "Adams, Mississippi, US",
    "Incidence_Rate": 723.2919558205454,
    "Case-Fatality_Ratio": 7.657657657657658
  },
  {
    "FIPS": 31001,
    "County": "Adams",
    "Province_State": "Nebraska",
    "Country_Region": "US",
    "Last_Update": "2020-06-10 04:07:00",
    "Latitude": 40.52449420000001,
    "Longitude": -98.50117804,
    "Confirmed": 277,
    "Deaths": 11,
    "Recovered": 0,
    "Active": 266,
    "Combined_Key": "Adams, Nebraska, US",
    "Incidence_Rate": 883.2063259254536,
    "Case-Fatality_Ratio": 3.9711191335740073
  },
  {
    "FIPS": 39001,
    "County": "Adams",
    "Province_State": "Ohio",
    "Country_Region": "US",
    "Last_Update": "2020-06-10 04:07:00",
    "Latitude": 38.84541072,
    "Longitude": -83.4718964,
    "Confirmed": 11,
    "Deaths": 1,
    "Recovered": 0,
    "Active": 10,
    "Combined_Key": "Adams, Ohio, US",
    "Incidence_Rate": 39.714058776806986,
    "Case-Fatality_Ratio": 9.090909090909092
  },
  {
    "FIPS": 42001,
    "County": "Adams",
    "Province_State": "Pennsylvania",
    "Country_Region": "US",
    "Last_Update": "2020-06-10 04:07:00",
    "Latitude": 39.87140411,
    "Longitude": -77.21610347,
    "Confirmed": 275,
    "Deaths": 9,
    "Recovered": 0,
    "Active": 266,
    "Combined_Key": "Adams, Pennsylvania, US",
    "Incidence_Rate": 266.9669640516848,
    "Case-Fatality_Ratio": 3.272727272727273
  },
  {
    "FIPS": 53001,
    "County": "Adams",
    "Province_State": "Washington",
    "Country_Region": "US",
    "Last_Update": "2020-06-10 04:07:00",
    "Latitude": 46.98299757,
    "Longitude": -118.56017340000001,
    "Confirmed": 80,
    "Deaths": 0,
    "Recovered": 0,
    "Active": 80,
    "Combined_Key": "Adams, Washington, US",
    "Incidence_Rate": 400.34028924585897,
    "Case-Fatality_Ratio": 0
  },
  {
    "FIPS": 55001,
    "County": "Adams",
    "Province_State": "Wisconsin",
    "Country_Region": "US",
    "Last_Update": "2020-06-10 04:07:00",
    "Latitude": 43.96974651,
    "Longitude": -89.76782777,
    "Confirmed": 6,
    "Deaths": 1,
    "Recovered": 0,
    "Active": 5,
    "Combined_Key": "Adams, Wisconsin, US",
    "Incidence_Rate": 29.673590504451038,
    "Case-Fatality_Ratio": 16.666666666666668
  },
  {
    "FIPS": 50001,
    "County": "Addison",
    "Province_State": "Vermont",
    "Country_Region": "US",
    "Last_Update": "2020-06-10 04:07:00",
    "Latitude": 44.03217337,
    "Longitude": -73.14130877,
    "Confirmed": 66,
    "Deaths": 2,
    "Recovered": 0,
    "Active": 64,
    "Combined_Key": "Addison, Vermont, US",
    "Incidence_Rate": 179.4599885798189,
    "Case-Fatality_Ratio": 3.0303030303030303
  },
  {
    "FIPS": 45003,
    "County": "Aiken",
    "Province_State": "South Carolina",
    "Country_Region": "US",
    "Last_Update": "2020-06-10 04:07:00",
    "Latitude": 33.54338026,
    "Longitude": -81.63645384,
    "Confirmed": 213,
    "Deaths": 8,
    "Recovered": 0,
    "Active": 205,
    "Combined_Key": "Aiken, South Carolina, US",
    "Incidence_Rate": 124.65471229926494,
    "Case-Fatality_Ratio": 3.755868544600939
  },
  {
    "FIPS": 27001,
    "County": "Aitkin",
    "Province_State": "Minnesota",
    "Country_Region": "US",
    "Last_Update": "2020-06-10 04:07:00",
    "Latitude": 46.60962049,
    "Longitude": -93.41168259999999,
    "Confirmed": 13,
    "Deaths": 0,
    "Recovered": 0,
    "Active": 13,
    "Combined_Key": "Aitkin, Minnesota, US",
    "Incidence_Rate": 81.83306055646482,
    "Case-Fatality_Ratio": 0
  },
  {
    "FIPS": 12001,
    "County": "Alachua",
    "Province_State": "Florida",
    "Country_Region": "US",
    "Last_Update": "2020-06-10 04:07:00",
    "Latitude": 29.67866525,
    "Longitude": -82.35928158,
    "Confirmed": 404,
    "Deaths": 8,
    "Recovered": 0,
    "Active": 396,
    "Combined_Key": "Alachua, Florida, US",
    "Incidence_Rate": 150.16187003564485,
    "Case-Fatality_Ratio": 1.9801980198019802
  },
  {
    "FIPS": 37001,
    "County": "Alamance",
    "Province_State": "North Carolina",
    "Country_Region": "US",
    "Last_Update": "2020-06-10 04:07:00",
    "Latitude": 36.0434701,
    "Longitude": -79.39976137,
    "Confirmed": 553,
    "Deaths": 30,
    "Recovered": 0,
    "Active": 523,
    "Combined_Key": "Alamance, North Carolina, US",
    "Incidence_Rate": 326.23636503076534,
    "Case-Fatality_Ratio": 5.424954792043399
  },
  {
    "FIPS": 6001,
    "County": "Alameda",
    "Province_State": "California",
    "Country_Region": "US",
    "Last_Update": "2020-06-10 04:07:00",
    "Latitude": 37.64629437,
    "Longitude": -121.8929271,
    "Confirmed": 3985,
    "Deaths": 102,
    "Recovered": 0,
    "Active": 3883,
    "Combined_Key": "Alameda, California, US",
    "Incidence_Rate": 238.43300750480606,
    "Case-Fatality_Ratio": 2.559598494353827
  },
  {
    "FIPS": 8003,
    "County": "Alamosa",
    "Province_State": "Colorado",
    "Country_Region": "US",
    "Last_Update": "2020-06-10 04:07:00",
    "Latitude": 37.57250606,
    "Longitude": -105.7885451,
    "Confirmed": 101,
    "Deaths": 2,
    "Recovered": 0,
    "Active": 99,
    "Combined_Key": "Alamosa, Colorado, US",
    "Incidence_Rate": 622.1893673381384,
    "Case-Fatality_Ratio": 1.9801980198019802
  },
  {
    "FIPS": 36001,
    "County": "Albany",
    "Province_State": "New York",
    "Country_Region": "US",
    "Last_Update": "2020-06-10 04:07:00",
    "Latitude": 42.60060306,
    "Longitude": -73.97723916,
    "Confirmed": 1983,
    "Deaths": 115,
    "Recovered": 0,
    "Active": 1868,
    "Combined_Key": "Albany, New York, US",
    "Incidence_Rate": 649.087088305958,
    "Case-Fatality_Ratio": 5.799293998991427
  },
  {
    "FIPS": 56001,
    "County": "Albany",
    "Province_State": "Wyoming",
    "Country_Region": "US",
    "Last_Update": "2020-06-10 04:07:00",
    "Latitude": 41.65498705,
    "Longitude": -105.72354150000001,
    "Confirmed": 26,
    "Deaths": 0,
    "Recovered": 0,
    "Active": 26,
    "Combined_Key": "Albany, Wyoming, US",
    "Incidence_Rate": 66.8724279835391,
    "Case-Fatality_Ratio": 0
  },
  {
    "FIPS": 51003,
    "County": "Albemarle",
    "Province_State": "Virginia",
    "Country_Region": "US",
    "Last_Update": "2020-06-10 04:07:00",
    "Latitude": 38.02080697,
    "Longitude": -78.55481085,
    "Confirmed": 258,
    "Deaths": 8,
    "Recovered": 0,
    "Active": 250,
    "Combined_Key": "Albemarle, Virginia, US",
    "Incidence_Rate": 235.98280435379127,
    "Case-Fatality_Ratio": 3.10077519379845
  },
  {
    "FIPS": 26001,
    "County": "Alcona",
    "Province_State": "Michigan",
    "Country_Region": "US",
    "Last_Update": "2020-06-10 04:07:00",
    "Latitude": 44.6846864,
    "Longitude": -83.59507875,
    "Confirmed": 21,
    "Deaths": 1,
    "Recovered": 0,
    "Active": 20,
    "Combined_Key": "Alcona, Michigan, US",
    "Incidence_Rate": 201.82604517059107,
    "Case-Fatality_Ratio": 4.761904761904762
  },
  {
    "FIPS": 28003,
    "County": "Alcorn",
    "Province_State": "Mississippi",
    "Country_Region": "US",
    "Last_Update": "2020-06-10 04:07:00",
    "Latitude": 34.88084463,
    "Longitude": -88.57996173,
    "Confirmed": 23,
    "Deaths": 1,
    "Recovered": 0,
    "Active": 22,
    "Combined_Key": "Alcorn, Mississippi, US",
    "Incidence_Rate": 62.241225340297134,
    "Case-Fatality_Ratio": 4.3478260869565215
  },
  {
    "FIPS": 17003,
    "County": "Alexander",
    "Province_State": "Illinois",
    "Country_Region": "US",
    "Last_Update": "2020-06-10 04:07:00",
    "Latitude": 37.18049267,
    "Longitude": -89.32910838,
    "Confirmed": 15,
    "Deaths": 0,
    "Recovered": 0,
    "Active": 15,
    "Combined_Key": "Alexander, Illinois, US",
    "Incidence_Rate": 260.37146328762367,
    "Case-Fatality_Ratio": 0
  },
  {
    "FIPS": 37003,
    "County": "Alexander",
    "Province_State": "North Carolina",
    "Country_Region": "US",
    "Last_Update": "2020-06-10 04:07:00",
    "Latitude": 35.922379600000006,
    "Longitude": -81.17751948,
    "Confirmed": 43,
    "Deaths": 0,
    "Recovered": 0,
    "Active": 43,
    "Combined_Key": "Alexander, North Carolina, US",
    "Incidence_Rate": 114.67584073392538,
    "Case-Fatality_Ratio": 0
  },
  {
    "FIPS": 51510,
    "County": "Alexandria",
    "Province_State": "Virginia",
    "Country_Region": "US",
    "Last_Update": "2020-06-10 04:07:00",
    "Latitude": 38.814003,
    "Longitude": -77.08183073,
    "Confirmed": 2115,
    "Deaths": 47,
    "Recovered": 0,
    "Active": 2068,
    "Combined_Key": "Alexandria, Virginia, US",
    "Incidence_Rate": 1326.6176581278069,
    "Case-Fatality_Ratio": 2.2222222222222223
  },
  {
    "FIPS": 40003,
    "County": "Alfalfa",
    "Province_State": "Oklahoma",
    "Country_Region": "US",
    "Last_Update": "2020-06-10 04:07:00",
    "Latitude": 36.73090616,
    "Longitude": -98.32408495,
    "Confirmed": 1,
    "Deaths": 0,
    "Recovered": 0,
    "Active": 1,
    "Combined_Key": "Alfalfa, Oklahoma, US",
    "Incidence_Rate": 17.5377060680463,
    "Case-Fatality_Ratio": 0
  },
  {
    "FIPS": 19005,
    "County": "Allamakee",
    "Province_State": "Iowa",
    "Country_Region": "US",
    "Last_Update": "2020-06-10 04:07:00",
    "Latitude": 43.28383218,
    "Longitude": -91.37860922,
    "Confirmed": 120,
    "Deaths": 4,
    "Recovered": 0,
    "Active": 116,
    "Combined_Key": "Allamakee, Iowa, US",
    "Incidence_Rate": 876.7443559582085,
    "Case-Fatality_Ratio": 3.3333333333333335
  },
  {
    "FIPS": 26005,
    "County": "Allegan",
    "Province_State": "Michigan",
    "Country_Region": "US",
    "Last_Update": "2020-06-10 04:07:00",
    "Latitude": 42.59147037,
    "Longitude": -85.89102866,
    "Confirmed": 273,
    "Deaths": 6,
    "Recovered": 0,
    "Active": 267,
    "Combined_Key": "Allegan, Michigan, US",
    "Incidence_Rate": 231.19722902075694,
    "Case-Fatality_Ratio": 2.197802197802198
  },
  {
    "FIPS": 24001,
    "County": "Allegany",
    "Province_State": "Maryland",
    "Country_Region": "US",
    "Last_Update": "2020-06-10 04:07:00",
    "Latitude": 39.62357628,
    "Longitude": -78.69280486,
    "Confirmed": 186,
    "Deaths": 17,
    "Recovered": 0,
    "Active": 169,
    "Combined_Key": "Allegany, Maryland, US",
    "Incidence_Rate": 264.1445126107703,
    "Case-Fatality_Ratio": 9.13978494623656
  },
  {
    "FIPS": 36003,
    "County": "Allegany",
    "Province_State": "New York",
    "Country_Region": "US",
    "Last_Update": "2020-06-10 04:07:00",
    "Latitude": 42.25748406,
    "Longitude": -78.02750466,
    "Confirmed": 51,
    "Deaths": 0,
    "Recovered": 0,
    "Active": 51,
    "Combined_Key": "Allegany, New York, US",
    "Incidence_Rate": 110.65066932806839,
    "Case-Fatality_Ratio": 0
  },
  {
    "FIPS": 37005,
    "County": "Alleghany",
    "Province_State": "North Carolina",
    "Country_Region": "US",
    "Last_Update": "2020-06-10 04:07:00",
    "Latitude": 36.49360862,
    "Longitude": -81.12857041,
    "Confirmed": 29,
    "Deaths": 0,
    "Recovered": 0,
    "Active": 29,
    "Combined_Key": "Alleghany, North Carolina, US",
    "Incidence_Rate": 260.3932836490976,
    "Case-Fatality_Ratio": 0
  },
  {
    "FIPS": 51005,
    "County": "Alleghany",
    "Province_State": "Virginia",
    "Country_Region": "US",
    "Last_Update": "2020-06-10 04:07:00",
    "Latitude": 37.78636074,
    "Longitude": -80.00222498,
    "Confirmed": 26,
    "Deaths": 2,
    "Recovered": 0,
    "Active": 24,
    "Combined_Key": "Alleghany, Virginia, US",
    "Incidence_Rate": 174.9663526244953,
    "Case-Fatality_Ratio": 7.6923076923076925
  },
  {
    "FIPS": 42003,
    "County": "Allegheny",
    "Province_State": "Pennsylvania",
    "Country_Region": "US",
    "Last_Update": "2020-06-10 04:07:00",
    "Latitude": 40.46809875,
    "Longitude": -79.98167747,
    "Confirmed": 2027,
    "Deaths": 169,
    "Recovered": 0,
    "Active": 1858,
    "Combined_Key": "Allegheny, Pennsylvania, US",
    "Incidence_Rate": 166.6879103980527,
    "Case-Fatality_Ratio": 8.33744449925999
  },
  {
    "FIPS": 18003,
    "County": "Allen",
    "Province_State": "Indiana",
    "Country_Region": "US",
    "Last_Update": "2020-06-10 04:07:00",
    "Latitude": 41.09194313,
    "Longitude": -85.06800636,
    "Confirmed": 1956,
    "Deaths": 77,
    "Recovered": 0,
    "Active": 1879,
    "Combined_Key": "Allen, Indiana, US",
    "Incidence_Rate": 515.6881510365174,
    "Case-Fatality_Ratio": 3.936605316973415
  },
  {
    "FIPS": 20001,
    "County": "Allen",
    "Province_State": "Kansas",
    "Country_Region": "US",
    "Last_Update": "2020-06-10 04:07:00",
    "Latitude": 37.88582951,
    "Longitude": -95.30030847,
    "Confirmed": 1,
    "Deaths": 0,
    "Recovered": 0,
    "Active": 1,
    "Combined_Key": "Allen, Kansas, US",
    "Incidence_Rate": 8.084727948904519,
    "Case-Fatality_Ratio": 0
  },
  {
    "FIPS": 21003,
    "County": "Allen",
    "Province_State": "Kentucky",
    "Country_Region": "US",
    "Last_Update": "2020-06-10 04:07:00",
    "Latitude": 36.75197631,
    "Longitude": -86.19457544,
    "Confirmed": 116,
    "Deaths": 3,
    "Recovered": 0,
    "Active": 113,
    "Combined_Key": "Allen, Kentucky, US",
    "Incidence_Rate": 544.2176870748299,
    "Case-Fatality_Ratio": 2.586206896551724
  },
  {
    "FIPS": 22003,
    "County": "Allen",
    "Province_State": "Louisiana",
    "Country_Region": "US",
    "Last_Update": "2020-06-10 04:07:00",
    "Latitude": 30.65385745,
    "Longitude": -92.82442028,
    "Confirmed": 189,
    "Deaths": 10,
    "Recovered": 0,
    "Active": 179,
    "Combined_Key": "Allen, Louisiana, US",
    "Incidence_Rate": 737.5034143676592,
    "Case-Fatality_Ratio": 5.291005291005291
  },
  {
    "FIPS": 39003,
    "County": "Allen",
    "Province_State": "Ohio",
    "Country_Region": "US",
    "Last_Update": "2020-06-10 04:07:00",
    "Latitude": 40.77285242,
    "Longitude": -84.10802343,
    "Confirmed": 227,
    "Deaths": 34,
    "Recovered": 0,
    "Active": 193,
    "Combined_Key": "Allen, Ohio, US",
    "Incidence_Rate": 221.78581547810964,
    "Case-Fatality_Ratio": 14.977973568281937
  },
  {
    "FIPS": 45005,
    "County": "Allendale",
    "Province_State": "South Carolina",
    "Country_Region": "US",
    "Last_Update": "2020-06-10 04:07:00",
    "Latitude": 32.98837386,
    "Longitude": -81.35321066,
    "Confirmed": 39,
    "Deaths": 3,
    "Recovered": 0,
    "Active": 36,
    "Combined_Key": "Allendale, South Carolina, US",
    "Incidence_Rate": 448.89502762430936,
    "Case-Fatality_Ratio": 7.6923076923076925
  },
  {
    "FIPS": 26007,
    "County": "Alpena",
    "Province_State": "Michigan",
    "Country_Region": "US",
    "Last_Update": "2020-06-10 04:07:00",
    "Latitude": 45.03477666,
    "Longitude": -83.62212411,
    "Confirmed": 107,
    "Deaths": 9,
    "Recovered": 0,
    "Active": 98,
    "Combined_Key": "Alpena, Michigan, US",
    "Incidence_Rate": 376.69424397113187,
    "Case-Fatality_Ratio": 8.411214953271028
  },
  {
    "FIPS": 6003,
    "County": "Alpine",
    "Province_State": "California",
    "Country_Region": "US",
    "Last_Update": "2020-06-10 04:07:00",
    "Latitude": 38.59678594,
    "Longitude": -119.82235940000001,
    "Confirmed": 2,
    "Deaths": 0,
    "Recovered": 0,
    "Active": 2,
    "Combined_Key": "Alpine, California, US",
    "Incidence_Rate": 177.14791851195747,
    "Case-Fatality_Ratio": 0
  },
  {
    "FIPS": 6005,
    "County": "Amador",
    "Province_State": "California",
    "Country_Region": "US",
    "Last_Update": "2020-06-10 04:07:00",
    "Latitude": 38.44583082,
    "Longitude": -120.65696000000001,
    "Confirmed": 10,
    "Deaths": 0,
    "Recovered": 0,
    "Active": 10,
    "Combined_Key": "Amador, California, US",
    "Incidence_Rate": 25.1559669953713,
    "Case-Fatality_Ratio": 0
  },
  {
    "FIPS": 51007,
    "County": "Amelia",
    "Province_State": "Virginia",
    "Country_Region": "US",
    "Last_Update": "2020-06-10 04:07:00",
    "Latitude": 37.34081025,
    "Longitude": -77.98584649,
    "Confirmed": 33,
    "Deaths": 1,
    "Recovered": 0,
    "Active": 32,
    "Combined_Key": "Amelia, Virginia, US",
    "Incidence_Rate": 251.0460251046025,
    "Case-Fatality_Ratio": 3.0303030303030303
  },
  {
    "FIPS": 51009,
    "County": "Amherst",
    "Province_State": "Virginia",
    "Country_Region": "US",
    "Last_Update": "2020-06-10 04:07:00",
    "Latitude": 37.60308293,
    "Longitude": -79.14548696,
    "Confirmed": 27,
    "Deaths": 0,
    "Recovered": 0,
    "Active": 27,
    "Combined_Key": "Amherst, Virginia, US",
    "Incidence_Rate": 85.42952064546749,
    "Case-Fatality_Ratio": 0
  },
  {
    "FIPS": 28005,
    "County": "Amite",
    "Province_State": "Mississippi",
    "Country_Region": "US",
    "Last_Update": "2020-06-10 04:07:00",
    "Latitude": 31.17467303,
    "Longitude": -90.80501621,
    "Confirmed": 66,
    "Deaths": 2,
    "Recovered": 0,
    "Active": 64,
    "Combined_Key": "Amite, Mississippi, US",
    "Incidence_Rate": 536.7162722615273,
    "Case-Fatality_Ratio": 3.0303030303030303
  },
  {
    "FIPS": 2020,
    "County": "Anchorage",
    "Province_State": "Alaska",
    "Country_Region": "US",
    "Last_Update": "2020-06-10 04:07:00",
    "Latitude": 61.14998174,
    "Longitude": -149.14269860000005,
    "Confirmed": 288,
    "Deaths": 5,
    "Recovered": 0,
    "Active": 283,
    "Combined_Key": "Anchorage, Alaska, US",
    "Incidence_Rate": 100,
    "Case-Fatality_Ratio": 1.7361111111111112
  },
  {
    "FIPS": 20003,
    "County": "Anderson",
    "Province_State": "Kansas",
    "Country_Region": "US",
    "Last_Update": "2020-06-10 04:07:00",
    "Latitude": 38.21413251,
    "Longitude": -95.29272815,
    "Confirmed": 1,
    "Deaths": 0,
    "Recovered": 0,
    "Active": 1,
    "Combined_Key": "Anderson, Kansas, US",
    "Incidence_Rate": 12.725884448969204,
    "Case-Fatality_Ratio": 0
  },
  {
    "FIPS": 21005,
    "County": "Anderson",
    "Province_State": "Kentucky",
    "Country_Region": "US",
    "Last_Update": "2020-06-10 04:07:00",
    "Latitude": 38.00671029,
    "Longitude": -84.99171713,
    "Confirmed": 25,
    "Deaths": 1,
    "Recovered": 0,
    "Active": 24,
    "Combined_Key": "Anderson, Kentucky, US",
    "Incidence_Rate": 109.90460280476546,
    "Case-Fatality_Ratio": 4
  },
  {
    "FIPS": 45007,
    "County": "Anderson",
    "Province_State": "South Carolina",
    "Country_Region": "US",
    "Last_Update": "2020-06-10 04:07:00",
    "Latitude": 34.51828081,
    "Longitude": -82.63959517,
    "Confirmed": 289,
    "Deaths": 9,
    "Recovered": 0,
    "Active": 280,
    "Combined_Key": "Anderson, South Carolina, US",
    "Incidence_Rate": 142.67518439163103,
    "Case-Fatality_Ratio": 3.114186851211073
  },
  {
    "FIPS": 47001,
    "County": "Anderson",
    "Province_State": "Tennessee",
    "Country_Region": "US",
    "Last_Update": "2020-06-10 04:07:00",
    "Latitude": 36.12684348,
    "Longitude": -84.19965764,
    "Confirmed": 50,
    "Deaths": 2,
    "Recovered": 0,
    "Active": 48,
    "Combined_Key": "Anderson, Tennessee, US",
    "Incidence_Rate": 64.95362311309725,
    "Case-Fatality_Ratio": 4
  },
  {
    "FIPS": 48001,
    "County": "Anderson",
    "Province_State": "Texas",
    "Country_Region": "US",
    "Last_Update": "2020-06-10 04:07:00",
    "Latitude": 31.81534745,
    "Longitude": -95.65354823,
    "Confirmed": 91,
    "Deaths": 0,
    "Recovered": 0,
    "Active": 91,
    "Combined_Key": "Anderson, Texas, US",
    "Incidence_Rate": 157.61669697756994,
    "Case-Fatality_Ratio": 0
  },
  {
    "FIPS": 29003,
    "County": "Andrew",
    "Province_State": "Missouri",
    "Country_Region": "US",
    "Last_Update": "2020-06-10 04:07:00",
    "Latitude": 39.98492163,
    "Longitude": -94.80163024,
    "Confirmed": 33,
    "Deaths": 0,
    "Recovered": 0,
    "Active": 33,
    "Combined_Key": "Andrew, Missouri, US",
    "Incidence_Rate": 186.31436314363143,
    "Case-Fatality_Ratio": 0
  },
  {
    "FIPS": 48003,
    "County": "Andrews",
    "Province_State": "Texas",
    "Country_Region": "US",
    "Last_Update": "2020-06-10 04:07:00",
    "Latitude": 32.30468633,
    "Longitude": -102.63765479999999,
    "Confirmed": 27,
    "Deaths": 0,
    "Recovered": 0,
    "Active": 27,
    "Combined_Key": "Andrews, Texas, US",
    "Incidence_Rate": 144.34643143544506,
    "Case-Fatality_Ratio": 0
  },
  {
    "FIPS": 23001,
    "County": "Androscoggin",
    "Province_State": "Maine",
    "Country_Region": "US",
    "Last_Update": "2020-06-10 04:07:00",
    "Latitude": 44.1664747,
    "Longitude": -70.20380627,
    "Confirmed": 381,
    "Deaths": 3,
    "Recovered": 0,
    "Active": 378,
    "Combined_Key": "Androscoggin, Maine, US",
    "Incidence_Rate": 351.87528283938417,
    "Case-Fatality_Ratio": 0.7874015748031497
  },
  {
    "FIPS": 48005,
    "County": "Angelina",
    "Province_State": "Texas",
    "Country_Region": "US",
    "Last_Update": "2020-06-10 04:07:00",
    "Latitude": 31.25457347,
    "Longitude": -94.60901487,
    "Confirmed": 237,
    "Deaths": 5,
    "Recovered": 0,
    "Active": 232,
    "Combined_Key": "Angelina, Texas, US",
    "Incidence_Rate": 273.3091160698841,
    "Case-Fatality_Ratio": 2.109704641350211
  },
  {
    "FIPS": 24003,
    "County": "Anne Arundel",
    "Province_State": "Maryland",
    "Country_Region": "US",
    "Last_Update": "2020-06-10 04:07:00",
    "Latitude": 39.00670238,
    "Longitude": -76.60329337,
    "Confirmed": 4309,
    "Deaths": 186,
    "Recovered": 0,
    "Active": 4123,
    "Combined_Key": "Anne Arundel, Maryland, US",
    "Incidence_Rate": 743.9135133642017,
    "Case-Fatality_Ratio": 4.316546762589928
  },
  {
    "FIPS": 27003,
    "County": "Anoka",
    "Province_State": "Minnesota",
    "Country_Region": "US",
    "Last_Update": "2020-06-10 04:07:00",
    "Latitude": 45.27476015,
    "Longitude": -93.24604565,
    "Confirmed": 1627,
    "Deaths": 85,
    "Recovered": 0,
    "Active": 1542,
    "Combined_Key": "Anoka, Minnesota, US",
    "Incidence_Rate": 455.8431697770655,
    "Case-Fatality_Ratio": 5.224339274738783
  },
  {
    "FIPS": 37007,
    "County": "Anson",
    "Province_State": "North Carolina",
    "Country_Region": "US",
    "Last_Update": "2020-06-10 04:07:00",
    "Latitude": 34.97403241,
    "Longitude": -80.09953279,
    "Confirmed": 78,
    "Deaths": 1,
    "Recovered": 0,
    "Active": 77,
    "Combined_Key": "Anson, North Carolina, US",
    "Incidence_Rate": 319.0706045978892,
    "Case-Fatality_Ratio": 1.2820512820512822
  },
  {
    "FIPS": 31003,
    "County": "Antelope",
    "Province_State": "Nebraska",
    "Country_Region": "US",
    "Last_Update": "2020-06-10 04:07:00",
    "Latitude": 42.17695516,
    "Longitude": -98.06662829999999,
    "Confirmed": 8,
    "Deaths": 0,
    "Recovered": 0,
    "Active": 8,
    "Combined_Key": "Antelope, Nebraska, US",
    "Incidence_Rate": 127.02445220704986,
    "Case-Fatality_Ratio": 0
  },
  {
    "FIPS": 26009,
    "County": "Antrim",
    "Province_State": "Michigan",
    "Country_Region": "US",
    "Last_Update": "2020-06-10 04:07:00",
    "Latitude": 44.99690221,
    "Longitude": -85.15503082,
    "Confirmed": 13,
    "Deaths": 0,
    "Recovered": 0,
    "Active": 13,
    "Combined_Key": "Antrim, Michigan, US",
    "Incidence_Rate": 55.73658034642428,
    "Case-Fatality_Ratio": 0
  },
  {
    "FIPS": 4001,
    "County": "Apache",
    "Province_State": "Arizona",
    "Country_Region": "US",
    "Last_Update": "2020-06-10 04:07:00",
    "Latitude": 35.39465006,
    "Longitude": -109.4892383,
    "Confirmed": 1747,
    "Deaths": 49,
    "Recovered": 0,
    "Active": 1698,
    "Combined_Key": "Apache, Arizona, US",
    "Incidence_Rate": 2430.202957419283,
    "Case-Fatality_Ratio": 2.8048082427017746
  },
  {
    "FIPS": 19007,
    "County": "Appanoose",
    "Province_State": "Iowa",
    "Country_Region": "US",
    "Last_Update": "2020-06-10 04:07:00",
    "Latitude": 40.74324454,
    "Longitude": -92.86865906,
    "Confirmed": 16,
    "Deaths": 3,
    "Recovered": 0,
    "Active": 13,
    "Combined_Key": "Appanoose, Iowa, US",
    "Incidence_Rate": 128.76227265411234,
    "Case-Fatality_Ratio": 18.75
  },
  {
    "FIPS": 13001,
    "County": "Appling",
    "Province_State": "Georgia",
    "Country_Region": "US",
    "Last_Update": "2020-06-10 04:07:00",
    "Latitude": 31.74847232,
    "Longitude": -82.28909114,
    "Confirmed": 197,
    "Deaths": 13,
    "Recovered": 0,
    "Active": 184,
    "Combined_Key": "Appling, Georgia, US",
    "Incidence_Rate": 1071.4674208637007,
    "Case-Fatality_Ratio": 6.598984771573604
  },
  {
    "FIPS": 51011,
    "County": "Appomattox",
    "Province_State": "Virginia",
    "Country_Region": "US",
    "Last_Update": "2020-06-10 04:07:00",
    "Latitude": 37.37569884,
    "Longitude": -78.81340003,
    "Confirmed": 33,
    "Deaths": 0,
    "Recovered": 0,
    "Active": 33,
    "Combined_Key": "Appomattox, Virginia, US",
    "Incidence_Rate": 207.40368298661303,
    "Case-Fatality_Ratio": 0
  },
  {
    "FIPS": 48007,
    "County": "Aransas",
    "Province_State": "Texas",
    "Country_Region": "US",
    "Last_Update": "2020-06-10 04:07:00",
    "Latitude": 28.10556197,
    "Longitude": -96.9995047,
    "Confirmed": 5,
    "Deaths": 0,
    "Recovered": 0,
    "Active": 5,
    "Combined_Key": "Aransas, Texas, US",
    "Incidence_Rate": 21.26754572522331,
    "Case-Fatality_Ratio": 0
  },
  {
    "FIPS": 8005,
    "County": "Arapahoe",
    "Province_State": "Colorado",
    "Country_Region": "US",
    "Last_Update": "2020-06-10 04:07:00",
    "Latitude": 39.64977461,
    "Longitude": -104.3353617,
    "Confirmed": 4687,
    "Deaths": 329,
    "Recovered": 0,
    "Active": 4358,
    "Combined_Key": "Arapahoe, Colorado, US",
    "Incidence_Rate": 713.8396868669946,
    "Case-Fatality_Ratio": 7.019415404309793
  },
  {
    "FIPS": 48009,
    "County": "Archer",
    "Province_State": "Texas",
    "Country_Region": "US",
    "Last_Update": "2020-06-10 04:07:00",
    "Latitude": 33.61569967,
    "Longitude": -98.68754589,
    "Confirmed": 3,
    "Deaths": 0,
    "Recovered": 0,
    "Active": 3,
    "Combined_Key": "Archer, Texas, US",
    "Incidence_Rate": 35.0754121360926,
    "Case-Fatality_Ratio": 0
  },
  {
    "FIPS": 8007,
    "County": "Archuleta",
    "Province_State": "Colorado",
    "Country_Region": "US",
    "Last_Update": "2020-06-10 04:07:00",
    "Latitude": 37.19474156,
    "Longitude": -107.0476867,
    "Confirmed": 8,
    "Deaths": 0,
    "Recovered": 0,
    "Active": 8,
    "Combined_Key": "Archuleta, Colorado, US",
    "Incidence_Rate": 57.024734478580086,
    "Case-Fatality_Ratio": 0
  },
  {
    "FIPS": 26011,
    "County": "Arenac",
    "Province_State": "Michigan",
    "Country_Region": "US",
    "Last_Update": "2020-06-10 04:07:00",
    "Latitude": 44.0636262,
    "Longitude": -83.89277559,
    "Confirmed": 38,
    "Deaths": 1,
    "Recovered": 0,
    "Active": 37,
    "Combined_Key": "Arenac, Michigan, US",
    "Incidence_Rate": 255.32486729825976,
    "Case-Fatality_Ratio": 2.6315789473684212
  },
  {
    "FIPS": 5001,
    "County": "Arkansas",
    "Province_State": "Arkansas",
    "Country_Region": "US",
    "Last_Update": "2020-06-10 04:07:00",
    "Latitude": 34.29145151,
    "Longitude": -91.37277296,
    "Confirmed": 7,
    "Deaths": 0,
    "Recovered": 0,
    "Active": 7,
    "Combined_Key": "Arkansas, Arkansas, US",
    "Incidence_Rate": 40.0320256204964,
    "Case-Fatality_Ratio": 0
  },
  {
    "FIPS": 51013,
    "County": "Arlington",
    "Province_State": "Virginia",
    "Country_Region": "US",
    "Last_Update": "2020-06-10 04:07:00",
    "Latitude": 38.8767675,
    "Longitude": -77.10139853,
    "Confirmed": 2265,
    "Deaths": 122,
    "Recovered": 0,
    "Active": 2143,
    "Combined_Key": "Arlington, Virginia, US",
    "Incidence_Rate": 956.3337583705593,
    "Case-Fatality_Ratio": 5.386313465783664
  },
  {
    "FIPS": 42005,
    "County": "Armstrong",
    "Province_State": "Pennsylvania",
    "Country_Region": "US",
    "Last_Update": "2020-06-10 04:07:00",
    "Latitude": 40.81665618,
    "Longitude": -79.46290811,
    "Confirmed": 65,
    "Deaths": 5,
    "Recovered": 0,
    "Active": 60,
    "Combined_Key": "Armstrong, Pennsylvania, US",
    "Incidence_Rate": 100.40936124198656,
    "Case-Fatality_Ratio": 7.6923076923076925
  },
  {
    "FIPS": 48011,
    "County": "Armstrong",
    "Province_State": "Texas",
    "Country_Region": "US",
    "Last_Update": "2020-06-10 04:07:00",
    "Latitude": 34.96507426,
    "Longitude": -101.35748740000001,
    "Confirmed": 3,
    "Deaths": 0,
    "Recovered": 0,
    "Active": 3,
    "Combined_Key": "Armstrong, Texas, US",
    "Incidence_Rate": 158.9825119236884,
    "Case-Fatality_Ratio": 0
  },
  {
    "FIPS": 23003,
    "County": "Aroostook",
    "Province_State": "Maine",
    "Country_Region": "US",
    "Last_Update": "2020-06-10 04:07:00",
    "Latitude": 46.65926321,
    "Longitude": -68.59841248,
    "Confirmed": 10,
    "Deaths": 1,
    "Recovered": 0,
    "Active": 9,
    "Combined_Key": "Aroostook, Maine, US",
    "Incidence_Rate": 14.913131011855938,
    "Case-Fatality_Ratio": 10
  },
  {
    "FIPS": 31005,
    "County": "Arthur",
    "Province_State": "Nebraska",
    "Country_Region": "US",
    "Last_Update": "2020-06-10 04:07:00",
    "Latitude": 41.56896142,
    "Longitude": -101.6959559,
    "Confirmed": 0,
    "Deaths": 0,
    "Recovered": 0,
    "Active": 0,
    "Combined_Key": "Arthur, Nebraska, US",
    "Incidence_Rate": 0,
    "Case-Fatality_Ratio": null
  },
  {
    "FIPS": 22005,
    "County": "Ascension",
    "Province_State": "Louisiana",
    "Country_Region": "US",
    "Last_Update": "2020-06-10 04:07:00",
    "Latitude": 30.20406249,
    "Longitude": -90.91328409999998,
    "Confirmed": 900,
    "Deaths": 58,
    "Recovered": 0,
    "Active": 842,
    "Combined_Key": "Ascension, Louisiana, US",
    "Incidence_Rate": 710.878013332912,
    "Case-Fatality_Ratio": 6.444444444444445
  },
  {
    "FIPS": 37009,
    "County": "Ashe",
    "Province_State": "North Carolina",
    "Country_Region": "US",
    "Last_Update": "2020-06-10 04:07:00",
    "Latitude": 36.43296207,
    "Longitude": -81.49862729,
    "Confirmed": 40,
    "Deaths": 0,
    "Recovered": 0,
    "Active": 40,
    "Combined_Key": "Ashe, North Carolina, US",
    "Incidence_Rate": 147.04260559497115,
    "Case-Fatality_Ratio": 0
  },
  {
    "FIPS": 39005,
    "County": "Ashland",
    "Province_State": "Ohio",
    "Country_Region": "US",
    "Last_Update": "2020-06-10 04:07:00",
    "Latitude": 40.84772277,
    "Longitude": -82.27280781,
    "Confirmed": 25,
    "Deaths": 0,
    "Recovered": 0,
    "Active": 25,
    "Combined_Key": "Ashland, Ohio, US",
    "Incidence_Rate": 46.74295116296462,
    "Case-Fatality_Ratio": 0
  },
  {
    "FIPS": 55003,
    "County": "Ashland",
    "Province_State": "Wisconsin",
    "Country_Region": "US",
    "Last_Update": "2020-06-10 04:07:00",
    "Latitude": 46.31956891,
    "Longitude": -90.67837132,
    "Confirmed": 3,
    "Deaths": 0,
    "Recovered": 0,
    "Active": 3,
    "Combined_Key": "Ashland, Wisconsin, US",
    "Incidence_Rate": 19.277727798483486,
    "Case-Fatality_Ratio": 0
  },
  {
    "FIPS": 5003,
    "County": "Ashley",
    "Province_State": "Arkansas",
    "Country_Region": "US",
    "Last_Update": "2020-06-10 04:07:00",
    "Latitude": 33.19153461,
    "Longitude": -91.76984709999999,
    "Confirmed": 34,
    "Deaths": 0,
    "Recovered": 0,
    "Active": 34,
    "Combined_Key": "Ashley, Arkansas, US",
    "Incidence_Rate": 172.96637330213156,
    "Case-Fatality_Ratio": 0
  },
  {
    "FIPS": 39007,
    "County": "Ashtabula",
    "Province_State": "Ohio",
    "Country_Region": "US",
    "Last_Update": "2020-06-10 04:07:00",
    "Latitude": 41.70860332,
    "Longitude": -80.74830218,
    "Confirmed": 375,
    "Deaths": 38,
    "Recovered": 0,
    "Active": 337,
    "Combined_Key": "Ashtabula, Ohio, US",
    "Incidence_Rate": 385.6398021410722,
    "Case-Fatality_Ratio": 10.133333333333333
  },
  {
    "FIPS": 53003,
    "County": "Asotin",
    "Province_State": "Washington",
    "Country_Region": "US",
    "Last_Update": "2020-06-10 04:07:00",
    "Latitude": 46.18894415,
    "Longitude": -117.2022851,
    "Confirmed": 19,
    "Deaths": 2,
    "Recovered": 0,
    "Active": 17,
    "Combined_Key": "Asotin, Washington, US",
    "Incidence_Rate": 84.13780887432468,
    "Case-Fatality_Ratio": 10.526315789473685
  },
  {
    "FIPS": 22007,
    "County": "Assumption",
    "Province_State": "Louisiana",
    "Country_Region": "US",
    "Last_Update": "2020-06-10 04:07:00",
    "Latitude": 29.89946234,
    "Longitude": -91.06461642,
    "Confirmed": 258,
    "Deaths": 13,
    "Recovered": 0,
    "Active": 245,
    "Combined_Key": "Assumption, Louisiana, US",
    "Incidence_Rate": 1178.5665341921338,
    "Case-Fatality_Ratio": 5.038759689922481
  },
  {
    "FIPS": 48013,
    "County": "Atascosa",
    "Province_State": "Texas",
    "Country_Region": "US",
    "Last_Update": "2020-06-10 04:07:00",
    "Latitude": 28.89333001,
    "Longitude": -98.52730485,
    "Confirmed": 42,
    "Deaths": 2,
    "Recovered": 0,
    "Active": 40,
    "Combined_Key": "Atascosa, Texas, US",
    "Incidence_Rate": 82.106621312533,
    "Case-Fatality_Ratio": 4.761904761904762
  },
  {
    "FIPS": 20005,
    "County": "Atchison",
    "Province_State": "Kansas",
    "Country_Region": "US",
    "Last_Update": "2020-06-10 04:07:00",
    "Latitude": 39.53185661,
    "Longitude": -95.30870026,
    "Confirmed": 25,
    "Deaths": 0,
    "Recovered": 0,
    "Active": 25,
    "Combined_Key": "Atchison, Kansas, US",
    "Incidence_Rate": 155.5403471660549,
    "Case-Fatality_Ratio": 0
  },
  {
    "FIPS": 29005,
    "County": "Atchison",
    "Province_State": "Missouri",
    "Country_Region": "US",
    "Last_Update": "2020-06-10 04:07:00",
    "Latitude": 40.43238737,
    "Longitude": -95.42970639,
    "Confirmed": 3,
    "Deaths": 0,
    "Recovered": 0,
    "Active": 3,
    "Combined_Key": "Atchison, Missouri, US",
    "Incidence_Rate": 58.331713007972,
    "Case-Fatality_Ratio": 0
  },
  {
    "FIPS": 39009,
    "County": "Athens",
    "Province_State": "Ohio",
    "Country_Region": "US",
    "Last_Update": "2020-06-10 04:07:00",
    "Latitude": 39.33425634,
    "Longitude": -82.04278644,
    "Confirmed": 18,
    "Deaths": 1,
    "Recovered": 0,
    "Active": 17,
    "Combined_Key": "Athens, Ohio, US",
    "Incidence_Rate": 27.553691429271204,
    "Case-Fatality_Ratio": 5.555555555555555
  },
  {
    "FIPS": 13003,
    "County": "Atkinson",
    "Province_State": "Georgia",
    "Country_Region": "US",
    "Last_Update": "2020-06-10 04:07:00",
    "Latitude": 31.29633502,
    "Longitude": -82.87545866,
    "Confirmed": 62,
    "Deaths": 2,
    "Recovered": 0,
    "Active": 60,
    "Combined_Key": "Atkinson, Georgia, US",
    "Incidence_Rate": 759.3386405388854,
    "Case-Fatality_Ratio": 3.225806451612903
  },
  {
    "FIPS": 34001,
    "County": "Atlantic",
    "Province_State": "New Jersey",
    "Country_Region": "US",
    "Last_Update": "2020-06-10 04:07:00",
    "Latitude": 39.47538693,
    "Longitude": -74.65848483,
    "Confirmed": 2401,
    "Deaths": 167,
    "Recovered": 0,
    "Active": 2234,
    "Combined_Key": "Atlantic, New Jersey, US",
    "Incidence_Rate": 910.6079569158418,
    "Case-Fatality_Ratio": 6.9554352353186175
  },
  {
    "FIPS": 40005,
    "County": "Atoka",
    "Province_State": "Oklahoma",
    "Country_Region": "US",
    "Last_Update": "2020-06-10 04:07:00",
    "Latitude": 34.37366573,
    "Longitude": -96.03802487,
    "Confirmed": 5,
    "Deaths": 0,
    "Recovered": 0,
    "Active": 5,
    "Combined_Key": "Atoka, Oklahoma, US",
    "Incidence_Rate": 36.34249164122692,
    "Case-Fatality_Ratio": 0
  },
  {
    "FIPS": 28007,
    "County": "Attala",
    "Province_State": "Mississippi",
    "Country_Region": "US",
    "Last_Update": "2020-06-10 04:07:00",
    "Latitude": 33.08658803,
    "Longitude": -89.57838564,
    "Confirmed": 319,
    "Deaths": 21,
    "Recovered": 0,
    "Active": 298,
    "Combined_Key": "Attala, Mississippi, US",
    "Incidence_Rate": 1755.254759546605,
    "Case-Fatality_Ratio": 6.58307210031348
  },
  {
    "FIPS": 29007,
    "County": "Audrain",
    "Province_State": "Missouri",
    "Country_Region": "US",
    "Last_Update": "2020-06-10 04:07:00",
    "Latitude": 39.215877,
    "Longitude": -91.84242683,
    "Confirmed": 117,
    "Deaths": 0,
    "Recovered": 0,
    "Active": 117,
    "Combined_Key": "Audrain, Missouri, US",
    "Incidence_Rate": 460.8476445564834,
    "Case-Fatality_Ratio": 0
  },
  {
    "FIPS": 19009,
    "County": "Audubon",
    "Province_State": "Iowa",
    "Country_Region": "US",
    "Last_Update": "2020-06-10 04:07:00",
    "Latitude": 41.6844628,
    "Longitude": -94.90581859,
    "Confirmed": 13,
    "Deaths": 1,
    "Recovered": 0,
    "Active": 12,
    "Combined_Key": "Audubon, Iowa, US",
    "Incidence_Rate": 236.53566229985444,
    "Case-Fatality_Ratio": 7.6923076923076925
  },
  {
    "FIPS": 39011,
    "County": "Auglaize",
    "Province_State": "Ohio",
    "Country_Region": "US",
    "Last_Update": "2020-06-10 04:07:00",
    "Latitude": 40.55998859,
    "Longitude": -84.22421429999999,
    "Confirmed": 80,
    "Deaths": 3,
    "Recovered": 0,
    "Active": 77,
    "Combined_Key": "Auglaize, Ohio, US",
    "Incidence_Rate": 175.22340984755564,
    "Case-Fatality_Ratio": 3.75
  },
  {
    "FIPS": 51015,
    "County": "Augusta",
    "Province_State": "Virginia",
    "Country_Region": "US",
    "Last_Update": "2020-06-10 04:07:00",
    "Latitude": 38.16404586,
    "Longitude": -79.12461614,
    "Confirmed": 137,
    "Deaths": 2,
    "Recovered": 0,
    "Active": 135,
    "Combined_Key": "Augusta, Virginia, US",
    "Incidence_Rate": 181.31766325207127,
    "Case-Fatality_Ratio": 1.4598540145985401
  },
  {
    "FIPS": 46003,
    "County": "Aurora",
    "Province_State": "South Dakota",
    "Country_Region": "US",
    "Last_Update": "2020-06-10 04:07:00",
    "Latitude": 43.71757685,
    "Longitude": -98.56050467,
    "Confirmed": 29,
    "Deaths": 0,
    "Recovered": 0,
    "Active": 29,
    "Combined_Key": "Aurora, South Dakota, US",
    "Incidence_Rate": 1054.162122864413,
    "Case-Fatality_Ratio": 0
  },
  {
    "FIPS": 48015,
    "County": "Austin",
    "Province_State": "Texas",
    "Country_Region": "US",
    "Last_Update": "2020-06-10 04:07:00",
    "Latitude": 29.88548725,
    "Longitude": -96.27736949,
    "Confirmed": 32,
    "Deaths": 0,
    "Recovered": 0,
    "Active": 32,
    "Combined_Key": "Austin, Texas, US",
    "Incidence_Rate": 106.55301012253597,
    "Case-Fatality_Ratio": 0
  },
  {
    "FIPS": 1001,
    "County": "Autauga",
    "Province_State": "Alabama",
    "Country_Region": "US",
    "Last_Update": "2020-06-10 04:07:00",
    "Latitude": 32.53952745,
    "Longitude": -86.64408227,
    "Confirmed": 282,
    "Deaths": 5,
    "Recovered": 0,
    "Active": 277,
    "Combined_Key": "Autauga, Alabama, US",
    "Incidence_Rate": 504.7521881544327,
    "Case-Fatality_Ratio": 1.7730496453900708
  },
  {
    "FIPS": 37011,
    "County": "Avery",
    "Province_State": "North Carolina",
    "Country_Region": "US",
    "Last_Update": "2020-06-10 04:07:00",
    "Latitude": 36.07569796,
    "Longitude": -81.92308483,
    "Confirmed": 4,
    "Deaths": 0,
    "Recovered": 0,
    "Active": 4,
    "Combined_Key": "Avery, North Carolina, US",
    "Incidence_Rate": 22.782935581249642,
    "Case-Fatality_Ratio": 0
  },
  {
    "FIPS": 22009,
    "County": "Avoyelles",
    "Province_State": "Louisiana",
    "Country_Region": "US",
    "Last_Update": "2020-06-10 04:07:00",
    "Latitude": 31.07796211,
    "Longitude": -92.00079449,
    "Confirmed": 175,
    "Deaths": 9,
    "Recovered": 0,
    "Active": 166,
    "Combined_Key": "Avoyelles, Louisiana, US",
    "Incidence_Rate": 435.9306496612196,
    "Case-Fatality_Ratio": 5.142857142857143
  },
  {
    "FIPS": 8009,
    "County": "Baca",
    "Province_State": "Colorado",
    "Country_Region": "US",
    "Last_Update": "2020-06-10 04:07:00",
    "Latitude": 37.31940883,
    "Longitude": -102.5603223,
    "Confirmed": 12,
    "Deaths": 0,
    "Recovered": 0,
    "Active": 12,
    "Combined_Key": "Baca, Colorado, US",
    "Incidence_Rate": 335.1019268360793,
    "Case-Fatality_Ratio": 0
  },
  {
    "FIPS": 13005,
    "County": "Bacon",
    "Province_State": "Georgia",
    "Country_Region": "US",
    "Last_Update": "2020-06-10 04:07:00",
    "Latitude": 31.55456473,
    "Longitude": -82.45936528,
    "Confirmed": 152,
    "Deaths": 3,
    "Recovered": 0,
    "Active": 149,
    "Combined_Key": "Bacon, Georgia, US",
    "Incidence_Rate": 1361.519168756718,
    "Case-Fatality_Ratio": 1.9736842105263157
  },
  {
    "FIPS": 48017,
    "County": "Bailey",
    "Province_State": "Texas",
    "Country_Region": "US",
    "Last_Update": "2020-06-10 04:07:00",
    "Latitude": 34.06854817,
    "Longitude": -102.8299707,
    "Confirmed": 26,
    "Deaths": 0,
    "Recovered": 0,
    "Active": 26,
    "Combined_Key": "Bailey, Texas, US",
    "Incidence_Rate": 371.42857142857144,
    "Case-Fatality_Ratio": 0
  },
  {
    "FIPS": 12003,
    "County": "Baker",
    "Province_State": "Florida",
    "Country_Region": "US",
    "Last_Update": "2020-06-10 04:07:00",
    "Latitude": 30.33060121,
    "Longitude": -82.28467476,
    "Confirmed": 29,
    "Deaths": 4,
    "Recovered": 0,
    "Active": 25,
    "Combined_Key": "Baker, Florida, US",
    "Incidence_Rate": 99.28106812735365,
    "Case-Fatality_Ratio": 13.793103448275861
  },
  {
    "FIPS": 13007,
    "County": "Baker",
    "Province_State": "Georgia",
    "Country_Region": "US",
    "Last_Update": "2020-06-10 04:07:00",
    "Latitude": 31.32669878,
    "Longitude": -84.44218806,
    "Confirmed": 37,
    "Deaths": 3,
    "Recovered": 0,
    "Active": 34,
    "Combined_Key": "Baker, Georgia, US",
    "Incidence_Rate": 1217.906517445688,
    "Case-Fatality_Ratio": 8.108108108108109
  },
  {
    "FIPS": 41001,
    "County": "Baker",
    "Province_State": "Oregon",
    "Country_Region": "US",
    "Last_Update": "2020-06-10 04:07:00",
    "Latitude": 44.70915557,
    "Longitude": -117.6749883,
    "Confirmed": 1,
    "Deaths": 0,
    "Recovered": 0,
    "Active": 1,
    "Combined_Key": "Baker, Oregon, US",
    "Incidence_Rate": 6.201935003721161,
    "Case-Fatality_Ratio": 0
  },
  {
    "FIPS": 1003,
    "County": "Baldwin",
    "Province_State": "Alabama",
    "Country_Region": "US",
    "Last_Update": "2020-06-10 04:07:00",
    "Latitude": 30.72774991,
    "Longitude": -87.72207058,
    "Confirmed": 325,
    "Deaths": 9,
    "Recovered": 0,
    "Active": 316,
    "Combined_Key": "Baldwin, Alabama, US",
    "Incidence_Rate": 145.5871417436412,
    "Case-Fatality_Ratio": 2.769230769230769
  },
  {
    "FIPS": 13009,
    "County": "Baldwin",
    "Province_State": "Georgia",
    "Country_Region": "US",
    "Last_Update": "2020-06-10 04:07:00",
    "Latitude": 33.06882326,
    "Longitude": -83.24701748,
    "Confirmed": 393,
    "Deaths": 29,
    "Recovered": 0,
    "Active": 364,
    "Combined_Key": "Baldwin, Georgia, US",
    "Incidence_Rate": 875.4733793717977,
    "Case-Fatality_Ratio": 7.379134860050891
  },
  {
    "FIPS": 21007,
    "County": "Ballard",
    "Province_State": "Kentucky",
    "Country_Region": "US",
    "Last_Update": "2020-06-10 04:07:00",
    "Latitude": 37.05842757,
    "Longitude": -88.99427697,
    "Confirmed": 13,
    "Deaths": 0,
    "Recovered": 0,
    "Active": 13,
    "Combined_Key": "Ballard, Kentucky, US",
    "Incidence_Rate": 164.80730223123732,
    "Case-Fatality_Ratio": 0
  },
  {
    "FIPS": 24005,
    "County": "Baltimore",
    "Province_State": "Maryland",
    "Country_Region": "US",
    "Last_Update": "2020-06-10 04:07:00",
    "Latitude": 39.45784712,
    "Longitude": -76.62911955,
    "Confirmed": 6852,
    "Deaths": 398,
    "Recovered": 0,
    "Active": 6454,
    "Combined_Key": "Baltimore, Maryland, US",
    "Incidence_Rate": 828.166358461148,
    "Case-Fatality_Ratio": 5.808523058960887
  },
  {
    "FIPS": 24510,
    "County": "Baltimore City",
    "Province_State": "Maryland",
    "Country_Region": "US",
    "Last_Update": "2020-06-10 04:07:00",
    "Latitude": 39.30211911,
    "Longitude": -76.61151012,
    "Confirmed": 6355,
    "Deaths": 287,
    "Recovered": 0,
    "Active": 6068,
    "Combined_Key": "Baltimore City, Maryland, US",
    "Incidence_Rate": 1070.784680449544,
    "Case-Fatality_Ratio": 4.516129032258065
  },
  {
    "FIPS": 45009,
    "County": "Bamberg",
    "Province_State": "South Carolina",
    "Country_Region": "US",
    "Last_Update": "2020-06-10 04:07:00",
    "Latitude": 33.21927586,
    "Longitude": -81.05659969,
    "Confirmed": 36,
    "Deaths": 0,
    "Recovered": 0,
    "Active": 36,
    "Combined_Key": "Bamberg, South Carolina, US",
    "Incidence_Rate": 255.93630029859236,
    "Case-Fatality_Ratio": 0
  },
  {
    "FIPS": 48019,
    "County": "Bandera",
    "Province_State": "Texas",
    "Country_Region": "US",
    "Last_Update": "2020-06-10 04:07:00",
    "Latitude": 29.74619598,
    "Longitude": -99.24598147,
    "Confirmed": 6,
    "Deaths": 0,
    "Recovered": 0,
    "Active": 6,
    "Combined_Key": "Bandera, Texas, US",
    "Incidence_Rate": 25.96053997923157,
    "Case-Fatality_Ratio": 0
  },
  {
    "FIPS": 13011,
    "County": "Banks",
    "Province_State": "Georgia",
    "Country_Region": "US",
    "Last_Update": "2020-06-10 04:07:00",
    "Latitude": 34.35607081,
    "Longitude": -83.49644388,
    "Confirmed": 99,
    "Deaths": 1,
    "Recovered": 0,
    "Active": 98,
    "Combined_Key": "Banks, Georgia, US",
    "Incidence_Rate": 514.7135281272746,
    "Case-Fatality_Ratio": 1.0101010101010102
  },
  {
    "FIPS": 16005,
    "County": "Bannock",
    "Province_State": "Idaho",
    "Country_Region": "US",
    "Last_Update": "2020-06-10 04:07:00",
    "Latitude": 42.67002716,
    "Longitude": -112.2233311,
    "Confirmed": 49,
    "Deaths": 1,
    "Recovered": 0,
    "Active": 48,
    "Combined_Key": "Bannock, Idaho, US",
    "Incidence_Rate": 55.80357142857143,
    "Case-Fatality_Ratio": 2.0408163265306123
  },
  {
    "FIPS": 26013,
    "County": "Baraga",
    "Province_State": "Michigan",
    "Country_Region": "US",
    "Last_Update": "2020-06-10 04:07:00",
    "Latitude": 46.6720582,
    "Longitude": -88.36363591,
    "Confirmed": 1,
    "Deaths": 0,
    "Recovered": 0,
    "Active": 1,
    "Combined_Key": "Baraga, Michigan, US",
    "Incidence_Rate": 12.181751735899622,
    "Case-Fatality_Ratio": 0
  },
  {
    "FIPS": 20007,
    "County": "Barber",
    "Province_State": "Kansas",
    "Country_Region": "US",
    "Last_Update": "2020-06-10 04:07:00",
    "Latitude": 37.2288586,
    "Longitude": -98.68460053,
    "Confirmed": 1,
    "Deaths": 0,
    "Recovered": 0,
    "Active": 1,
    "Combined_Key": "Barber, Kansas, US",
    "Incidence_Rate": 22.588660492432798,
    "Case-Fatality_Ratio": 0
  },
  {
    "FIPS": 1005,
    "County": "Barbour",
    "Province_State": "Alabama",
    "Country_Region": "US",
    "Last_Update": "2020-06-10 04:07:00",
    "Latitude": 31.868263,
    "Longitude": -85.3871286,
    "Confirmed": 199,
    "Deaths": 1,
    "Recovered": 0,
    "Active": 198,
    "Combined_Key": "Barbour, Alabama, US",
    "Incidence_Rate": 806.1249291096168,
    "Case-Fatality_Ratio": 0.5025125628140703
  },
  {
    "FIPS": 54001,
    "County": "Barbour",
    "Province_State": "West Virginia",
    "Country_Region": "US",
    "Last_Update": "2020-06-10 04:07:00",
    "Latitude": 39.1307219,
    "Longitude": -80.00350858,
    "Confirmed": 8,
    "Deaths": 1,
    "Recovered": 0,
    "Active": 7,
    "Combined_Key": "Barbour, West Virginia, US",
    "Incidence_Rate": 48.65884070312025,
    "Case-Fatality_Ratio": 12.5
  },
  {
    "FIPS": 38003,
    "County": "Barnes",
    "Province_State": "North Dakota",
    "Country_Region": "US",
    "Last_Update": "2020-06-10 04:07:00",
    "Latitude": 46.93579637,
    "Longitude": -98.06605978,
    "Confirmed": 9,
    "Deaths": 0,
    "Recovered": 0,
    "Active": 9,
    "Combined_Key": "Barnes, North Dakota, US",
    "Incidence_Rate": 86.41382621219395,
    "Case-Fatality_Ratio": 0
  },
  {
    "FIPS": 25001,
    "County": "Barnstable",
    "Province_State": "Massachusetts",
    "Country_Region": "US",
    "Last_Update": "2020-06-10 04:07:00",
    "Latitude": 41.72980578,
    "Longitude": -70.28854339,
    "Confirmed": 1462,
    "Deaths": 123,
    "Recovered": 0,
    "Active": 1339,
    "Combined_Key": "Barnstable, Massachusetts, US",
    "Incidence_Rate": 686.4172026855721,
    "Case-Fatality_Ratio": 8.41313269493844
  },
  {
    "FIPS": 45011,
    "County": "Barnwell",
    "Province_State": "South Carolina",
    "Country_Region": "US",
    "Last_Update": "2020-06-10 04:07:00",
    "Latitude": 33.26679302,
    "Longitude": -81.43584352,
    "Confirmed": 54,
    "Deaths": 1,
    "Recovered": 0,
    "Active": 53,
    "Combined_Key": "Barnwell, South Carolina, US",
    "Incidence_Rate": 258.7942106776574,
    "Case-Fatality_Ratio": 1.8518518518518519
  },
  {
    "FIPS": 21009,
    "County": "Barren",
    "Province_State": "Kentucky",
    "Country_Region": "US",
    "Last_Update": "2020-06-10 04:07:00",
    "Latitude": 36.96469836,
    "Longitude": -85.93338945,
    "Confirmed": 56,
    "Deaths": 2,
    "Recovered": 0,
    "Active": 54,
    "Combined_Key": "Barren, Kentucky, US",
    "Incidence_Rate": 126.55653235101359,
    "Case-Fatality_Ratio": 3.5714285714285716
  },
  {
    "FIPS": 55005,
    "County": "Barron",
    "Province_State": "Wisconsin",
    "Country_Region": "US",
    "Last_Update": "2020-06-10 04:07:00",
    "Latitude": 45.42372701,
    "Longitude": -91.84833627,
    "Confirmed": 20,
    "Deaths": 0,
    "Recovered": 0,
    "Active": 20,
    "Combined_Key": "Barron, Wisconsin, US",
    "Incidence_Rate": 44.20475643179206,
    "Case-Fatality_Ratio": 0
  },
  {
    "FIPS": 13013,
    "County": "Barrow",
    "Province_State": "Georgia",
    "Country_Region": "US",
    "Last_Update": "2020-06-10 04:07:00",
    "Latitude": 33.99148694,
    "Longitude": -83.71436292,
    "Confirmed": 356,
    "Deaths": 20,
    "Recovered": 0,
    "Active": 336,
    "Combined_Key": "Barrow, Georgia, US",
    "Incidence_Rate": 427.6790004805382,
    "Case-Fatality_Ratio": 5.617977528089888
  },
  {
    "FIPS": 26015,
    "County": "Barry",
    "Province_State": "Michigan",
    "Country_Region": "US",
    "Last_Update": "2020-06-10 04:07:00",
    "Latitude": 42.59513984,
    "Longitude": -85.30834519,
    "Confirmed": 87,
    "Deaths": 2,
    "Recovered": 0,
    "Active": 85,
    "Combined_Key": "Barry, Michigan, US",
    "Incidence_Rate": 141.3484971567831,
    "Case-Fatality_Ratio": 2.2988505747126435
  },
  {
    "FIPS": 29009,
    "County": "Barry",
    "Province_State": "Missouri",
    "Country_Region": "US",
    "Last_Update": "2020-06-10 04:07:00",
    "Latitude": 36.70978521,
    "Longitude": -93.82919888,
    "Confirmed": 9,
    "Deaths": 0,
    "Recovered": 0,
    "Active": 9,
    "Combined_Key": "Barry, Missouri, US",
    "Incidence_Rate": 25.14739165665428,
    "Case-Fatality_Ratio": 0
  },
  {
    "FIPS": 18005,
    "County": "Bartholomew",
    "Province_State": "Indiana",
    "Country_Region": "US",
    "Last_Update": "2020-06-10 04:07:00",
    "Latitude": 39.20744865,
    "Longitude": -85.89558181,
    "Confirmed": 539,
    "Deaths": 40,
    "Recovered": 0,
    "Active": 499,
    "Combined_Key": "Bartholomew, Indiana, US",
    "Incidence_Rate": 643.3593143866601,
    "Case-Fatality_Ratio": 7.421150278293135
  },
  {
    "FIPS": 20009,
    "County": "Barton",
    "Province_State": "Kansas",
    "Country_Region": "US",
    "Last_Update": "2020-06-10 04:07:00",
    "Latitude": 38.47889676,
    "Longitude": -98.75636726,
    "Confirmed": 46,
    "Deaths": 2,
    "Recovered": 0,
    "Active": 44,
    "Combined_Key": "Barton, Kansas, US",
    "Incidence_Rate": 178.43981535358236,
    "Case-Fatality_Ratio": 4.3478260869565215
  },
  {
    "FIPS": 13015,
    "County": "Bartow",
    "Province_State": "Georgia",
    "Country_Region": "US",
    "Last_Update": "2020-06-10 04:07:00",
    "Latitude": 34.23732119,
    "Longitude": -84.83887523,
    "Confirmed": 527,
    "Deaths": 39,
    "Recovered": 0,
    "Active": 488,
    "Combined_Key": "Bartow, Georgia, US",
    "Incidence_Rate": 489.14960366815797,
    "Case-Fatality_Ratio": 7.400379506641366
  },
  {
    "FIPS": 48021,
    "County": "Bastrop",
    "Province_State": "Texas",
    "Country_Region": "US",
    "Last_Update": "2020-06-10 04:07:00",
    "Latitude": 30.10370699,
    "Longitude": -97.31206354,
    "Confirmed": 270,
    "Deaths": 4,
    "Recovered": 0,
    "Active": 266,
    "Combined_Key": "Bastrop, Texas, US",
    "Incidence_Rate": 304.3179333431016,
    "Case-Fatality_Ratio": 1.4814814814814814
  },
  {
    "FIPS": 29013,
    "County": "Bates",
    "Province_State": "Missouri",
    "Country_Region": "US",
    "Last_Update": "2020-06-10 04:07:00",
    "Latitude": 38.25271289,
    "Longitude": -94.34113157,
    "Confirmed": 12,
    "Deaths": 1,
    "Recovered": 0,
    "Active": 11,
    "Combined_Key": "Bates, Missouri, US",
    "Incidence_Rate": 74.20232500618353,
    "Case-Fatality_Ratio": 8.333333333333334
  },
  {
    "FIPS": 21011,
    "County": "Bath",
    "Province_State": "Kentucky",
    "Country_Region": "US",
    "Last_Update": "2020-06-10 04:07:00",
    "Latitude": 38.14735938,
    "Longitude": -83.74588932,
    "Confirmed": 9,
    "Deaths": 1,
    "Recovered": 0,
    "Active": 8,
    "Combined_Key": "Bath, Kentucky, US",
    "Incidence_Rate": 72,
    "Case-Fatality_Ratio": 11.11111111111111
  },
  {
    "FIPS": 51017,
    "County": "Bath",
    "Province_State": "Virginia",
    "Country_Region": "US",
    "Last_Update": "2020-06-10 04:07:00",
    "Latitude": 38.05852573,
    "Longitude": -79.73912095,
    "Confirmed": 0,
    "Deaths": 0,
    "Recovered": 0,
    "Active": 0,
    "Combined_Key": "Bath, Virginia, US",
    "Incidence_Rate": 0,
    "Case-Fatality_Ratio": null
  },
  {
    "FIPS": 5005,
    "County": "Baxter",
    "Province_State": "Arkansas",
    "Country_Region": "US",
    "Last_Update": "2020-06-10 04:07:00",
    "Latitude": 36.28784385,
    "Longitude": -92.33782872,
    "Confirmed": 13,
    "Deaths": 0,
    "Recovered": 0,
    "Active": 13,
    "Combined_Key": "Baxter, Arkansas, US",
    "Incidence_Rate": 31.00257559858819,
    "Case-Fatality_Ratio": 0
  },
  {
    "FIPS": 12005,
    "County": "Bay",
    "Province_State": "Florida",
    "Country_Region": "US",
    "Last_Update": "2020-06-10 04:07:00",
    "Latitude": 30.26548745,
    "Longitude": -85.62122584,
    "Confirmed": 133,
    "Deaths": 4,
    "Recovered": 0,
    "Active": 129,
    "Combined_Key": "Bay, Florida, US",
    "Incidence_Rate": 76.12833061446439,
    "Case-Fatality_Ratio": 3.007518796992481
  },
  {
    "FIPS": 26017,
    "County": "Bay",
    "Province_State": "Michigan",
    "Country_Region": "US",
    "Last_Update": "2020-06-10 04:07:00",
    "Latitude": 43.70639106,
    "Longitude": -83.98731479,
    "Confirmed": 385,
    "Deaths": 27,
    "Recovered": 0,
    "Active": 358,
    "Combined_Key": "Bay, Michigan, US",
    "Incidence_Rate": 373.3297131664178,
    "Case-Fatality_Ratio": 7.012987012987013
  },
  {
    "FIPS": 55007,
    "County": "Bayfield",
    "Province_State": "Wisconsin",
    "Country_Region": "US",
    "Last_Update": "2020-06-10 04:07:00",
    "Latitude": 46.52868768,
    "Longitude": -91.19716729,
    "Confirmed": 3,
    "Deaths": 1,
    "Recovered": 0,
    "Active": 2,
    "Combined_Key": "Bayfield, Wisconsin, US",
    "Incidence_Rate": 19.952114924181963,
    "Case-Fatality_Ratio": 33.333333333333336
  },
  {
    "FIPS": 48023,
    "County": "Baylor",
    "Province_State": "Texas",
    "Country_Region": "US",
    "Last_Update": "2020-06-10 04:07:00",
    "Latitude": 33.61640794,
    "Longitude": -99.21352901,
    "Confirmed": 1,
    "Deaths": 0,
    "Recovered": 0,
    "Active": 1,
    "Combined_Key": "Baylor, Texas, US",
    "Incidence_Rate": 28.498147620404673,
    "Case-Fatality_Ratio": 0
  },
  {
    "FIPS": 46005,
    "County": "Beadle",
    "Province_State": "South Dakota",
    "Country_Region": "US",
    "Last_Update": "2020-06-10 04:07:00",
    "Latitude": 44.41464384,
    "Longitude": -98.27858469,
    "Confirmed": 386,
    "Deaths": 5,
    "Recovered": 0,
    "Active": 381,
    "Combined_Key": "Beadle, South Dakota, US",
    "Incidence_Rate": 2091.800791199263,
    "Case-Fatality_Ratio": 1.2953367875647668
  },
  {
    "FIPS": null,
    "County": "Bear River",
    "Province_State": "Utah",
    "Country_Region": "US",
    "Last_Update": "2020-06-10 04:07:00",
    "Latitude": 41.52106798,
    "Longitude": -113.08328159999999,
    "Confirmed": 795,
    "Deaths": 2,
    "Recovered": 0,
    "Active": 793,
    "Combined_Key": "Bear River, Utah, US",
    "Incidence_Rate": 425.5478594139751,
    "Case-Fatality_Ratio": 0.25157232704402516
  },
  {
    "FIPS": 37013,
    "County": "Beaufort",
    "Province_State": "North Carolina",
    "Country_Region": "US",
    "Last_Update": "2020-06-10 04:07:00",
    "Latitude": 35.48531943,
    "Longitude": -76.84325809,
    "Confirmed": 44,
    "Deaths": 0,
    "Recovered": 0,
    "Active": 44,
    "Combined_Key": "Beaufort, North Carolina, US",
    "Incidence_Rate": 93.62897391156318,
    "Case-Fatality_Ratio": 0
  },
  {
    "FIPS": 45013,
    "County": "Beaufort",
    "Province_State": "South Carolina",
    "Country_Region": "US",
    "Last_Update": "2020-06-10 04:07:00",
    "Latitude": 32.39226291,
    "Longitude": -80.72619758,
    "Confirmed": 464,
    "Deaths": 14,
    "Recovered": 0,
    "Active": 450,
    "Combined_Key": "Beaufort, South Carolina, US",
    "Incidence_Rate": 241.5132051508937,
    "Case-Fatality_Ratio": 3.0172413793103448
  },
  {
    "FIPS": 22011,
    "County": "Beauregard",
    "Province_State": "Louisiana",
    "Country_Region": "US",
    "Last_Update": "2020-06-10 04:07:00",
    "Latitude": 30.64836518,
    "Longitude": -93.34173616,
    "Confirmed": 114,
    "Deaths": 4,
    "Recovered": 0,
    "Active": 110,
    "Combined_Key": "Beauregard, Louisiana, US",
    "Incidence_Rate": 304.0243219457557,
    "Case-Fatality_Ratio": 3.508771929824561
  },
  {
    "FIPS": 40007,
    "County": "Beaver",
    "Province_State": "Oklahoma",
    "Country_Region": "US",
    "Last_Update": "2020-06-10 04:07:00",
    "Latitude": 36.7496847,
    "Longitude": -100.4758872,
    "Confirmed": 27,
    "Deaths": 0,
    "Recovered": 0,
    "Active": 27,
    "Combined_Key": "Beaver, Oklahoma, US",
    "Incidence_Rate": 508.37883637733006,
    "Case-Fatality_Ratio": 0
  },
  {
    "FIPS": 42007,
    "County": "Beaver",
    "Province_State": "Pennsylvania",
    "Country_Region": "US",
    "Last_Update": "2020-06-10 04:07:00",
    "Latitude": 40.6825484,
    "Longitude": -80.34921611,
    "Confirmed": 608,
    "Deaths": 74,
    "Recovered": 0,
    "Active": 534,
    "Combined_Key": "Beaver, Pennsylvania, US",
    "Incidence_Rate": 370.8922765343533,
    "Case-Fatality_Ratio": 12.171052631578947
  },
  {
    "FIPS": 30001,
    "County": "Beaverhead",
    "Province_State": "Montana",
    "Country_Region": "US",
    "Last_Update": "2020-06-10 04:07:00",
    "Latitude": 45.13434354,
    "Longitude": -112.89846940000001,
    "Confirmed": 1,
    "Deaths": 0,
    "Recovered": 0,
    "Active": 1,
    "Combined_Key": "Beaverhead, Montana, US",
    "Incidence_Rate": 10.578652279699567,
    "Case-Fatality_Ratio": 0
  },
  {
    "FIPS": 27005,
    "County": "Becker",
    "Province_State": "Minnesota",
    "Country_Region": "US",
    "Last_Update": "2020-06-10 04:07:00",
    "Latitude": 46.93479392,
    "Longitude": -95.67158144,
    "Confirmed": 45,
    "Deaths": 0,
    "Recovered": 0,
    "Active": 45,
    "Combined_Key": "Becker, Minnesota, US",
    "Incidence_Rate": 130.72654910960694,
    "Case-Fatality_Ratio": 0
  },
  {
    "FIPS": 40009,
    "County": "Beckham",
    "Province_State": "Oklahoma",
    "Country_Region": "US",
    "Last_Update": "2020-06-10 04:07:00",
    "Latitude": 35.26862449,
    "Longitude": -99.68128023,
    "Confirmed": 7,
    "Deaths": 0,
    "Recovered": 0,
    "Active": 7,
    "Combined_Key": "Beckham, Oklahoma, US",
    "Incidence_Rate": 32.023422846424815,
    "Case-Fatality_Ratio": 0
  },
  {
    "FIPS": 42009,
    "County": "Bedford",
    "Province_State": "Pennsylvania",
    "Country_Region": "US",
    "Last_Update": "2020-06-10 04:07:00",
    "Latitude": 40.00522157,
    "Longitude": -78.48998442,
    "Confirmed": 45,
    "Deaths": 2,
    "Recovered": 0,
    "Active": 43,
    "Combined_Key": "Bedford, Pennsylvania, US",
    "Incidence_Rate": 93.96926161042433,
    "Case-Fatality_Ratio": 4.444444444444445
  },
  {
    "FIPS": 47003,
    "County": "Bedford",
    "Province_State": "Tennessee",
    "Country_Region": "US",
    "Last_Update": "2020-06-10 04:07:00",
    "Latitude": 35.51123746,
    "Longitude": -86.45549096,
    "Confirmed": 341,
    "Deaths": 4,
    "Recovered": 0,
    "Active": 337,
    "Combined_Key": "Bedford, Tennessee, US",
    "Incidence_Rate": 685.9372799871261,
    "Case-Fatality_Ratio": 1.1730205278592376
  },
  {
    "FIPS": 51019,
    "County": "Bedford",
    "Province_State": "Virginia",
    "Country_Region": "US",
    "Last_Update": "2020-06-10 04:07:00",
    "Latitude": 37.3080028,
    "Longitude": -79.5281964,
    "Confirmed": 81,
    "Deaths": 2,
    "Recovered": 0,
    "Active": 79,
    "Combined_Key": "Bedford, Virginia, US",
    "Incidence_Rate": 102.53553932427813,
    "Case-Fatality_Ratio": 2.4691358024691357
  },
  {
    "FIPS": 48025,
    "County": "Bee",
    "Province_State": "Texas",
    "Country_Region": "US",
    "Last_Update": "2020-06-10 04:07:00",
    "Latitude": 28.41761668,
    "Longitude": -97.74215593,
    "Confirmed": 24,
    "Deaths": 0,
    "Recovered": 0,
    "Active": 24,
    "Combined_Key": "Bee, Texas, US",
    "Incidence_Rate": 73.69875633348687,
    "Case-Fatality_Ratio": 0
  },
  {
    "FIPS": 33001,
    "County": "Belknap",
    "Province_State": "New Hampshire",
    "Country_Region": "US",
    "Last_Update": "2020-06-10 04:07:00",
    "Latitude": 43.51637314,
    "Longitude": -71.41684235,
    "Confirmed": 70,
    "Deaths": 0,
    "Recovered": 0,
    "Active": 70,
    "Combined_Key": "Belknap, New Hampshire, US",
    "Incidence_Rate": 114.18690765541653,
    "Case-Fatality_Ratio": 0
  },
  {
    "FIPS": 21013,
    "County": "Bell",
    "Province_State": "Kentucky",
    "Country_Region": "US",
    "Last_Update": "2020-06-10 04:07:00",
    "Latitude": 36.73355174,
    "Longitude": -83.67766671,
    "Confirmed": 3,
    "Deaths": 0,
    "Recovered": 0,
    "Active": 3,
    "Combined_Key": "Bell, Kentucky, US",
    "Incidence_Rate": 11.524277811923787,
    "Case-Fatality_Ratio": 0
  },
  {
    "FIPS": 48027,
    "County": "Bell",
    "Province_State": "Texas",
    "Country_Region": "US",
    "Last_Update": "2020-06-10 04:07:00",
    "Latitude": 31.03736027,
    "Longitude": -97.4785025,
    "Confirmed": 473,
    "Deaths": 5,
    "Recovered": 0,
    "Active": 468,
    "Combined_Key": "Bell, Texas, US",
    "Incidence_Rate": 130.33031709118163,
    "Case-Fatality_Ratio": 1.0570824524312896
  },
  {
    "FIPS": 39013,
    "County": "Belmont",
    "Province_State": "Ohio",
    "Country_Region": "US",
    "Last_Update": "2020-06-10 04:07:00",
    "Latitude": 40.01625942,
    "Longitude": -80.9924051,
    "Confirmed": 455,
    "Deaths": 15,
    "Recovered": 0,
    "Active": 440,
    "Combined_Key": "Belmont, Ohio, US",
    "Incidence_Rate": 679.043667731248,
    "Case-Fatality_Ratio": 3.2967032967032965
  },
  {
    "FIPS": 27007,
    "County": "Beltrami",
    "Province_State": "Minnesota",
    "Country_Region": "US",
    "Last_Update": "2020-06-10 04:07:00",
    "Latitude": 47.97373527,
    "Longitude": -94.93732139,
    "Confirmed": 21,
    "Deaths": 0,
    "Recovered": 0,
    "Active": 21,
    "Combined_Key": "Beltrami, Minnesota, US",
    "Incidence_Rate": 44.50283970500975,
    "Case-Fatality_Ratio": 0
  },
  {
    "FIPS": 13017,
    "County": "Ben Hill",
    "Province_State": "Georgia",
    "Country_Region": "US",
    "Last_Update": "2020-06-10 04:07:00",
    "Latitude": 31.76095874,
    "Longitude": -83.22145359,
    "Confirmed": 93,
    "Deaths": 1,
    "Recovered": 0,
    "Active": 92,
    "Combined_Key": "Ben Hill, Georgia, US",
    "Incidence_Rate": 556.8862275449102,
    "Case-Fatality_Ratio": 1.075268817204301
  },
  {
    "FIPS": 16009,
    "County": "Benewah",
    "Province_State": "Idaho",
    "Country_Region": "US",
    "Last_Update": "2020-06-10 04:07:00",
    "Latitude": 47.21754179,
    "Longitude": -116.6586851,
    "Confirmed": 18,
    "Deaths": 0,
    "Recovered": 0,
    "Active": 18,
    "Combined_Key": "Benewah, Idaho, US",
    "Incidence_Rate": 193.59001935900193,
    "Case-Fatality_Ratio": 0
  },
  {
    "FIPS": 50003,
    "County": "Bennington",
    "Province_State": "Vermont",
    "Country_Region": "US",
    "Last_Update": "2020-06-10 04:07:00",
    "Latitude": 43.03519828,
    "Longitude": -73.09048868,
    "Confirmed": 66,
    "Deaths": 1,
    "Recovered": 0,
    "Active": 65,
    "Combined_Key": "Bennington, Vermont, US",
    "Incidence_Rate": 186.07273752466872,
    "Case-Fatality_Ratio": 1.5151515151515151
  },
  {
    "FIPS": 38005,
    "County": "Benson",
    "Province_State": "North Dakota",
    "Country_Region": "US",
    "Last_Update": "2020-06-10 04:07:00",
    "Latitude": 48.0683985,
    "Longitude": -99.35916363,
    "Confirmed": 3,
    "Deaths": 0,
    "Recovered": 0,
    "Active": 3,
    "Combined_Key": "Benson, North Dakota, US",
    "Incidence_Rate": 43.91100702576112,
    "Case-Fatality_Ratio": 0
  },
  {
    "FIPS": 8011,
    "County": "Bent",
    "Province_State": "Colorado",
    "Country_Region": "US",
    "Last_Update": "2020-06-10 04:07:00",
    "Latitude": 37.95474293,
    "Longitude": -103.0720195,
    "Confirmed": 3,
    "Deaths": 0,
    "Recovered": 0,
    "Active": 3,
    "Combined_Key": "Bent, Colorado, US",
    "Incidence_Rate": 53.79236148466918,
    "Case-Fatality_Ratio": 0
  },
  {
    "FIPS": 5007,
    "County": "Benton",
    "Province_State": "Arkansas",
    "Country_Region": "US",
    "Last_Update": "2020-06-10 04:07:00",
    "Latitude": 36.33644656,
    "Longitude": -94.25680817,
    "Confirmed": 1090,
    "Deaths": 5,
    "Recovered": 0,
    "Active": 1085,
    "Combined_Key": "Benton, Arkansas, US",
    "Incidence_Rate": 390.4836623785112,
    "Case-Fatality_Ratio": 0.45871559633027525
  },
  {
    "FIPS": 18007,
    "County": "Benton",
    "Province_State": "Indiana",
    "Country_Region": "US",
    "Last_Update": "2020-06-10 04:07:00",
    "Latitude": 40.60626947,
    "Longitude": -87.31093999,
    "Confirmed": 33,
    "Deaths": 0,
    "Recovered": 0,
    "Active": 33,
    "Combined_Key": "Benton, Indiana, US",
    "Incidence_Rate": 377.22908093278465,
    "Case-Fatality_Ratio": 0
  },
  {
    "FIPS": 19011,
    "County": "Benton",
    "Province_State": "Iowa",
    "Country_Region": "US",
    "Last_Update": "2020-06-10 04:07:00",
    "Latitude": 42.08011739,
    "Longitude": -92.06463573,
    "Confirmed": 46,
    "Deaths": 1,
    "Recovered": 0,
    "Active": 45,
    "Combined_Key": "Benton, Iowa, US",
    "Incidence_Rate": 179.37219730941703,
    "Case-Fatality_Ratio": 2.1739130434782608
  },
  {
    "FIPS": 27009,
    "County": "Benton",
    "Province_State": "Minnesota",
    "Country_Region": "US",
    "Last_Update": "2020-06-10 04:07:00",
    "Latitude": 45.69804958,
    "Longitude": -93.99514135,
    "Confirmed": 190,
    "Deaths": 3,
    "Recovered": 0,
    "Active": 187,
    "Combined_Key": "Benton, Minnesota, US",
    "Incidence_Rate": 464.67265034605884,
    "Case-Fatality_Ratio": 1.5789473684210527
  },
  {
    "FIPS": 28009,
    "County": "Benton",
    "Province_State": "Mississippi",
    "Country_Region": "US",
    "Last_Update": "2020-06-10 04:07:00",
    "Latitude": 34.81681228,
    "Longitude": -89.18945516,
    "Confirmed": 16,
    "Deaths": 0,
    "Recovered": 0,
    "Active": 16,
    "Combined_Key": "Benton, Mississippi, US",
    "Incidence_Rate": 193.72805424385518,
    "Case-Fatality_Ratio": 0
  },
  {
    "FIPS": 29015,
    "County": "Benton",
    "Province_State": "Missouri",
    "Country_Region": "US",
    "Last_Update": "2020-06-10 04:07:00",
    "Latitude": 38.29503305,
    "Longitude": -93.28756116,
    "Confirmed": 13,
    "Deaths": 0,
    "Recovered": 0,
    "Active": 13,
    "Combined_Key": "Benton, Missouri, US",
    "Incidence_Rate": 66.86210975672479,
    "Case-Fatality_Ratio": 0
  },
  {
    "FIPS": 41003,
    "County": "Benton",
    "Province_State": "Oregon",
    "Country_Region": "US",
    "Last_Update": "2020-06-10 04:07:00",
    "Latitude": 44.49167306,
    "Longitude": -123.4316987,
    "Confirmed": 63,
    "Deaths": 5,
    "Recovered": 0,
    "Active": 58,
    "Combined_Key": "Benton, Oregon, US",
    "Incidence_Rate": 67.70335185324492,
    "Case-Fatality_Ratio": 7.936507936507937
  },
  {
    "FIPS": 47005,
    "County": "Benton",
    "Province_State": "Tennessee",
    "Country_Region": "US",
    "Last_Update": "2020-06-10 04:07:00",
    "Latitude": 36.07110411,
    "Longitude": -88.06849355,
    "Confirmed": 8,
    "Deaths": 1,
    "Recovered": 0,
    "Active": 7,
    "Combined_Key": "Benton, Tennessee, US",
    "Incidence_Rate": 49.504950495049506,
    "Case-Fatality_Ratio": 12.5
  },
  {
    "FIPS": 53005,
    "County": "Benton",
    "Province_State": "Washington",
    "Country_Region": "US",
    "Last_Update": "2020-06-10 04:07:00",
    "Latitude": 46.23946995,
    "Longitude": -119.51208340000001,
    "Confirmed": 979,
    "Deaths": 67,
    "Recovered": 0,
    "Active": 912,
    "Combined_Key": "Benton, Washington, US",
    "Incidence_Rate": 478.98625177357013,
    "Case-Fatality_Ratio": 6.843718079673136
  },
  {
    "FIPS": 26019,
    "County": "Benzie",
    "Province_State": "Michigan",
    "Country_Region": "US",
    "Last_Update": "2020-06-10 04:07:00",
    "Latitude": 44.63899297,
    "Longitude": -86.01608482,
    "Confirmed": 5,
    "Deaths": 0,
    "Recovered": 0,
    "Active": 5,
    "Combined_Key": "Benzie, Michigan, US",
    "Incidence_Rate": 28.14364516492176,
    "Case-Fatality_Ratio": 0
  },
  {
    "FIPS": 34003,
    "County": "Bergen",
    "Province_State": "New Jersey",
    "Country_Region": "US",
    "Last_Update": "2020-06-10 04:07:00",
    "Latitude": 40.96010917,
    "Longitude": -74.07164325,
    "Confirmed": 18573,
    "Deaths": 1628,
    "Recovered": 0,
    "Active": 16945,
    "Combined_Key": "Bergen, New Jersey, US",
    "Incidence_Rate": 1992.3793340928253,
    "Case-Fatality_Ratio": 8.765412157432833
  },
  {
    "FIPS": 45015,
    "County": "Berkeley",
    "Province_State": "South Carolina",
    "Country_Region": "US",
    "Last_Update": "2020-06-10 04:07:00",
    "Latitude": 33.20222596,
    "Longitude": -79.94654523,
    "Confirmed": 291,
    "Deaths": 19,
    "Recovered": 0,
    "Active": 272,
    "Combined_Key": "Berkeley, South Carolina, US",
    "Incidence_Rate": 127.68366044044281,
    "Case-Fatality_Ratio": 6.529209621993127
  },
  {
    "FIPS": 54003,
    "County": "Berkeley",
    "Province_State": "West Virginia",
    "Country_Region": "US",
    "Last_Update": "2020-06-10 04:07:00",
    "Latitude": 39.46704621,
    "Longitude": -78.02414609,
    "Confirmed": 350,
    "Deaths": 8,
    "Recovered": 0,
    "Active": 342,
    "Combined_Key": "Berkeley, West Virginia, US",
    "Incidence_Rate": 293.6956138657895,
    "Case-Fatality_Ratio": 2.2857142857142856
  },
  {
    "FIPS": 42011,
    "County": "Berks",
    "Province_State": "Pennsylvania",
    "Country_Region": "US",
    "Last_Update": "2020-06-10 04:07:00",
    "Latitude": 40.41570541,
    "Longitude": -75.92457766,
    "Confirmed": 4236,
    "Deaths": 334,
    "Recovered": 0,
    "Active": 3902,
    "Combined_Key": "Berks, Pennsylvania, US",
    "Incidence_Rate": 1005.783970139898,
    "Case-Fatality_Ratio": 7.884796978281398
  },
  {
    "FIPS": 25003,
    "County": "Berkshire",
    "Province_State": "Massachusetts",
    "Country_Region": "US",
    "Last_Update": "2020-06-10 04:07:00",
    "Latitude": 42.37428441,
    "Longitude": -73.20524838,
    "Confirmed": 575,
    "Deaths": 41,
    "Recovered": 0,
    "Active": 534,
    "Combined_Key": "Berkshire, Massachusetts, US",
    "Incidence_Rate": 460.20617236521963,
    "Case-Fatality_Ratio": 7.130434782608695
  },
  {
    "FIPS": 35001,
    "County": "Bernalillo",
    "Province_State": "New Mexico",
    "Country_Region": "US",
    "Last_Update": "2020-06-10 04:07:00",
    "Latitude": 35.05163625,
    "Longitude": -106.6703554,
    "Confirmed": 1612,
    "Deaths": 76,
    "Recovered": 0,
    "Active": 1536,
    "Combined_Key": "Bernalillo, New Mexico, US",
    "Incidence_Rate": 237.36565354333027,
    "Case-Fatality_Ratio": 4.714640198511166
  },
  {
    "FIPS": 13019,
    "County": "Berrien",
    "Province_State": "Georgia",
    "Country_Region": "US",
    "Last_Update": "2020-06-10 04:07:00",
    "Latitude": 31.27590016,
    "Longitude": -83.22529920000002,
    "Confirmed": 59,
    "Deaths": 0,
    "Recovered": 0,
    "Active": 59,
    "Combined_Key": "Berrien, Georgia, US",
    "Incidence_Rate": 304.17074805382276,
    "Case-Fatality_Ratio": 0
  },
  {
    "FIPS": 26021,
    "County": "Berrien",
    "Province_State": "Michigan",
    "Country_Region": "US",
    "Last_Update": "2020-06-10 04:07:00",
    "Latitude": 41.95447397,
    "Longitude": -86.41313079999998,
    "Confirmed": 806,
    "Deaths": 57,
    "Recovered": 0,
    "Active": 749,
    "Combined_Key": "Berrien, Michigan, US",
    "Incidence_Rate": 525.4203036486073,
    "Case-Fatality_Ratio": 7.07196029776675
  },
  {
    "FIPS": 37015,
    "County": "Bertie",
    "Province_State": "North Carolina",
    "Country_Region": "US",
    "Last_Update": "2020-06-10 04:07:00",
    "Latitude": 36.0688473,
    "Longitude": -76.96545943,
    "Confirmed": 134,
    "Deaths": 4,
    "Recovered": 0,
    "Active": 130,
    "Combined_Key": "Bertie, North Carolina, US",
    "Incidence_Rate": 707.2359740328284,
    "Case-Fatality_Ratio": 2.985074626865672
  },
  {
    "FIPS": 2050,
    "County": "Bethel",
    "Province_State": "Alaska",
    "Country_Region": "US",
    "Last_Update": "2020-06-10 04:07:00",
    "Latitude": 60.90980451,
    "Longitude": -159.8561831,
    "Confirmed": 3,
    "Deaths": 0,
    "Recovered": 0,
    "Active": 3,
    "Combined_Key": "Bethel, Alaska, US",
    "Incidence_Rate": 16.316762754269554,
    "Case-Fatality_Ratio": 0
  },
  {
    "FIPS": 48029,
    "County": "Bexar",
    "Province_State": "Texas",
    "Country_Region": "US",
    "Last_Update": "2020-06-10 04:07:00",
    "Latitude": 29.44928723,
    "Longitude": -98.52019748,
    "Confirmed": 3333,
    "Deaths": 78,
    "Recovered": 0,
    "Active": 3255,
    "Combined_Key": "Bexar, Texas, US",
    "Incidence_Rate": 166.35438825207606,
    "Case-Fatality_Ratio": 2.34023402340234
  },
  {
    "FIPS": 1007,
    "County": "Bibb",
    "Province_State": "Alabama",
    "Country_Region": "US",
    "Last_Update": "2020-06-10 04:07:00",
    "Latitude": 32.99642064,
    "Longitude": -87.12511459999996,
    "Confirmed": 85,
    "Deaths": 1,
    "Recovered": 0,
    "Active": 84,
    "Combined_Key": "Bibb, Alabama, US",
    "Incidence_Rate": 379.56595516656245,
    "Case-Fatality_Ratio": 1.1764705882352942
  },
  {
    "FIPS": 13021,
    "County": "Bibb",
    "Province_State": "Georgia",
    "Country_Region": "US",
    "Last_Update": "2020-06-10 04:07:00",
    "Latitude": 32.80904227,
    "Longitude": -83.70489165,
    "Confirmed": 511,
    "Deaths": 31,
    "Recovered": 0,
    "Active": 480,
    "Combined_Key": "Bibb, Georgia, US",
    "Incidence_Rate": 333.6402039710366,
    "Case-Fatality_Ratio": 6.066536203522505
  },
  {
    "FIPS": 22013,
    "County": "Bienville",
    "Province_State": "Louisiana",
    "Country_Region": "US",
    "Last_Update": "2020-06-10 04:07:00",
    "Latitude": 32.34569994,
    "Longitude": -93.05398492,
    "Confirmed": 157,
    "Deaths": 24,
    "Recovered": 0,
    "Active": 133,
    "Combined_Key": "Bienville, Louisiana, US",
    "Incidence_Rate": 1185.7110490144248,
    "Case-Fatality_Ratio": 15.286624203821656
  },
  {
    "FIPS": 30003,
    "County": "Big Horn",
    "Province_State": "Montana",
    "Country_Region": "US",
    "Last_Update": "2020-06-10 04:07:00",
    "Latitude": 45.42335905,
    "Longitude": -107.492347,
    "Confirmed": 41,
    "Deaths": 1,
    "Recovered": 0,
    "Active": 40,
    "Combined_Key": "Big Horn, Montana, US",
    "Incidence_Rate": 307.83091823710487,
    "Case-Fatality_Ratio": 2.4390243902439024
  },
  {
    "FIPS": 56003,
    "County": "Big Horn",
    "Province_State": "Wyoming",
    "Country_Region": "US",
    "Last_Update": "2020-06-10 04:07:00",
    "Latitude": 44.52405055,
    "Longitude": -107.9960365,
    "Confirmed": 9,
    "Deaths": 0,
    "Recovered": 0,
    "Active": 9,
    "Combined_Key": "Big Horn, Wyoming, US",
    "Incidence_Rate": 76.33587786259542,
    "Case-Fatality_Ratio": 0
  },
  {
    "FIPS": 27011,
    "County": "Big Stone",
    "Province_State": "Minnesota",
    "Country_Region": "US",
    "Last_Update": "2020-06-10 04:07:00",
    "Latitude": 45.42712824,
    "Longitude": -96.41403739,
    "Confirmed": 12,
    "Deaths": 0,
    "Recovered": 0,
    "Active": 12,
    "Combined_Key": "Big Stone, Minnesota, US",
    "Incidence_Rate": 240.43277900220397,
    "Case-Fatality_Ratio": 0
  },
  {
    "FIPS": 16011,
    "County": "Bingham",
    "Province_State": "Idaho",
    "Country_Region": "US",
    "Last_Update": "2020-06-10 04:07:00",
    "Latitude": 43.21672879999999,
    "Longitude": -112.3978437,
    "Confirmed": 23,
    "Deaths": 0,
    "Recovered": 0,
    "Active": 23,
    "Combined_Key": "Bingham, Idaho, US",
    "Incidence_Rate": 49.13375061417188,
    "Case-Fatality_Ratio": 0
  },
  {
    "FIPS": 19013,
    "County": "Black Hawk",
    "Province_State": "Iowa",
    "Country_Region": "US",
    "Last_Update": "2020-06-10 04:07:00",
    "Latitude": 42.4704581,
    "Longitude": -92.30524729,
    "Confirmed": 1802,
    "Deaths": 52,
    "Recovered": 0,
    "Active": 1750,
    "Combined_Key": "Black Hawk, Iowa, US",
    "Incidence_Rate": 1373.1825525040388,
    "Case-Fatality_Ratio": 2.885682574916759
  },
  {
    "FIPS": 18009,
    "County": "Blackford",
    "Province_State": "Indiana",
    "Country_Region": "US",
    "Last_Update": "2020-06-10 04:07:00",
    "Latitude": 40.47388153,
    "Longitude": -85.32499702,
    "Confirmed": 29,
    "Deaths": 2,
    "Recovered": 0,
    "Active": 27,
    "Combined_Key": "Blackford, Indiana, US",
    "Incidence_Rate": 246.64058513352612,
    "Case-Fatality_Ratio": 6.896551724137931
  },
  {
    "FIPS": 37017,
    "County": "Bladen",
    "Province_State": "North Carolina",
    "Country_Region": "US",
    "Last_Update": "2020-06-10 04:07:00",
    "Latitude": 34.61296243,
    "Longitude": -78.56180059,
    "Confirmed": 165,
    "Deaths": 2,
    "Recovered": 0,
    "Active": 163,
    "Combined_Key": "Bladen, North Carolina, US",
    "Incidence_Rate": 504.2479066071756,
    "Case-Fatality_Ratio": 1.2121212121212122
  },
  {
    "FIPS": 16013,
    "County": "Blaine",
    "Province_State": "Idaho",
    "Country_Region": "US",
    "Last_Update": "2020-06-10 04:07:00",
    "Latitude": 43.4085812,
    "Longitude": -113.9752658,
    "Confirmed": 514,
    "Deaths": 5,
    "Recovered": 0,
    "Active": 509,
    "Combined_Key": "Blaine, Idaho, US",
    "Incidence_Rate": 2232.7440163329134,
    "Case-Fatality_Ratio": 0.9727626459143969
  },
  {
    "FIPS": 40011,
    "County": "Blaine",
    "Province_State": "Oklahoma",
    "Country_Region": "US",
    "Last_Update": "2020-06-10 04:07:00",
    "Latitude": 35.87518314,
    "Longitude": -98.43307003,
    "Confirmed": 10,
    "Deaths": 0,
    "Recovered": 0,
    "Active": 10,
    "Combined_Key": "Blaine, Oklahoma, US",
    "Incidence_Rate": 106.05578534309046,
    "Case-Fatality_Ratio": 0
  },
  {
    "FIPS": 42013,
    "County": "Blair",
    "Province_State": "Pennsylvania",
    "Country_Region": "US",
    "Last_Update": "2020-06-10 04:07:00",
    "Latitude": 40.47961444,
    "Longitude": -78.34917412,
    "Confirmed": 53,
    "Deaths": 1,
    "Recovered": 0,
    "Active": 52,
    "Combined_Key": "Blair, Pennsylvania, US",
    "Incidence_Rate": 43.5035993072257,
    "Case-Fatality_Ratio": 1.8867924528301887
  },
  {
    "FIPS": 48031,
    "County": "Blanco",
    "Province_State": "Texas",
    "Country_Region": "US",
    "Last_Update": "2020-06-10 04:07:00",
    "Latitude": 30.26640707,
    "Longitude": -98.3999852,
    "Confirmed": 12,
    "Deaths": 1,
    "Recovered": 0,
    "Active": 11,
    "Combined_Key": "Blanco, Texas, US",
    "Incidence_Rate": 100.57832537088258,
    "Case-Fatality_Ratio": 8.333333333333334
  },
  {
    "FIPS": 51021,
    "County": "Bland",
    "Province_State": "Virginia",
    "Country_Region": "US",
    "Last_Update": "2020-06-10 04:07:00",
    "Latitude": 37.13128068,
    "Longitude": -81.13599391,
    "Confirmed": 0,
    "Deaths": 0,
    "Recovered": 0,
    "Active": 0,
    "Combined_Key": "Bland, Virginia, US",
    "Incidence_Rate": 0,
    "Case-Fatality_Ratio": null
  },
  {
    "FIPS": 13023,
    "County": "Bleckley",
    "Province_State": "Georgia",
    "Country_Region": "US",
    "Last_Update": "2020-06-10 04:07:00",
    "Latitude": 32.43829035,
    "Longitude": -83.33035166,
    "Confirmed": 53,
    "Deaths": 0,
    "Recovered": 0,
    "Active": 53,
    "Combined_Key": "Bleckley, Georgia, US",
    "Incidence_Rate": 411.7144410782257,
    "Case-Fatality_Ratio": 0
  },
  {
    "FIPS": 47007,
    "County": "Bledsoe",
    "Province_State": "Tennessee",
    "Country_Region": "US",
    "Last_Update": "2020-06-10 04:07:00",
    "Latitude": 35.59942968,
    "Longitude": -85.20611967,
    "Confirmed": 611,
    "Deaths": 1,
    "Recovered": 0,
    "Active": 610,
    "Combined_Key": "Bledsoe, Tennessee, US",
    "Incidence_Rate": 4056.0276155071692,
    "Case-Fatality_Ratio": 0.16366612111292964
  },
  {
    "FIPS": 1009,
    "County": "Blount",
    "Province_State": "Alabama",
    "Country_Region": "US",
    "Last_Update": "2020-06-10 04:07:00",
    "Latitude": 33.98210918,
    "Longitude": -86.56790593,
    "Confirmed": 75,
    "Deaths": 1,
    "Recovered": 0,
    "Active": 74,
    "Combined_Key": "Blount, Alabama, US",
    "Incidence_Rate": 129.69944315705737,
    "Case-Fatality_Ratio": 1.3333333333333333
  },
  {
    "FIPS": 47009,
    "County": "Blount",
    "Province_State": "Tennessee",
    "Country_Region": "US",
    "Last_Update": "2020-06-10 04:07:00",
    "Latitude": 35.68938198,
    "Longitude": -83.92847788,
    "Confirmed": 96,
    "Deaths": 3,
    "Recovered": 0,
    "Active": 93,
    "Combined_Key": "Blount, Tennessee, US",
    "Incidence_Rate": 72.1327242125511,
    "Case-Fatality_Ratio": 3.125
  },
  {
    "FIPS": 27013,
    "County": "Blue Earth",
    "Province_State": "Minnesota",
    "Country_Region": "US",
    "Last_Update": "2020-06-10 04:07:00",
    "Latitude": 44.03554215,
    "Longitude": -94.06699781,
    "Confirmed": 153,
    "Deaths": 1,
    "Recovered": 0,
    "Active": 152,
    "Combined_Key": "Blue Earth, Minnesota, US",
    "Incidence_Rate": 226.15405081814555,
    "Case-Fatality_Ratio": 0.6535947712418301
  },
  {
    "FIPS": 28011,
    "County": "Bolivar",
    "Province_State": "Mississippi",
    "Country_Region": "US",
    "Last_Update": "2020-06-10 04:07:00",
    "Latitude": 33.79696941,
    "Longitude": -90.87372121,
    "Confirmed": 179,
    "Deaths": 11,
    "Recovered": 0,
    "Active": 168,
    "Combined_Key": "Bolivar, Mississippi, US",
    "Incidence_Rate": 584.4325453833094,
    "Case-Fatality_Ratio": 6.145251396648045
  },
  {
    "FIPS": 29017,
    "County": "Bollinger",
    "Province_State": "Missouri",
    "Country_Region": "US",
    "Last_Update": "2020-06-10 04:07:00",
    "Latitude": 37.32449052,
    "Longitude": -90.02725304,
    "Confirmed": 7,
    "Deaths": 0,
    "Recovered": 0,
    "Active": 7,
    "Combined_Key": "Bollinger, Missouri, US",
    "Incidence_Rate": 57.6938926893596,
    "Case-Fatality_Ratio": 0
  },
  {
    "FIPS": 46009,
    "County": "Bon Homme",
    "Province_State": "South Dakota",
    "Country_Region": "US",
    "Last_Update": "2020-06-10 04:07:00",
    "Latitude": 42.98914167,
    "Longitude": -97.88592746,
    "Confirmed": 8,
    "Deaths": 0,
    "Recovered": 0,
    "Active": 8,
    "Combined_Key": "Bon Homme, South Dakota, US",
    "Incidence_Rate": 115.92522822779307,
    "Case-Fatality_Ratio": 0
  },
  {
    "FIPS": 17005,
    "County": "Bond",
    "Province_State": "Illinois",
    "Country_Region": "US",
    "Last_Update": "2020-06-10 04:07:00",
    "Latitude": 38.88829622,
    "Longitude": -89.43534887,
    "Confirmed": 12,
    "Deaths": 1,
    "Recovered": 0,
    "Active": 11,
    "Combined_Key": "Bond, Illinois, US",
    "Incidence_Rate": 73.05491294289541,
    "Case-Fatality_Ratio": 8.333333333333334
  },
  {
    "FIPS": 16017,
    "County": "Bonner",
    "Province_State": "Idaho",
    "Country_Region": "US",
    "Last_Update": "2020-06-10 04:07:00",
    "Latitude": 48.29996017,
    "Longitude": -116.6017932,
    "Confirmed": 7,
    "Deaths": 0,
    "Recovered": 0,
    "Active": 7,
    "Combined_Key": "Bonner, Idaho, US",
    "Incidence_Rate": 15.304226152736177,
    "Case-Fatality_Ratio": 0
  },
  {
    "FIPS": 16019,
    "County": "Bonneville",
    "Province_State": "Idaho",
    "Country_Region": "US",
    "Last_Update": "2020-06-10 04:07:00",
    "Latitude": 43.38713372,
    "Longitude": -111.6161537,
    "Confirmed": 68,
    "Deaths": 0,
    "Recovered": 0,
    "Active": 68,
    "Combined_Key": "Bonneville, Idaho, US",
    "Incidence_Rate": 57.11310073743092,
    "Case-Fatality_Ratio": 0
  },
  {
    "FIPS": 5009,
    "County": "Boone",
    "Province_State": "Arkansas",
    "Country_Region": "US",
    "Last_Update": "2020-06-10 04:07:00",
    "Latitude": 36.3084504,
    "Longitude": -93.09374925,
    "Confirmed": 7,
    "Deaths": 0,
    "Recovered": 0,
    "Active": 7,
    "Combined_Key": "Boone, Arkansas, US",
    "Incidence_Rate": 18.700577046377433,
    "Case-Fatality_Ratio": 0
  },
  {
    "FIPS": 17007,
    "County": "Boone",
    "Province_State": "Illinois",
    "Country_Region": "US",
    "Last_Update": "2020-06-10 04:07:00",
    "Latitude": 42.32359279,
    "Longitude": -88.82345779,
    "Confirmed": 507,
    "Deaths": 18,
    "Recovered": 0,
    "Active": 489,
    "Combined_Key": "Boone, Illinois, US",
    "Incidence_Rate": 946.8848050201703,
    "Case-Fatality_Ratio": 3.5502958579881656
  },
  {
    "FIPS": 18011,
    "County": "Boone",
    "Province_State": "Indiana",
    "Country_Region": "US",
    "Last_Update": "2020-06-10 04:07:00",
    "Latitude": 40.0509304,
    "Longitude": -86.46841646,
    "Confirmed": 337,
    "Deaths": 36,
    "Recovered": 0,
    "Active": 301,
    "Combined_Key": "Boone, Indiana, US",
    "Incidence_Rate": 496.7351090016656,
    "Case-Fatality_Ratio": 10.682492581602373
  },
  {
    "FIPS": 19015,
    "County": "Boone",
    "Province_State": "Iowa",
    "Country_Region": "US",
    "Last_Update": "2020-06-10 04:07:00",
    "Latitude": 42.03657094,
    "Longitude": -93.9313999,
    "Confirmed": 78,
    "Deaths": 0,
    "Recovered": 0,
    "Active": 78,
    "Combined_Key": "Boone, Iowa, US",
    "Incidence_Rate": 297.3240832507433,
    "Case-Fatality_Ratio": 0
  },
  {
    "FIPS": 21015,
    "County": "Boone",
    "Province_State": "Kentucky",
    "Country_Region": "US",
    "Last_Update": "2020-06-10 04:07:00",
    "Latitude": 38.97065142,
    "Longitude": -84.72615357,
    "Confirmed": 527,
    "Deaths": 18,
    "Recovered": 0,
    "Active": 509,
    "Combined_Key": "Boone, Kentucky, US",
    "Incidence_Rate": 394.51718433010683,
    "Case-Fatality_Ratio": 3.415559772296015
  },
  {
    "FIPS": 29019,
    "County": "Boone",
    "Province_State": "Missouri",
    "Country_Region": "US",
    "Last_Update": "2020-06-10 04:07:00",
    "Latitude": 38.99186229,
    "Longitude": -92.30723575,
    "Confirmed": 194,
    "Deaths": 2,
    "Recovered": 0,
    "Active": 192,
    "Combined_Key": "Boone, Missouri, US",
    "Incidence_Rate": 107.50126064622665,
    "Case-Fatality_Ratio": 1.0309278350515463
  },
  {
    "FIPS": 31011,
    "County": "Boone",
    "Province_State": "Nebraska",
    "Country_Region": "US",
    "Last_Update": "2020-06-10 04:07:00",
    "Latitude": 41.70759415,
    "Longitude": -98.06737183,
    "Confirmed": 7,
    "Deaths": 0,
    "Recovered": 0,
    "Active": 7,
    "Combined_Key": "Boone, Nebraska, US",
    "Incidence_Rate": 134.82280431432974,
    "Case-Fatality_Ratio": 0
  },
  {
    "FIPS": 54005,
    "County": "Boone",
    "Province_State": "West Virginia",
    "Country_Region": "US",
    "Last_Update": "2020-06-10 04:07:00",
    "Latitude": 38.01974191,
    "Longitude": -81.69888019,
    "Confirmed": 16,
    "Deaths": 0,
    "Recovered": 0,
    "Active": 16,
    "Combined_Key": "Boone, West Virginia, US",
    "Incidence_Rate": 74.56774013142564,
    "Case-Fatality_Ratio": 0
  },
  {
    "FIPS": 48035,
    "County": "Bosque",
    "Province_State": "Texas",
    "Country_Region": "US",
    "Last_Update": "2020-06-10 04:07:00",
    "Latitude": 31.89978581,
    "Longitude": -97.63613524,
    "Confirmed": 7,
    "Deaths": 0,
    "Recovered": 0,
    "Active": 7,
    "Combined_Key": "Bosque, Texas, US",
    "Incidence_Rate": 37.46320578003746,
    "Case-Fatality_Ratio": 0
  },
  {
    "FIPS": 22015,
    "County": "Bossier",
    "Province_State": "Louisiana",
    "Country_Region": "US",
    "Last_Update": "2020-06-10 04:07:00",
    "Latitude": 32.67932307,
    "Longitude": -93.60460152,
    "Confirmed": 473,
    "Deaths": 26,
    "Recovered": 0,
    "Active": 447,
    "Combined_Key": "Bossier, Louisiana, US",
    "Incidence_Rate": 372.32660836436054,
    "Case-Fatality_Ratio": 5.496828752642706
  },
  {
    "FIPS": 51023,
    "County": "Botetourt",
    "Province_State": "Virginia",
    "Country_Region": "US",
    "Last_Update": "2020-06-10 04:07:00",
    "Latitude": 37.55531756,
    "Longitude": -79.80982182,
    "Confirmed": 40,
    "Deaths": 4,
    "Recovered": 0,
    "Active": 36,
    "Combined_Key": "Botetourt, Virginia, US",
    "Incidence_Rate": 119.69239055627038,
    "Case-Fatality_Ratio": 10
  },
  {
    "FIPS": 38009,
    "County": "Bottineau",
    "Province_State": "North Dakota",
    "Country_Region": "US",
    "Last_Update": "2020-06-10 04:07:00",
    "Latitude": 48.79106111,
    "Longitude": -100.8378166,
    "Confirmed": 4,
    "Deaths": 0,
    "Recovered": 0,
    "Active": 4,
    "Combined_Key": "Bottineau, North Dakota, US",
    "Incidence_Rate": 63.67398917542184,
    "Case-Fatality_Ratio": 0
  },
  {
    "FIPS": 8013,
    "County": "Boulder",
    "Province_State": "Colorado",
    "Country_Region": "US",
    "Last_Update": "2020-06-10 04:07:00",
    "Latitude": 40.09313619,
    "Longitude": -105.3546767,
    "Confirmed": 1027,
    "Deaths": 67,
    "Recovered": 0,
    "Active": 960,
    "Combined_Key": "Boulder, Colorado, US",
    "Incidence_Rate": 314.8413837079547,
    "Case-Fatality_Ratio": 6.523855890944499
  },
  {
    "FIPS": 16021,
    "County": "Boundary",
    "Province_State": "Idaho",
    "Country_Region": "US",
    "Last_Update": "2020-06-10 04:07:00",
    "Latitude": 48.76684761,
    "Longitude": -116.4630179,
    "Confirmed": 0,
    "Deaths": 0,
    "Recovered": 0,
    "Active": 0,
    "Combined_Key": "Boundary, Idaho, US",
    "Incidence_Rate": 0,
    "Case-Fatality_Ratio": null
  },
  {
    "FIPS": 20011,
    "County": "Bourbon",
    "Province_State": "Kansas",
    "Country_Region": "US",
    "Last_Update": "2020-06-10 04:07:00",
    "Latitude": 37.85508555,
    "Longitude": -94.84865997,
    "Confirmed": 8,
    "Deaths": 1,
    "Recovered": 0,
    "Active": 7,
    "Combined_Key": "Bourbon, Kansas, US",
    "Incidence_Rate": 55.04334663547544,
    "Case-Fatality_Ratio": 12.5
  },
  {
    "FIPS": 21017,
    "County": "Bourbon",
    "Province_State": "Kentucky",
    "Country_Region": "US",
    "Last_Update": "2020-06-10 04:07:00",
    "Latitude": 38.2054607,
    "Longitude": -84.21827874,
    "Confirmed": 19,
    "Deaths": 1,
    "Recovered": 0,
    "Active": 18,
    "Combined_Key": "Bourbon, Kentucky, US",
    "Incidence_Rate": 96.01778855872246,
    "Case-Fatality_Ratio": 5.2631578947368425
  },
  {
    "FIPS": 48037,
    "County": "Bowie",
    "Province_State": "Texas",
    "Country_Region": "US",
    "Last_Update": "2020-06-10 04:07:00",
    "Latitude": 33.44626922,
    "Longitude": -94.41834132,
    "Confirmed": 351,
    "Deaths": 7,
    "Recovered": 0,
    "Active": 344,
    "Combined_Key": "Bowie, Texas, US",
    "Incidence_Rate": 376.4276904927878,
    "Case-Fatality_Ratio": 1.9943019943019944
  },
  {
    "FIPS": 38011,
    "County": "Bowman",
    "Province_State": "North Dakota",
    "Country_Region": "US",
    "Last_Update": "2020-06-10 04:07:00",
    "Latitude": 46.11285362,
    "Longitude": -103.5203343,
    "Confirmed": 1,
    "Deaths": 0,
    "Recovered": 0,
    "Active": 1,
    "Combined_Key": "Bowman, North Dakota, US",
    "Incidence_Rate": 33.06878306878307,
    "Case-Fatality_Ratio": 0
  },
  {
    "FIPS": 31013,
    "County": "Box Butte",
    "Province_State": "Nebraska",
    "Country_Region": "US",
    "Last_Update": "2020-06-10 04:07:00",
    "Latitude": 42.22079243,
    "Longitude": -103.08788340000001,
    "Confirmed": 3,
    "Deaths": 0,
    "Recovered": 0,
    "Active": 3,
    "Combined_Key": "Box Butte, Nebraska, US",
    "Incidence_Rate": 27.821570991375314,
    "Case-Fatality_Ratio": 0
  },