[
  {
    "FIPS": 45001,
    "County": "Abbeville",
    "Province_State": "South Carolina",
    "Country_Region": "US",
    "Last_Update": "2020-06-20 04:33:19",
    "Latitude": 34.22333378,
    "Longitude": -82.46170658,
    "Confirmed": 73,
    "Deaths": 0,
    "Recovered": 0,
    "Active": 73,
    "Combined_Key": "Abbeville, South Carolina, US",
    "Incidence_Rate": 297.63118196273496,
    "Case-Fatality_Ratio": 0
  },
  {
    "FIPS": 22001,
    "County": "Acadia",
    "Province_State": "Louisiana",
    "Country_Region": "US",
    "Last_Update": "2020-06-20 04:33:19",
    "Latitude": 30.295064899999996,
    "Longitude": -92.41419698,
    "Confirmed": 639,
    "Deaths": 32,
    "Recovered": 0,
    "Active": 607,
    "Combined_Key": "Acadia, Louisiana, US",
    "Incidence_Rate": 1029.897654927875,
    "Case-Fatality_Ratio": 5.007824726134586
  },
  {
    "FIPS": 51001,
    "County": "Accomack",
    "Province_State": "Virginia",
    "Country_Region": "US",
    "Last_Update": "2020-06-20 04:33:19",
    "Latitude": 37.76707161,
    "Longitude": -75.63234615,
    "Confirmed": 1022,
    "Deaths": 14,
    "Recovered": 0,
    "Active": 1008,
    "Combined_Key": "Accomack, Virginia, US",
    "Incidence_Rate": 3162.5201138754796,
    "Case-Fatality_Ratio": 1.36986301369863
  },
  {
    "FIPS": 16001,
    "County": "Ada",
    "Province_State": "Idaho",
    "Country_Region": "US",
    "Last_Update": "2020-06-20 04:33:19",
    "Latitude": 43.4526575,
    "Longitude": -116.24155159999998,
    "Confirmed": 1100,
    "Deaths": 22,
    "Recovered": 0,
    "Active": 1078,
    "Combined_Key": "Ada, Idaho, US",
    "Incidence_Rate": 228.41148120692625,
    "Case-Fatality_Ratio": 2
  },
  {
    "FIPS": 19001,
    "County": "Adair",
    "Province_State": "Iowa",
    "Country_Region": "US",
    "Last_Update": "2020-06-20 04:33:19",
    "Latitude": 41.33075609,
    "Longitude": -94.47105874,
    "Confirmed": 12,
    "Deaths": 0,
    "Recovered": 0,
    "Active": 12,
    "Combined_Key": "Adair, Iowa, US",
    "Incidence_Rate": 167.78523489932886,
    "Case-Fatality_Ratio": 0
  },
  {
    "FIPS": 21001,
    "County": "Adair",
    "Province_State": "Kentucky",
    "Country_Region": "US",
    "Last_Update": "2020-06-20 04:33:19",
    "Latitude": 37.10459774,
    "Longitude": -85.28129668,
    "Confirmed": 104,
    "Deaths": 19,
    "Recovered": 0,
    "Active": 85,
    "Combined_Key": "Adair, Kentucky, US",
    "Incidence_Rate": 541.6102489324029,
    "Case-Fatality_Ratio": 18.26923076923077
  },
  {
    "FIPS": 29001,
    "County": "Adair",
    "Province_State": "Missouri",
    "Country_Region": "US",
    "Last_Update": "2020-06-20 04:33:19",
    "Latitude": 40.19058551,
    "Longitude": -92.60078167,
    "Confirmed": 85,
    "Deaths": 0,
    "Recovered": 0,
    "Active": 85,
    "Combined_Key": "Adair, Missouri, US",
    "Incidence_Rate": 335.39833484591406,
    "Case-Fatality_Ratio": 0
  },
  {
    "FIPS": 40001,
    "County": "Adair",
    "Province_State": "Oklahoma",
    "Country_Region": "US",
    "Last_Update": "2020-06-20 04:33:19",
    "Latitude": 35.88494195,
    "Longitude": -94.65859267,
    "Confirmed": 103,
    "Deaths": 4,
    "Recovered": 0,
    "Active": 99,
    "Combined_Key": "Adair, Oklahoma, US",
    "Incidence_Rate": 464.0893935297828,
    "Case-Fatality_Ratio": 3.883495145631068
  },
  {
    "FIPS": 8001,
    "County": "Adams",
    "Province_State": "Colorado",
    "Country_Region": "US",
    "Last_Update": "2020-06-20 04:33:19",
    "Latitude": 39.87432092,
    "Longitude": -104.3362578,
    "Confirmed": 3852,
    "Deaths": 150,
    "Recovered": 0,
    "Active": 3702,
    "Combined_Key": "Adams, Colorado, US",
    "Incidence_Rate": 744.4614733456895,
    "Case-Fatality_Ratio": 3.8940809968847354
  },
  {
    "FIPS": 16003,
    "County": "Adams",
    "Province_State": "Idaho",
    "Country_Region": "US",
    "Last_Update": "2020-06-20 04:33:19",
    "Latitude": 44.89333571,
    "Longitude": -116.4545247,
    "Confirmed": 9,
    "Deaths": 0,
    "Recovered": 0,
    "Active": 9,
    "Combined_Key": "Adams, Idaho, US",
    "Incidence_Rate": 209.5947834187238,
    "Case-Fatality_Ratio": 0
  },
  {
    "FIPS": 17001,
    "County": "Adams",
    "Province_State": "Illinois",
    "Country_Region": "US",
    "Last_Update": "2020-06-20 04:33:19",
    "Latitude": 39.98815591,
    "Longitude": -91.18786813,
    "Confirmed": 47,
    "Deaths": 1,
    "Recovered": 0,
    "Active": 46,
    "Combined_Key": "Adams, Illinois, US",
    "Incidence_Rate": 71.82700389699701,
    "Case-Fatality_Ratio": 2.127659574468085
  },
  {
    "FIPS": 18001,
    "County": "Adams",
    "Province_State": "Indiana",
    "Country_Region": "US",
    "Last_Update": "2020-06-20 04:33:19",
    "Latitude": 40.7457653,
    "Longitude": -84.93671406,
    "Confirmed": 28,
    "Deaths": 1,
    "Recovered": 0,
    "Active": 27,
    "Combined_Key": "Adams, Indiana, US",
    "Incidence_Rate": 78.2625709254549,
    "Case-Fatality_Ratio": 3.5714285714285716
  },
  {
    "FIPS": 19003,
    "County": "Adams",
    "Province_State": "Iowa",
    "Country_Region": "US",
    "Last_Update": "2020-06-20 04:33:19",
    "Latitude": 41.02903567,
    "Longitude": -94.69932645,
    "Confirmed": 7,
    "Deaths": 0,
    "Recovered": 0,
    "Active": 7,
    "Combined_Key": "Adams, Iowa, US",
    "Incidence_Rate": 194.3364797334814,
    "Case-Fatality_Ratio": 0
  },
  {
    "FIPS": 28001,
    "County": "Adams",
    "Province_State": "Mississippi",
    "Country_Region": "US",
    "Last_Update": "2020-06-20 04:33:19",
    "Latitude": 31.47669768,
    "Longitude": -91.35326037,
    "Confirmed": 227,
    "Deaths": 18,
    "Recovered": 0,
    "Active": 209,
    "Combined_Key": "Adams, Mississippi, US",
    "Incidence_Rate": 739.582315185873,
    "Case-Fatality_Ratio": 7.929515418502203
  },
  {
    "FIPS": 31001,
    "County": "Adams",
    "Province_State": "Nebraska",
    "Country_Region": "US",
    "Last_Update": "2020-06-20 04:33:19",
    "Latitude": 40.52449420000001,
    "Longitude": -98.50117804,
    "Confirmed": 280,
    "Deaths": 11,
    "Recovered": 0,
    "Active": 269,
    "Combined_Key": "Adams, Nebraska, US",
    "Incidence_Rate": 892.7717373975704,
    "Case-Fatality_Ratio": 3.9285714285714284
  },
  {
    "FIPS": 39001,
    "County": "Adams",
    "Province_State": "Ohio",
    "Country_Region": "US",
    "Last_Update": "2020-06-20 04:33:19",
    "Latitude": 38.84541072,
    "Longitude": -83.4718964,
    "Confirmed": 18,
    "Deaths": 1,
    "Recovered": 0,
    "Active": 17,
    "Combined_Key": "Adams, Ohio, US",
    "Incidence_Rate": 64.98664163477507,
    "Case-Fatality_Ratio": 5.555555555555555
  },
  {
    "FIPS": 42001,
    "County": "Adams",
    "Province_State": "Pennsylvania",
    "Country_Region": "US",
    "Last_Update": "2020-06-20 04:33:19",
    "Latitude": 39.87140411,
    "Longitude": -77.21610347,
    "Confirmed": 309,
    "Deaths": 11,
    "Recovered": 0,
    "Active": 298,
    "Combined_Key": "Adams, Pennsylvania, US",
    "Incidence_Rate": 299.97378869807494,
    "Case-Fatality_Ratio": 3.559870550161812
  },
  {
    "FIPS": 53001,
    "County": "Adams",
    "Province_State": "Washington",
    "Country_Region": "US",
    "Last_Update": "2020-06-20 04:33:19",
    "Latitude": 46.98299757,
    "Longitude": -118.56017340000001,
    "Confirmed": 102,
    "Deaths": 0,
    "Recovered": 0,
    "Active": 102,
    "Combined_Key": "Adams, Washington, US",
    "Incidence_Rate": 510.4338687884702,
    "Case-Fatality_Ratio": 0
  },
  {
    "FIPS": 55001,
    "County": "Adams",
    "Province_State": "Wisconsin",
    "Country_Region": "US",
    "Last_Update": "2020-06-20 04:33:19",
    "Latitude": 43.96974651,
    "Longitude": -89.76782777,
    "Confirmed": 10,
    "Deaths": 2,
    "Recovered": 0,
    "Active": 8,
    "Combined_Key": "Adams, Wisconsin, US",
    "Incidence_Rate": 49.45598417408507,
    "Case-Fatality_Ratio": 20
  },
  {
    "FIPS": 50001,
    "County": "Addison",
    "Province_State": "Vermont",
    "Country_Region": "US",
    "Last_Update": "2020-06-20 04:33:19",
    "Latitude": 44.03217337,
    "Longitude": -73.14130877,
    "Confirmed": 67,
    "Deaths": 2,
    "Recovered": 0,
    "Active": 65,
    "Combined_Key": "Addison, Vermont, US",
    "Incidence_Rate": 182.17907931587678,
    "Case-Fatality_Ratio": 2.985074626865672
  },
  {
    "FIPS": 45003,
    "County": "Aiken",
    "Province_State": "South Carolina",
    "Country_Region": "US",
    "Last_Update": "2020-06-20 04:33:19",
    "Latitude": 33.54338026,
    "Longitude": -81.63645384,
    "Confirmed": 261,
    "Deaths": 9,
    "Recovered": 0,
    "Active": 252,
    "Combined_Key": "Aiken, South Carolina, US",
    "Incidence_Rate": 152.7459150709303,
    "Case-Fatality_Ratio": 3.4482758620689653
  },
  {
    "FIPS": 27001,
    "County": "Aitkin",
    "Province_State": "Minnesota",
    "Country_Region": "US",
    "Last_Update": "2020-06-20 04:33:19",
    "Latitude": 46.60962049,
    "Longitude": -93.41168259999999,
    "Confirmed": 13,
    "Deaths": 0,
    "Recovered": 0,
    "Active": 13,
    "Combined_Key": "Aitkin, Minnesota, US",
    "Incidence_Rate": 81.83306055646482,
    "Case-Fatality_Ratio": 0
  },
  {
    "FIPS": 12001,
    "County": "Alachua",
    "Province_State": "Florida",
    "Country_Region": "US",
    "Last_Update": "2020-06-20 04:33:19",
    "Latitude": 29.67866525,
    "Longitude": -82.35928158,
    "Confirmed": 633,
    "Deaths": 11,
    "Recovered": 0,
    "Active": 622,
    "Combined_Key": "Alachua, Florida, US",
    "Incidence_Rate": 235.27837557565147,
    "Case-Fatality_Ratio": 1.7377567140600316
  },
  {
    "FIPS": 37001,
    "County": "Alamance",
    "Province_State": "North Carolina",
    "Country_Region": "US",
    "Last_Update": "2020-06-20 04:33:19",
    "Latitude": 36.0434701,
    "Longitude": -79.39976137,
    "Confirmed": 883,
    "Deaths": 35,
    "Recovered": 0,
    "Active": 848,
    "Combined_Key": "Alamance, North Carolina, US",
    "Incidence_Rate": 494.36903055295,
    "Case-Fatality_Ratio": 4.176610978520286
  },
  {
    "FIPS": 6001,
    "County": "Alameda",
    "Province_State": "California",
    "Country_Region": "US",
    "Last_Update": "2020-06-20 04:33:19",
    "Latitude": 37.64629437,
    "Longitude": -121.8929271,
    "Confirmed": 4702,
    "Deaths": 119,
    "Recovered": 0,
    "Active": 4583,
    "Combined_Key": "Alameda, California, US",
    "Incidence_Rate": 281.332999068406,
    "Case-Fatality_Ratio": 2.5308379413015736
  },
  {
    "FIPS": 8003,
    "County": "Alamosa",
    "Province_State": "Colorado",
    "Country_Region": "US",
    "Last_Update": "2020-06-20 04:33:19",
    "Latitude": 37.57250606,
    "Longitude": -105.7885451,
    "Confirmed": 150,
    "Deaths": 3,
    "Recovered": 0,
    "Active": 147,
    "Combined_Key": "Alamosa, Colorado, US",
    "Incidence_Rate": 924.0436148586214,
    "Case-Fatality_Ratio": 2
  },
  {
    "FIPS": 36001,
    "County": "Albany",
    "Province_State": "New York",
    "Country_Region": "US",
    "Last_Update": "2020-06-20 04:33:19",
    "Latitude": 42.60060306,
    "Longitude": -73.97723916,
    "Confirmed": 2049,
    "Deaths": 118,
    "Recovered": 0,
    "Active": 1931,
    "Combined_Key": "Albany, New York, US",
    "Incidence_Rate": 670.6905920014664,
    "Case-Fatality_Ratio": 5.7589067837969745
  },
  {
    "FIPS": 56001,
    "County": "Albany",
    "Province_State": "Wyoming",
    "Country_Region": "US",
    "Last_Update": "2020-06-20 04:33:19",
    "Latitude": 41.65498705,
    "Longitude": -105.72354150000001,
    "Confirmed": 28,
    "Deaths": 0,
    "Recovered": 0,
    "Active": 28,
    "Combined_Key": "Albany, Wyoming, US",
    "Incidence_Rate": 72.01646090534979,
    "Case-Fatality_Ratio": 0
  },
  {
    "FIPS": 51003,
    "County": "Albemarle",
    "Province_State": "Virginia",
    "Country_Region": "US",
    "Last_Update": "2020-06-20 04:33:19",
    "Latitude": 38.02080697,
    "Longitude": -78.55481085,
    "Confirmed": 304,
    "Deaths": 8,
    "Recovered": 0,
    "Active": 296,
    "Combined_Key": "Albemarle, Virginia, US",
    "Incidence_Rate": 278.0572578432269,
    "Case-Fatality_Ratio": 2.6315789473684212
  },
  {
    "FIPS": 26001,
    "County": "Alcona",
    "Province_State": "Michigan",
    "Country_Region": "US",
    "Last_Update": "2020-06-20 04:33:19",
    "Latitude": 44.6846864,
    "Longitude": -83.59507875,
    "Confirmed": 21,
    "Deaths": 1,
    "Recovered": 0,
    "Active": 20,
    "Combined_Key": "Alcona, Michigan, US",
    "Incidence_Rate": 201.82604517059107,
    "Case-Fatality_Ratio": 4.761904761904762
  },
  {
    "FIPS": 28003,
    "County": "Alcorn",
    "Province_State": "Mississippi",
    "Country_Region": "US",
    "Last_Update": "2020-06-20 04:33:19",
    "Latitude": 34.88084463,
    "Longitude": -88.57996173,
    "Confirmed": 32,
    "Deaths": 1,
    "Recovered": 0,
    "Active": 31,
    "Combined_Key": "Alcorn, Mississippi, US",
    "Incidence_Rate": 86.59648742997862,
    "Case-Fatality_Ratio": 3.125
  },
  {
    "FIPS": 17003,
    "County": "Alexander",
    "Province_State": "Illinois",
    "Country_Region": "US",
    "Last_Update": "2020-06-20 04:33:19",
    "Latitude": 37.18049267,
    "Longitude": -89.32910838,
    "Confirmed": 18,
    "Deaths": 0,
    "Recovered": 0,
    "Active": 18,
    "Combined_Key": "Alexander, Illinois, US",
    "Incidence_Rate": 312.4457559451484,
    "Case-Fatality_Ratio": 0
  },
  {
    "FIPS": 37003,
    "County": "Alexander",
    "Province_State": "North Carolina",
    "Country_Region": "US",
    "Last_Update": "2020-06-20 04:33:19",
    "Latitude": 35.922379600000006,
    "Longitude": -81.17751948,
    "Confirmed": 59,
    "Deaths": 0,
    "Recovered": 0,
    "Active": 59,
    "Combined_Key": "Alexander, North Carolina, US",
    "Incidence_Rate": 149.34528095580978,
    "Case-Fatality_Ratio": 0
  },
  {
    "FIPS": 51510,
    "County": "Alexandria",
    "Province_State": "Virginia",
    "Country_Region": "US",
    "Last_Update": "2020-06-20 04:33:19",
    "Latitude": 38.814003,
    "Longitude": -77.08183073,
    "Confirmed": 2198,
    "Deaths": 48,
    "Recovered": 0,
    "Active": 2150,
    "Combined_Key": "Alexandria, Virginia, US",
    "Incidence_Rate": 1378.6787766264395,
    "Case-Fatality_Ratio": 2.183803457688808
  },
  {
    "FIPS": 40003,
    "County": "Alfalfa",
    "Province_State": "Oklahoma",
    "Country_Region": "US",
    "Last_Update": "2020-06-20 04:33:19",
    "Latitude": 36.73090616,
    "Longitude": -98.32408495,
    "Confirmed": 1,
    "Deaths": 0,
    "Recovered": 0,
    "Active": 1,
    "Combined_Key": "Alfalfa, Oklahoma, US",
    "Incidence_Rate": 17.5377060680463,
    "Case-Fatality_Ratio": 0
  },
  {
    "FIPS": 26003,
    "County": "Alger",
    "Province_State": "Michigan",
    "Country_Region": "US",
    "Last_Update": "2020-06-20 04:33:19",
    "Latitude": 46.41292944,
    "Longitude": -86.60260122,
    "Confirmed": 2,
    "Deaths": 0,
    "Recovered": 0,
    "Active": 2,
    "Combined_Key": "Alger, Michigan, US",
    "Incidence_Rate": 21.958717610891522,
    "Case-Fatality_Ratio": 0
  },
  {
    "FIPS": 19005,
    "County": "Allamakee",
    "Province_State": "Iowa",
    "Country_Region": "US",
    "Last_Update": "2020-06-20 04:33:19",
    "Latitude": 43.28383218,
    "Longitude": -91.37860922,
    "Confirmed": 121,
    "Deaths": 4,
    "Recovered": 0,
    "Active": 117,
    "Combined_Key": "Allamakee, Iowa, US",
    "Incidence_Rate": 884.050558924527,
    "Case-Fatality_Ratio": 3.3057851239669422
  },
  {
    "FIPS": 26005,
    "County": "Allegan",
    "Province_State": "Michigan",
    "Country_Region": "US",
    "Last_Update": "2020-06-20 04:33:19",
    "Latitude": 42.59147037,
    "Longitude": -85.89102866,
    "Confirmed": 292,
    "Deaths": 6,
    "Recovered": 0,
    "Active": 286,
    "Combined_Key": "Allegan, Michigan, US",
    "Incidence_Rate": 247.2878786595642,
    "Case-Fatality_Ratio": 2.0547945205479454
  },
  {
    "FIPS": 24001,
    "County": "Allegany",
    "Province_State": "Maryland",
    "Country_Region": "US",
    "Last_Update": "2020-06-20 04:33:19",
    "Latitude": 39.62357628,
    "Longitude": -78.69280486,
    "Confirmed": 187,
    "Deaths": 17,
    "Recovered": 0,
    "Active": 170,
    "Combined_Key": "Allegany, Maryland, US",
    "Incidence_Rate": 265.5646443990002,
    "Case-Fatality_Ratio": 9.090909090909092
  },
  {
    "FIPS": 36003,
    "County": "Allegany",
    "Province_State": "New York",
    "Country_Region": "US",
    "Last_Update": "2020-06-20 04:33:19",
    "Latitude": 42.25748406,
    "Longitude": -78.02750466,
    "Confirmed": 58,
    "Deaths": 0,
    "Recovered": 0,
    "Active": 58,
    "Combined_Key": "Allegany, New York, US",
    "Incidence_Rate": 125.83801609858757,
    "Case-Fatality_Ratio": 0
  },
  {
    "FIPS": 37005,
    "County": "Alleghany",
    "Province_State": "North Carolina",
    "Country_Region": "US",
    "Last_Update": "2020-06-20 04:33:19",
    "Latitude": 36.49360862,
    "Longitude": -81.12857041,
    "Confirmed": 30,
    "Deaths": 0,
    "Recovered": 0,
    "Active": 30,
    "Combined_Key": "Alleghany, North Carolina, US",
    "Incidence_Rate": 269.3723623956182,
    "Case-Fatality_Ratio": 0
  },
  {
    "FIPS": 51005,
    "County": "Alleghany",
    "Province_State": "Virginia",
    "Country_Region": "US",
    "Last_Update": "2020-06-20 04:33:19",
    "Latitude": 37.78636074,
    "Longitude": -80.00222498,
    "Confirmed": 30,
    "Deaths": 2,
    "Recovered": 0,
    "Active": 28,
    "Combined_Key": "Alleghany, Virginia, US",
    "Incidence_Rate": 201.8842530282638,
    "Case-Fatality_Ratio": 6.666666666666667
  },
  {
    "FIPS": 42003,
    "County": "Allegheny",
    "Province_State": "Pennsylvania",
    "Country_Region": "US",
    "Last_Update": "2020-06-20 04:33:19",
    "Latitude": 40.46809875,
    "Longitude": -79.98167747,
    "Confirmed": 2139,
    "Deaths": 178,
    "Recovered": 0,
    "Active": 1961,
    "Combined_Key": "Allegheny, Pennsylvania, US",
    "Incidence_Rate": 175.89809587638615,
    "Case-Fatality_Ratio": 8.321645628798503
  },
  {
    "FIPS": 18003,
    "County": "Allen",
    "Province_State": "Indiana",
    "Country_Region": "US",
    "Last_Update": "2020-06-20 04:33:19",
    "Latitude": 41.09194313,
    "Longitude": -85.06800636,
    "Confirmed": 2331,
    "Deaths": 91,
    "Recovered": 0,
    "Active": 2240,
    "Combined_Key": "Allen, Indiana, US",
    "Incidence_Rate": 614.5547444100828,
    "Case-Fatality_Ratio": 3.903903903903904
  },
  {
    "FIPS": 20001,
    "County": "Allen",
    "Province_State": "Kansas",
    "Country_Region": "US",
    "Last_Update": "2020-06-20 04:33:19",
    "Latitude": 37.88582951,
    "Longitude": -95.30030847,
    "Confirmed": 2,
    "Deaths": 0,
    "Recovered": 0,
    "Active": 2,
    "Combined_Key": "Allen, Kansas, US",
    "Incidence_Rate": 16.169455897809037,
    "Case-Fatality_Ratio": 0
  },
  {
    "FIPS": 21003,
    "County": "Allen",
    "Province_State": "Kentucky",
    "Country_Region": "US",
    "Last_Update": "2020-06-20 04:33:19",
    "Latitude": 36.75197631,
    "Longitude": -86.19457544,
    "Confirmed": 145,
    "Deaths": 4,
    "Recovered": 0,
    "Active": 141,
    "Combined_Key": "Allen, Kentucky, US",
    "Incidence_Rate": 680.2721088435375,
    "Case-Fatality_Ratio": 2.7586206896551726
  },
  {
    "FIPS": 22003,
    "County": "Allen",
    "Province_State": "Louisiana",
    "Country_Region": "US",
    "Last_Update": "2020-06-20 04:33:19",
    "Latitude": 30.65385745,
    "Longitude": -92.82442028,
    "Confirmed": 223,
    "Deaths": 10,
    "Recovered": 0,
    "Active": 213,
    "Combined_Key": "Allen, Louisiana, US",
    "Incidence_Rate": 870.1759862644867,
    "Case-Fatality_Ratio": 4.484304932735426
  },
  {
    "FIPS": 39003,
    "County": "Allen",
    "Province_State": "Ohio",
    "Country_Region": "US",
    "Last_Update": "2020-06-20 04:33:19",
    "Latitude": 40.77285242,
    "Longitude": -84.10802343,
    "Confirmed": 247,
    "Deaths": 37,
    "Recovered": 0,
    "Active": 210,
    "Combined_Key": "Allen, Ohio, US",
    "Incidence_Rate": 241.32641596076246,
    "Case-Fatality_Ratio": 14.979757085020243
  },
  {
    "FIPS": 45005,
    "County": "Allendale",
    "Province_State": "South Carolina",
    "Country_Region": "US",
    "Last_Update": "2020-06-20 04:33:19",
    "Latitude": 32.98837386,
    "Longitude": -81.35321066,
    "Confirmed": 45,
    "Deaths": 3,
    "Recovered": 0,
    "Active": 42,
    "Combined_Key": "Allendale, South Carolina, US",
    "Incidence_Rate": 517.9558011049724,
    "Case-Fatality_Ratio": 6.666666666666667
  },
  {
    "FIPS": 26007,
    "County": "Alpena",
    "Province_State": "Michigan",
    "Country_Region": "US",
    "Last_Update": "2020-06-20 04:33:19",
    "Latitude": 45.03477666,
    "Longitude": -83.62212411,
    "Confirmed": 115,
    "Deaths": 11,
    "Recovered": 0,
    "Active": 104,
    "Combined_Key": "Alpena, Michigan, US",
    "Incidence_Rate": 404.8582995951417,
    "Case-Fatality_Ratio": 9.565217391304348
  },
  {
    "FIPS": 6003,
    "County": "Alpine",
    "Province_State": "California",
    "Country_Region": "US",
    "Last_Update": "2020-06-20 04:33:19",
    "Latitude": 38.59678594,
    "Longitude": -119.82235940000001,
    "Confirmed": 2,
    "Deaths": 0,
    "Recovered": 0,
    "Active": 2,
    "Combined_Key": "Alpine, California, US",
    "Incidence_Rate": 177.14791851195747,
    "Case-Fatality_Ratio": 0
  },
  {
    "FIPS": 6005,
    "County": "Amador",
    "Province_State": "California",
    "Country_Region": "US",
    "Last_Update": "2020-06-20 04:33:19",
    "Latitude": 38.44583082,
    "Longitude": -120.65696000000001,
    "Confirmed": 12,
    "Deaths": 0,
    "Recovered": 0,
    "Active": 12,
    "Combined_Key": "Amador, California, US",
    "Incidence_Rate": 30.187160394445563,
    "Case-Fatality_Ratio": 0
  },
  {
    "FIPS": 51007,
    "County": "Amelia",
    "Province_State": "Virginia",
    "Country_Region": "US",
    "Last_Update": "2020-06-20 04:33:19",
    "Latitude": 37.34081025,
    "Longitude": -77.98584649,
    "Confirmed": 41,
    "Deaths": 1,
    "Recovered": 0,
    "Active": 40,
    "Combined_Key": "Amelia, Virginia, US",
    "Incidence_Rate": 311.9056675542031,
    "Case-Fatality_Ratio": 2.4390243902439024
  },
  {
    "FIPS": 51009,
    "County": "Amherst",
    "Province_State": "Virginia",
    "Country_Region": "US",
    "Last_Update": "2020-06-20 04:33:19",
    "Latitude": 37.60308293,
    "Longitude": -79.14548696,
    "Confirmed": 28,
    "Deaths": 0,
    "Recovered": 0,
    "Active": 28,
    "Combined_Key": "Amherst, Virginia, US",
    "Incidence_Rate": 88.59357696566998,
    "Case-Fatality_Ratio": 0
  },
  {
    "FIPS": 28005,
    "County": "Amite",
    "Province_State": "Mississippi",
    "Country_Region": "US",
    "Last_Update": "2020-06-20 04:33:19",
    "Latitude": 31.17467303,
    "Longitude": -90.80501621,
    "Confirmed": 73,
    "Deaths": 2,
    "Recovered": 0,
    "Active": 71,
    "Combined_Key": "Amite, Mississippi, US",
    "Incidence_Rate": 593.640725380174,
    "Case-Fatality_Ratio": 2.73972602739726
  },
  {
    "FIPS": 2020,
    "County": "Anchorage",
    "Province_State": "Alaska",
    "Country_Region": "US",
    "Last_Update": "2020-06-20 04:33:19",
    "Latitude": 61.14998174,
    "Longitude": -149.14269860000005,
    "Confirmed": 338,
    "Deaths": 6,
    "Recovered": 0,
    "Active": 332,
    "Combined_Key": "Anchorage, Alaska, US",
    "Incidence_Rate": 117.36111111111111,
    "Case-Fatality_Ratio": 1.7751479289940828
  },
  {
    "FIPS": 20003,
    "County": "Anderson",
    "Province_State": "Kansas",
    "Country_Region": "US",
    "Last_Update": "2020-06-20 04:33:19",
    "Latitude": 38.21413251,
    "Longitude": -95.29272815,
    "Confirmed": 3,
    "Deaths": 0,
    "Recovered": 0,
    "Active": 3,
    "Combined_Key": "Anderson, Kansas, US",
    "Incidence_Rate": 38.17765334690761,
    "Case-Fatality_Ratio": 0
  },
  {
    "FIPS": 21005,
    "County": "Anderson",
    "Province_State": "Kentucky",
    "Country_Region": "US",
    "Last_Update": "2020-06-20 04:33:19",
    "Latitude": 38.00671029,
    "Longitude": -84.99171713,
    "Confirmed": 27,
    "Deaths": 1,
    "Recovered": 0,
    "Active": 26,
    "Combined_Key": "Anderson, Kentucky, US",
    "Incidence_Rate": 118.6969710291467,
    "Case-Fatality_Ratio": 3.7037037037037037
  },
  {
    "FIPS": 45007,
    "County": "Anderson",
    "Province_State": "South Carolina",
    "Country_Region": "US",
    "Last_Update": "2020-06-20 04:33:19",
    "Latitude": 34.51828081,
    "Longitude": -82.63959517,
    "Confirmed": 400,
    "Deaths": 10,
    "Recovered": 0,
    "Active": 390,
    "Combined_Key": "Anderson, South Carolina, US",
    "Incidence_Rate": 197.47430365623674,
    "Case-Fatality_Ratio": 2.5
  },
  {
    "FIPS": 47001,
    "County": "Anderson",
    "Province_State": "Tennessee",
    "Country_Region": "US",
    "Last_Update": "2020-06-20 04:33:19",
    "Latitude": 36.12684348,
    "Longitude": -84.19965764,
    "Confirmed": 74,
    "Deaths": 2,
    "Recovered": 0,
    "Active": 72,
    "Combined_Key": "Anderson, Tennessee, US",
    "Incidence_Rate": 96.13136220738393,
    "Case-Fatality_Ratio": 2.7027027027027026
  },
  {
    "FIPS": 48001,
    "County": "Anderson",
    "Province_State": "Texas",
    "Country_Region": "US",
    "Last_Update": "2020-06-20 04:33:19",
    "Latitude": 31.81534745,
    "Longitude": -95.65354823,
    "Confirmed": 1007,
    "Deaths": 2,
    "Recovered": 0,
    "Active": 1005,
    "Combined_Key": "Anderson, Texas, US",
    "Incidence_Rate": 1744.175976444098,
    "Case-Fatality_Ratio": 0.19860973187686196
  },
  {
    "FIPS": 29003,
    "County": "Andrew",
    "Province_State": "Missouri",
    "Country_Region": "US",
    "Last_Update": "2020-06-20 04:33:19",
    "Latitude": 39.98492163,
    "Longitude": -94.80163024,
    "Confirmed": 39,
    "Deaths": 0,
    "Recovered": 0,
    "Active": 39,
    "Combined_Key": "Andrew, Missouri, US",
    "Incidence_Rate": 220.18970189701898,
    "Case-Fatality_Ratio": 0
  },
  {
    "FIPS": 48003,
    "County": "Andrews",
    "Province_State": "Texas",
    "Country_Region": "US",
    "Last_Update": "2020-06-20 04:33:19",
    "Latitude": 32.30468633,
    "Longitude": -102.63765479999999,
    "Confirmed": 35,
    "Deaths": 0,
    "Recovered": 0,
    "Active": 35,
    "Combined_Key": "Andrews, Texas, US",
    "Incidence_Rate": 187.11574445335472,
    "Case-Fatality_Ratio": 0
  },
  {
    "FIPS": 23001,
    "County": "Androscoggin",
    "Province_State": "Maine",
    "Country_Region": "US",
    "Last_Update": "2020-06-20 04:33:19",
    "Latitude": 44.1664747,
    "Longitude": -70.20380627,
    "Confirmed": 445,
    "Deaths": 4,
    "Recovered": 0,
    "Active": 441,
    "Combined_Key": "Androscoggin, Maine, US",
    "Incidence_Rate": 410.9829418990183,
    "Case-Fatality_Ratio": 0.898876404494382
  },
  {
    "FIPS": 48005,
    "County": "Angelina",
    "Province_State": "Texas",
    "Country_Region": "US",
    "Last_Update": "2020-06-20 04:33:19",
    "Latitude": 31.25457347,
    "Longitude": -94.60901487,
    "Confirmed": 366,
    "Deaths": 6,
    "Recovered": 0,
    "Active": 360,
    "Combined_Key": "Angelina, Texas, US",
    "Incidence_Rate": 422.0723058294413,
    "Case-Fatality_Ratio": 1.639344262295082
  },
  {
    "FIPS": 24003,
    "County": "Anne Arundel",
    "Province_State": "Maryland",
    "Country_Region": "US",
    "Last_Update": "2020-06-20 04:33:19",
    "Latitude": 39.00670238,
    "Longitude": -76.60329337,
    "Confirmed": 4862,
    "Deaths": 198,
    "Recovered": 0,
    "Active": 4664,
    "Combined_Key": "Anne Arundel, Maryland, US",
    "Incidence_Rate": 839.3844284002665,
    "Case-Fatality_Ratio": 4.072398190045249
  },
  {
    "FIPS": 27003,
    "County": "Anoka",
    "Province_State": "Minnesota",
    "Country_Region": "US",
    "Last_Update": "2020-06-20 04:33:19",
    "Latitude": 45.27476015,
    "Longitude": -93.24604565,
    "Confirmed": 1836,
    "Deaths": 96,
    "Recovered": 0,
    "Active": 1740,
    "Combined_Key": "Anoka, Minnesota, US",
    "Incidence_Rate": 514.3995449973523,
    "Case-Fatality_Ratio": 5.228758169934641
  },
  {
    "FIPS": 37007,
    "County": "Anson",
    "Province_State": "North Carolina",
    "Country_Region": "US",
    "Last_Update": "2020-06-20 04:33:19",
    "Latitude": 34.97403241,
    "Longitude": -80.09953279,
    "Confirmed": 95,
    "Deaths": 1,
    "Recovered": 0,
    "Active": 94,
    "Combined_Key": "Anson, North Carolina, US",
    "Incidence_Rate": 372.24903869753746,
    "Case-Fatality_Ratio": 1.098901098901099
  },
  {
    "FIPS": 31003,
    "County": "Antelope",
    "Province_State": "Nebraska",
    "Country_Region": "US",
    "Last_Update": "2020-06-20 04:33:19",
    "Latitude": 42.17695516,
    "Longitude": -98.06662829999999,
    "Confirmed": 8,
    "Deaths": 0,
    "Recovered": 0,
    "Active": 8,
    "Combined_Key": "Antelope, Nebraska, US",
    "Incidence_Rate": 127.02445220704986,
    "Case-Fatality_Ratio": 0
  },
  {
    "FIPS": 26009,
    "County": "Antrim",
    "Province_State": "Michigan",
    "Country_Region": "US",
    "Last_Update": "2020-06-20 04:33:19",
    "Latitude": 44.99690221,
    "Longitude": -85.15503082,
    "Confirmed": 14,
    "Deaths": 0,
    "Recovered": 0,
    "Active": 14,
    "Combined_Key": "Antrim, Michigan, US",
    "Incidence_Rate": 60.024009603841534,
    "Case-Fatality_Ratio": 0
  },
  {
    "FIPS": 4001,
    "County": "Apache",
    "Province_State": "Arizona",
    "Country_Region": "US",
    "Last_Update": "2020-06-20 04:33:19",
    "Latitude": 35.39465006,
    "Longitude": -109.4892383,
    "Confirmed": 2103,
    "Deaths": 63,
    "Recovered": 0,
    "Active": 2040,
    "Combined_Key": "Apache, Arizona, US",
    "Incidence_Rate": 2925.4246247583014,
    "Case-Fatality_Ratio": 2.9957203994293864
  },
  {
    "FIPS": 19007,
    "County": "Appanoose",
    "Province_State": "Iowa",
    "Country_Region": "US",
    "Last_Update": "2020-06-20 04:33:19",
    "Latitude": 40.74324454,
    "Longitude": -92.86865906,
    "Confirmed": 18,
    "Deaths": 3,
    "Recovered": 0,
    "Active": 15,
    "Combined_Key": "Appanoose, Iowa, US",
    "Incidence_Rate": 144.8575567358764,
    "Case-Fatality_Ratio": 16.666666666666668
  },
  {
    "FIPS": 13001,
    "County": "Appling",
    "Province_State": "Georgia",
    "Country_Region": "US",
    "Last_Update": "2020-06-20 04:33:19",
    "Latitude": 31.74847232,
    "Longitude": -82.28909114,
    "Confirmed": 214,
    "Deaths": 13,
    "Recovered": 0,
    "Active": 201,
    "Combined_Key": "Appling, Georgia, US",
    "Incidence_Rate": 1163.9290764712282,
    "Case-Fatality_Ratio": 6.074766355140187
  },
  {
    "FIPS": 51011,
    "County": "Appomattox",
    "Province_State": "Virginia",
    "Country_Region": "US",
    "Last_Update": "2020-06-20 04:33:19",
    "Latitude": 37.37569884,
    "Longitude": -78.81340003,
    "Confirmed": 35,
    "Deaths": 0,
    "Recovered": 0,
    "Active": 35,
    "Combined_Key": "Appomattox, Virginia, US",
    "Incidence_Rate": 219.9736031676199,
    "Case-Fatality_Ratio": 0
  },
  {
    "FIPS": 48007,
    "County": "Aransas",
    "Province_State": "Texas",
    "Country_Region": "US",
    "Last_Update": "2020-06-20 04:33:19",
    "Latitude": 28.10556197,
    "Longitude": -96.9995047,
    "Confirmed": 7,
    "Deaths": 0,
    "Recovered": 0,
    "Active": 7,
    "Combined_Key": "Aransas, Texas, US",
    "Incidence_Rate": 29.774564015312635,
    "Case-Fatality_Ratio": 0
  },
  {
    "FIPS": 8005,
    "County": "Arapahoe",
    "Province_State": "Colorado",
    "Country_Region": "US",
    "Last_Update": "2020-06-20 04:33:19",
    "Latitude": 39.64977461,
    "Longitude": -104.3353617,
    "Confirmed": 4905,
    "Deaths": 339,
    "Recovered": 0,
    "Active": 4566,
    "Combined_Key": "Arapahoe, Colorado, US",
    "Incidence_Rate": 747.041532767785,
    "Case-Fatality_Ratio": 6.91131498470948
  },
  {
    "FIPS": 48009,
    "County": "Archer",
    "Province_State": "Texas",
    "Country_Region": "US",
    "Last_Update": "2020-06-20 04:33:19",
    "Latitude": 33.61569967,
    "Longitude": -98.68754589,
    "Confirmed": 3,
    "Deaths": 0,
    "Recovered": 0,
    "Active": 3,
    "Combined_Key": "Archer, Texas, US",
    "Incidence_Rate": 35.0754121360926,
    "Case-Fatality_Ratio": 0
  },
  {
    "FIPS": 8007,
    "County": "Archuleta",
    "Province_State": "Colorado",
    "Country_Region": "US",
    "Last_Update": "2020-06-20 04:33:19",
    "Latitude": 37.19474156,
    "Longitude": -107.0476867,
    "Confirmed": 8,
    "Deaths": 0,
    "Recovered": 0,
    "Active": 8,
    "Combined_Key": "Archuleta, Colorado, US",
    "Incidence_Rate": 57.024734478580086,
    "Case-Fatality_Ratio": 0
  },
  {
    "FIPS": 26011,
    "County": "Arenac",
    "Province_State": "Michigan",
    "Country_Region": "US",
    "Last_Update": "2020-06-20 04:33:19",
    "Latitude": 44.0636262,
    "Longitude": -83.89277559,
    "Confirmed": 38,
    "Deaths": 1,
    "Recovered": 0,
    "Active": 37,
    "Combined_Key": "Arenac, Michigan, US",
    "Incidence_Rate": 255.32486729825976,
    "Case-Fatality_Ratio": 2.6315789473684212
  },
  {
    "FIPS": 5001,
    "County": "Arkansas",
    "Province_State": "Arkansas",
    "Country_Region": "US",
    "Last_Update": "2020-06-20 04:33:19",
    "Latitude": 34.29145151,
    "Longitude": -91.37277296,
    "Confirmed": 18,
    "Deaths": 0,
    "Recovered": 0,
    "Active": 18,
    "Combined_Key": "Arkansas, Arkansas, US",
    "Incidence_Rate": 102.93949445270502,
    "Case-Fatality_Ratio": 0
  },
  {
    "FIPS": 51013,
    "County": "Arlington",
    "Province_State": "Virginia",
    "Country_Region": "US",
    "Last_Update": "2020-06-20 04:33:19",
    "Latitude": 38.8767675,
    "Longitude": -77.10139853,
    "Confirmed": 2396,
    "Deaths": 126,
    "Recovered": 0,
    "Active": 2270,
    "Combined_Key": "Arlington, Virginia, US",
    "Incidence_Rate": 1011.6448940643974,
    "Case-Fatality_Ratio": 5.258764607679466
  },
  {
    "FIPS": 42005,
    "County": "Armstrong",
    "Province_State": "Pennsylvania",
    "Country_Region": "US",
    "Last_Update": "2020-06-20 04:33:19",
    "Latitude": 40.81665618,
    "Longitude": -79.46290811,
    "Confirmed": 69,
    "Deaths": 6,
    "Recovered": 0,
    "Active": 63,
    "Combined_Key": "Armstrong, Pennsylvania, US",
    "Incidence_Rate": 106.58839885687804,
    "Case-Fatality_Ratio": 8.695652173913043
  },
  {
    "FIPS": 48011,
    "County": "Armstrong",
    "Province_State": "Texas",
    "Country_Region": "US",
    "Last_Update": "2020-06-20 04:33:19",
    "Latitude": 34.96507426,
    "Longitude": -101.35748740000001,
    "Confirmed": 3,
    "Deaths": 0,
    "Recovered": 0,
    "Active": 3,
    "Combined_Key": "Armstrong, Texas, US",
    "Incidence_Rate": 158.9825119236884,
    "Case-Fatality_Ratio": 0
  },
  {
    "FIPS": 23003,
    "County": "Aroostook",
    "Province_State": "Maine",
    "Country_Region": "US",
    "Last_Update": "2020-06-20 04:33:19",
    "Latitude": 46.65926321,
    "Longitude": -68.59841248,
    "Confirmed": 11,
    "Deaths": 1,
    "Recovered": 0,
    "Active": 10,
    "Combined_Key": "Aroostook, Maine, US",
    "Incidence_Rate": 16.40444411304153,
    "Case-Fatality_Ratio": 9.090909090909092
  },
  {
    "FIPS": 31005,
    "County": "Arthur",
    "Province_State": "Nebraska",
    "Country_Region": "US",
    "Last_Update": "2020-06-20 04:33:19",
    "Latitude": 41.56896142,
    "Longitude": -101.6959559,
    "Confirmed": 0,
    "Deaths": 0,
    "Recovered": 0,
    "Active": 0,
    "Combined_Key": "Arthur, Nebraska, US",
    "Incidence_Rate": 0,
    "Case-Fatality_Ratio": null
  },
  {
    "FIPS": 22005,
    "County": "Ascension",
    "Province_State": "Louisiana",
    "Country_Region": "US",
    "Last_Update": "2020-06-20 04:33:19",
    "Latitude": 30.20406249,
    "Longitude": -90.91328409999998,
    "Confirmed": 961,
    "Deaths": 58,
    "Recovered": 0,
    "Active": 903,
    "Combined_Key": "Ascension, Louisiana, US",
    "Incidence_Rate": 759.0597453476984,
    "Case-Fatality_Ratio": 6.035379812695109
  },
  {
    "FIPS": 37009,
    "County": "Ashe",
    "Province_State": "North Carolina",
    "Country_Region": "US",
    "Last_Update": "2020-06-20 04:33:19",
    "Latitude": 36.43296207,
    "Longitude": -81.49862729,
    "Confirmed": 45,
    "Deaths": 1,
    "Recovered": 0,
    "Active": 44,
    "Combined_Key": "Ashe, North Carolina, US",
    "Incidence_Rate": 161.74686615446825,
    "Case-Fatality_Ratio": 2.272727272727273
  },
  {
    "FIPS": 39005,
    "County": "Ashland",
    "Province_State": "Ohio",
    "Country_Region": "US",
    "Last_Update": "2020-06-20 04:33:19",
    "Latitude": 40.84772277,
    "Longitude": -82.27280781,
    "Confirmed": 37,
    "Deaths": 0,
    "Recovered": 0,
    "Active": 37,
    "Combined_Key": "Ashland, Ohio, US",
    "Incidence_Rate": 69.17956772118764,
    "Case-Fatality_Ratio": 0
  },
  {
    "FIPS": 55003,
    "County": "Ashland",
    "Province_State": "Wisconsin",
    "Country_Region": "US",
    "Last_Update": "2020-06-20 04:33:19",
    "Latitude": 46.31956891,
    "Longitude": -90.67837132,
    "Confirmed": 3,
    "Deaths": 0,
    "Recovered": 0,
    "Active": 3,
    "Combined_Key": "Ashland, Wisconsin, US",
    "Incidence_Rate": 19.277727798483486,
    "Case-Fatality_Ratio": 0
  },
  {
    "FIPS": 5003,
    "County": "Ashley",
    "Province_State": "Arkansas",
    "Country_Region": "US",
    "Last_Update": "2020-06-20 04:33:19",
    "Latitude": 33.19153461,
    "Longitude": -91.76984709999999,
    "Confirmed": 51,
    "Deaths": 1,
    "Recovered": 0,
    "Active": 50,
    "Combined_Key": "Ashley, Arkansas, US",
    "Incidence_Rate": 259.4495599531973,
    "Case-Fatality_Ratio": 1.9607843137254901
  },
  {
    "FIPS": 39007,
    "County": "Ashtabula",
    "Province_State": "Ohio",
    "Country_Region": "US",
    "Last_Update": "2020-06-20 04:33:19",
    "Latitude": 41.70860332,
    "Longitude": -80.74830218,
    "Confirmed": 406,
    "Deaths": 42,
    "Recovered": 0,
    "Active": 364,
    "Combined_Key": "Ashtabula, Ohio, US",
    "Incidence_Rate": 417.5193591180675,
    "Case-Fatality_Ratio": 10.344827586206897
  },
  {
    "FIPS": 53003,
    "County": "Asotin",
    "Province_State": "Washington",
    "Country_Region": "US",
    "Last_Update": "2020-06-20 04:33:19",
    "Latitude": 46.18894415,
    "Longitude": -117.2022851,
    "Confirmed": 20,
    "Deaths": 2,
    "Recovered": 0,
    "Active": 18,
    "Combined_Key": "Asotin, Washington, US",
    "Incidence_Rate": 88.5661146045523,
    "Case-Fatality_Ratio": 10
  },
  {
    "FIPS": 22007,
    "County": "Assumption",
    "Province_State": "Louisiana",
    "Country_Region": "US",
    "Last_Update": "2020-06-20 04:33:19",
    "Latitude": 29.89946234,
    "Longitude": -91.06461642,
    "Confirmed": 324,
    "Deaths": 14,
    "Recovered": 0,
    "Active": 310,
    "Combined_Key": "Assumption, Louisiana, US",
    "Incidence_Rate": 1480.060298752912,
    "Case-Fatality_Ratio": 4.320987654320987
  },
  {
    "FIPS": 48013,
    "County": "Atascosa",
    "Province_State": "Texas",
    "Country_Region": "US",
    "Last_Update": "2020-06-20 04:33:19",
    "Latitude": 28.89333001,
    "Longitude": -98.52730485,
    "Confirmed": 62,
    "Deaths": 2,
    "Recovered": 0,
    "Active": 60,
    "Combined_Key": "Atascosa, Texas, US",
    "Incidence_Rate": 121.20501241373917,
    "Case-Fatality_Ratio": 3.225806451612903
  },
  {
    "FIPS": 20005,
    "County": "Atchison",
    "Province_State": "Kansas",
    "Country_Region": "US",
    "Last_Update": "2020-06-20 04:33:19",
    "Latitude": 39.53185661,
    "Longitude": -95.30870026,
    "Confirmed": 27,
    "Deaths": 0,
    "Recovered": 0,
    "Active": 27,
    "Combined_Key": "Atchison, Kansas, US",
    "Incidence_Rate": 167.98357493933926,
    "Case-Fatality_Ratio": 0
  },
  {
    "FIPS": 29005,
    "County": "Atchison",
    "Province_State": "Missouri",
    "Country_Region": "US",
    "Last_Update": "2020-06-20 04:33:19",
    "Latitude": 40.43238737,
    "Longitude": -95.42970639,
    "Confirmed": 3,
    "Deaths": 0,
    "Recovered": 0,
    "Active": 3,
    "Combined_Key": "Atchison, Missouri, US",
    "Incidence_Rate": 58.331713007972,
    "Case-Fatality_Ratio": 0
  },
  {
    "FIPS": 39009,
    "County": "Athens",
    "Province_State": "Ohio",
    "Country_Region": "US",
    "Last_Update": "2020-06-20 04:33:19",
    "Latitude": 39.33425634,
    "Longitude": -82.04278644,
    "Confirmed": 24,
    "Deaths": 1,
    "Recovered": 0,
    "Active": 23,
    "Combined_Key": "Athens, Ohio, US",
    "Incidence_Rate": 36.73825523902827,
    "Case-Fatality_Ratio": 4.166666666666667
  },
  {
    "FIPS": 13003,
    "County": "Atkinson",
    "Province_State": "Georgia",
    "Country_Region": "US",
    "Last_Update": "2020-06-20 04:33:19",
    "Latitude": 31.29633502,
    "Longitude": -82.87545866,
    "Confirmed": 89,
    "Deaths": 2,
    "Recovered": 0,
    "Active": 87,
    "Combined_Key": "Atkinson, Georgia, US",
    "Incidence_Rate": 1090.0183710961421,
    "Case-Fatality_Ratio": 2.247191011235955
  },
  {
    "FIPS": 34001,
    "County": "Atlantic",
    "Province_State": "New Jersey",
    "Country_Region": "US",
    "Last_Update": "2020-06-20 04:33:19",
    "Latitude": 39.47538693,
    "Longitude": -74.65848483,
    "Confirmed": 2619,
    "Deaths": 188,
    "Recovered": 0,
    "Active": 2431,
    "Combined_Key": "Atlantic, New Jersey, US",
    "Incidence_Rate": 993.2870633746729,
    "Case-Fatality_Ratio": 7.178312332951508
  },
  {
    "FIPS": 40005,
    "County": "Atoka",
    "Province_State": "Oklahoma",
    "Country_Region": "US",
    "Last_Update": "2020-06-20 04:33:19",
    "Latitude": 34.37366573,
    "Longitude": -96.03802487,
    "Confirmed": 11,
    "Deaths": 0,
    "Recovered": 0,
    "Active": 11,
    "Combined_Key": "Atoka, Oklahoma, US",
    "Incidence_Rate": 79.95348161069923,
    "Case-Fatality_Ratio": 0
  },
  {
    "FIPS": 28007,
    "County": "Attala",
    "Province_State": "Mississippi",
    "Country_Region": "US",
    "Last_Update": "2020-06-20 04:33:19",
    "Latitude": 33.08658803,
    "Longitude": -89.57838564,
    "Confirmed": 335,
    "Deaths": 23,
    "Recovered": 0,
    "Active": 312,
    "Combined_Key": "Attala, Mississippi, US",
    "Incidence_Rate": 1843.2926158248047,
    "Case-Fatality_Ratio": 6.865671641791045
  },
  {
    "FIPS": 29007,
    "County": "Audrain",
    "Province_State": "Missouri",
    "Country_Region": "US",
    "Last_Update": "2020-06-20 04:33:19",
    "Latitude": 39.215877,
    "Longitude": -91.84242683,
    "Confirmed": 133,
    "Deaths": 1,
    "Recovered": 0,
    "Active": 132,
    "Combined_Key": "Audrain, Missouri, US",
    "Incidence_Rate": 523.8695446667717,
    "Case-Fatality_Ratio": 0.7518796992481203
  },
  {
    "FIPS": 19009,
    "County": "Audubon",
    "Province_State": "Iowa",
    "Country_Region": "US",
    "Last_Update": "2020-06-20 04:33:19",
    "Latitude": 41.6844628,
    "Longitude": -94.90581859,
    "Confirmed": 15,
    "Deaths": 1,
    "Recovered": 0,
    "Active": 14,
    "Combined_Key": "Audubon, Iowa, US",
    "Incidence_Rate": 272.92576419213975,
    "Case-Fatality_Ratio": 6.666666666666667
  },
  {
    "FIPS": 39011,
    "County": "Auglaize",
    "Province_State": "Ohio",
    "Country_Region": "US",
    "Last_Update": "2020-06-20 04:33:19",
    "Latitude": 40.55998859,
    "Longitude": -84.22421429999999,
    "Confirmed": 89,
    "Deaths": 3,
    "Recovered": 0,
    "Active": 86,
    "Combined_Key": "Auglaize, Ohio, US",
    "Incidence_Rate": 194.93604345540564,
    "Case-Fatality_Ratio": 3.3707865168539324
  },
  {
    "FIPS": 51015,
    "County": "Augusta",
    "Province_State": "Virginia",
    "Country_Region": "US",
    "Last_Update": "2020-06-20 04:33:19",
    "Latitude": 38.16404586,
    "Longitude": -79.12461614,
    "Confirmed": 166,
    "Deaths": 2,
    "Recovered": 0,
    "Active": 164,
    "Combined_Key": "Augusta, Virginia, US",
    "Incidence_Rate": 219.6987744514148,
    "Case-Fatality_Ratio": 1.2048192771084338
  },
  {
    "FIPS": 46003,
    "County": "Aurora",
    "Province_State": "South Dakota",
    "Country_Region": "US",
    "Last_Update": "2020-06-20 04:33:19",
    "Latitude": 43.71757685,
    "Longitude": -98.56050467,
    "Confirmed": 34,
    "Deaths": 0,
    "Recovered": 0,
    "Active": 34,
    "Combined_Key": "Aurora, South Dakota, US",
    "Incidence_Rate": 1235.9142130134496,
    "Case-Fatality_Ratio": 0
  },
  {
    "FIPS": 48015,
    "County": "Austin",
    "Province_State": "Texas",
    "Country_Region": "US",
    "Last_Update": "2020-06-20 04:33:19",
    "Latitude": 29.88548725,
    "Longitude": -96.27736949,
    "Confirmed": 42,
    "Deaths": 0,
    "Recovered": 0,
    "Active": 42,
    "Combined_Key": "Austin, Texas, US",
    "Incidence_Rate": 139.85082578582845,
    "Case-Fatality_Ratio": 0
  },
  {
    "FIPS": 1001,
    "County": "Autauga",
    "Province_State": "Alabama",
    "Country_Region": "US",
    "Last_Update": "2020-06-20 04:33:19",
    "Latitude": 32.53952745,
    "Longitude": -86.64408227,
    "Confirmed": 405,
    "Deaths": 7,
    "Recovered": 0,
    "Active": 398,
    "Combined_Key": "Autauga, Alabama, US",
    "Incidence_Rate": 724.9100574558341,
    "Case-Fatality_Ratio": 1.728395061728395
  },
  {
    "FIPS": 37011,
    "County": "Avery",
    "Province_State": "North Carolina",
    "Country_Region": "US",
    "Last_Update": "2020-06-20 04:33:19",
    "Latitude": 36.07569796,
    "Longitude": -81.92308483,
    "Confirmed": 8,
    "Deaths": 0,
    "Recovered": 0,
    "Active": 8,
    "Combined_Key": "Avery, North Carolina, US",
    "Incidence_Rate": 34.17440337187447,
    "Case-Fatality_Ratio": 0
  },
  {
    "FIPS": 22009,
    "County": "Avoyelles",
    "Province_State": "Louisiana",
    "Country_Region": "US",
    "Last_Update": "2020-06-20 04:33:19",
    "Latitude": 31.07796211,
    "Longitude": -92.00079449,
    "Confirmed": 200,
    "Deaths": 10,
    "Recovered": 0,
    "Active": 190,
    "Combined_Key": "Avoyelles, Louisiana, US",
    "Incidence_Rate": 498.20645675567954,
    "Case-Fatality_Ratio": 5
  },
  {
    "FIPS": 8009,
    "County": "Baca",
    "Province_State": "Colorado",
    "Country_Region": "US",
    "Last_Update": "2020-06-20 04:33:19",
    "Latitude": 37.31940883,
    "Longitude": -102.5603223,
    "Confirmed": 12,
    "Deaths": 0,
    "Recovered": 0,
    "Active": 12,
    "Combined_Key": "Baca, Colorado, US",
    "Incidence_Rate": 335.1019268360793,
    "Case-Fatality_Ratio": 0
  },
  {
    "FIPS": 13005,
    "County": "Bacon",
    "Province_State": "Georgia",
    "Country_Region": "US",
    "Last_Update": "2020-06-20 04:33:19",
    "Latitude": 31.55456473,
    "Longitude": -82.45936528,
    "Confirmed": 194,
    "Deaths": 3,
    "Recovered": 0,
    "Active": 191,
    "Combined_Key": "Bacon, Georgia, US",
    "Incidence_Rate": 1737.7284127552848,
    "Case-Fatality_Ratio": 1.5463917525773196
  },
  {
    "FIPS": 48017,
    "County": "Bailey",
    "Province_State": "Texas",
    "Country_Region": "US",
    "Last_Update": "2020-06-20 04:33:19",
    "Latitude": 34.06854817,
    "Longitude": -102.8299707,
    "Confirmed": 83,
    "Deaths": 0,
    "Recovered": 0,
    "Active": 83,
    "Combined_Key": "Bailey, Texas, US",
    "Incidence_Rate": 1185.7142857142858,
    "Case-Fatality_Ratio": 0
  },
  {
    "FIPS": 12003,
    "County": "Baker",
    "Province_State": "Florida",
    "Country_Region": "US",
    "Last_Update": "2020-06-20 04:33:19",
    "Latitude": 30.33060121,
    "Longitude": -82.28467476,
    "Confirmed": 39,
    "Deaths": 4,
    "Recovered": 0,
    "Active": 35,
    "Combined_Key": "Baker, Florida, US",
    "Incidence_Rate": 133.51591920575146,
    "Case-Fatality_Ratio": 10.256410256410257
  },
  {
    "FIPS": 13007,
    "County": "Baker",
    "Province_State": "Georgia",
    "Country_Region": "US",
    "Last_Update": "2020-06-20 04:33:19",
    "Latitude": 31.32669878,
    "Longitude": -84.44218806,
    "Confirmed": 36,
    "Deaths": 3,
    "Recovered": 0,
    "Active": 33,
    "Combined_Key": "Baker, Georgia, US",
    "Incidence_Rate": 1184.990125082291,
    "Case-Fatality_Ratio": 8.333333333333334
  },
  {
    "FIPS": 41001,
    "County": "Baker",
    "Province_State": "Oregon",
    "Country_Region": "US",
    "Last_Update": "2020-06-20 04:33:19",
    "Latitude": 44.70915557,
    "Longitude": -117.6749883,
    "Confirmed": 1,
    "Deaths": 0,
    "Recovered": 0,
    "Active": 1,
    "Combined_Key": "Baker, Oregon, US",
    "Incidence_Rate": 6.201935003721161,
    "Case-Fatality_Ratio": 0
  },
  {
    "FIPS": 1003,
    "County": "Baldwin",
    "Province_State": "Alabama",
    "Country_Region": "US",
    "Last_Update": "2020-06-20 04:33:19",
    "Latitude": 30.72774991,
    "Longitude": -87.72207058,
    "Confirmed": 398,
    "Deaths": 9,
    "Recovered": 0,
    "Active": 389,
    "Combined_Key": "Baldwin, Alabama, US",
    "Incidence_Rate": 178.28825358144368,
    "Case-Fatality_Ratio": 2.2613065326633164
  },
  {
    "FIPS": 13009,
    "County": "Baldwin",
    "Province_State": "Georgia",
    "Country_Region": "US",
    "Last_Update": "2020-06-20 04:33:19",
    "Latitude": 33.06882326,
    "Longitude": -83.24701748,
    "Confirmed": 435,
    "Deaths": 33,
    "Recovered": 0,
    "Active": 402,
    "Combined_Key": "Baldwin, Georgia, US",
    "Incidence_Rate": 969.0354199153486,
    "Case-Fatality_Ratio": 7.586206896551724
  },
  {
    "FIPS": 21007,
    "County": "Ballard",
    "Province_State": "Kentucky",
    "Country_Region": "US",
    "Last_Update": "2020-06-20 04:33:19",
    "Latitude": 37.05842757,
    "Longitude": -88.99427697,
    "Confirmed": 14,
    "Deaths": 0,
    "Recovered": 0,
    "Active": 14,
    "Combined_Key": "Ballard, Kentucky, US",
    "Incidence_Rate": 177.4847870182556,
    "Case-Fatality_Ratio": 0
  },
  {
    "FIPS": 24005,
    "County": "Baltimore",
    "Province_State": "Maryland",
    "Country_Region": "US",
    "Last_Update": "2020-06-20 04:33:19",
    "Latitude": 39.45784712,
    "Longitude": -76.62911955,
    "Confirmed": 7403,
    "Deaths": 442,
    "Recovered": 0,
    "Active": 6961,
    "Combined_Key": "Baltimore, Maryland, US",
    "Incidence_Rate": 894.7629234804259,
    "Case-Fatality_Ratio": 5.970552478724842
  },
  {
    "FIPS": 24510,
    "County": "Baltimore City",
    "Province_State": "Maryland",
    "Country_Region": "US",
    "Last_Update": "2020-06-20 04:33:19",
    "Latitude": 39.30211911,
    "Longitude": -76.61151012,
    "Confirmed": 6938,
    "Deaths": 310,
    "Recovered": 0,
    "Active": 6628,
    "Combined_Key": "Baltimore City, Maryland, US",
    "Incidence_Rate": 1169.017169623751,
    "Case-Fatality_Ratio": 4.468146439896223
  },
  {
    "FIPS": 45009,
    "County": "Bamberg",
    "Province_State": "South Carolina",
    "Country_Region": "US",
    "Last_Update": "2020-06-20 04:33:19",
    "Latitude": 33.21927586,
    "Longitude": -81.05659969,
    "Confirmed": 54,
    "Deaths": 0,
    "Recovered": 0,
    "Active": 54,
    "Combined_Key": "Bamberg, South Carolina, US",
    "Incidence_Rate": 383.9044504478885,
    "Case-Fatality_Ratio": 0
  },
  {
    "FIPS": 48019,
    "County": "Bandera",
    "Province_State": "Texas",
    "Country_Region": "US",
    "Last_Update": "2020-06-20 04:33:19",
    "Latitude": 29.74619598,
    "Longitude": -99.24598147,
    "Confirmed": 13,
    "Deaths": 0,
    "Recovered": 0,
    "Active": 13,
    "Combined_Key": "Bandera, Texas, US",
    "Incidence_Rate": 56.2478366216684,
    "Case-Fatality_Ratio": 0
  },
  {
    "FIPS": 13011,
    "County": "Banks",
    "Province_State": "Georgia",
    "Country_Region": "US",
    "Last_Update": "2020-06-20 04:33:19",
    "Latitude": 34.35607081,
    "Longitude": -83.49644388,
    "Confirmed": 113,
    "Deaths": 0,
    "Recovered": 0,
    "Active": 113,
    "Combined_Key": "Banks, Georgia, US",
    "Incidence_Rate": 587.5012997816367,
    "Case-Fatality_Ratio": 0
  },
  {
    "FIPS": 31007,
    "County": "Banner",
    "Province_State": "Nebraska",
    "Country_Region": "US",
    "Last_Update": "2020-06-20 04:33:19",
    "Latitude": 41.54634427,
    "Longitude": -103.7114332,
    "Confirmed": 1,
    "Deaths": 0,
    "Recovered": 0,
    "Active": 1,
    "Combined_Key": "Banner, Nebraska, US",
    "Incidence_Rate": 134.2281879194631,
    "Case-Fatality_Ratio": 0
  },
  {
    "FIPS": 16005,
    "County": "Bannock",
    "Province_State": "Idaho",
    "Country_Region": "US",
    "Last_Update": "2020-06-20 04:33:19",
    "Latitude": 42.67002716,
    "Longitude": -112.2233311,
    "Confirmed": 77,
    "Deaths": 1,
    "Recovered": 0,
    "Active": 76,
    "Combined_Key": "Bannock, Idaho, US",
    "Incidence_Rate": 87.69132653061224,
    "Case-Fatality_Ratio": 1.2987012987012987
  },
  {
    "FIPS": 26013,
    "County": "Baraga",
    "Province_State": "Michigan",
    "Country_Region": "US",
    "Last_Update": "2020-06-20 04:33:19",
    "Latitude": 46.6720582,
    "Longitude": -88.36363591,
    "Confirmed": 1,
    "Deaths": 0,
    "Recovered": 0,
    "Active": 1,
    "Combined_Key": "Baraga, Michigan, US",
    "Incidence_Rate": 12.181751735899622,
    "Case-Fatality_Ratio": 0
  },
  {
    "FIPS": 20007,
    "County": "Barber",
    "Province_State": "Kansas",
    "Country_Region": "US",
    "Last_Update": "2020-06-20 04:33:19",
    "Latitude": 37.2288586,
    "Longitude": -98.68460053,
    "Confirmed": 1,
    "Deaths": 0,
    "Recovered": 0,
    "Active": 1,
    "Combined_Key": "Barber, Kansas, US",
    "Incidence_Rate": 22.588660492432798,
    "Case-Fatality_Ratio": 0
  },
  {
    "FIPS": 1005,
    "County": "Barbour",
    "Province_State": "Alabama",
    "Country_Region": "US",
    "Last_Update": "2020-06-20 04:33:19",
    "Latitude": 31.868263,
    "Longitude": -85.3871286,
    "Confirmed": 265,
    "Deaths": 1,
    "Recovered": 0,
    "Active": 264,
    "Combined_Key": "Barbour, Alabama, US",
    "Incidence_Rate": 1073.4829457992385,
    "Case-Fatality_Ratio": 0.37735849056603776
  },
  {
    "FIPS": 54001,
    "County": "Barbour",
    "Province_State": "West Virginia",
    "Country_Region": "US",
    "Last_Update": "2020-06-20 04:33:19",
    "Latitude": 39.1307219,
    "Longitude": -80.00350858,
    "Confirmed": 11,
    "Deaths": 1,
    "Recovered": 0,
    "Active": 10,
    "Combined_Key": "Barbour, West Virginia, US",
    "Incidence_Rate": 66.90590596679034,
    "Case-Fatality_Ratio": 9.090909090909092
  },
  {
    "FIPS": 38003,
    "County": "Barnes",
    "Province_State": "North Dakota",
    "Country_Region": "US",
    "Last_Update": "2020-06-20 04:33:19",
    "Latitude": 46.93579637,
    "Longitude": -98.06605978,
    "Confirmed": 16,
    "Deaths": 0,
    "Recovered": 0,
    "Active": 16,
    "Combined_Key": "Barnes, North Dakota, US",
    "Incidence_Rate": 153.62457993278926,
    "Case-Fatality_Ratio": 0
  },
  {
    "FIPS": 25001,
    "County": "Barnstable",
    "Province_State": "Massachusetts",
    "Country_Region": "US",
    "Last_Update": "2020-06-20 04:33:19",
    "Latitude": 41.72980578,
    "Longitude": -70.28854339,
    "Confirmed": 1508,
    "Deaths": 136,
    "Recovered": 0,
    "Active": 1372,
    "Combined_Key": "Barnstable, Massachusetts, US",
    "Incidence_Rate": 708.0144607728063,
    "Case-Fatality_Ratio": 9.018567639257295
  },
  {
    "FIPS": 45011,
    "County": "Barnwell",
    "Province_State": "South Carolina",
    "Country_Region": "US",
    "Last_Update": "2020-06-20 04:33:19",
    "Latitude": 33.26679302,
    "Longitude": -81.43584352,
    "Confirmed": 57,
    "Deaths": 1,
    "Recovered": 0,
    "Active": 56,
    "Combined_Key": "Barnwell, South Carolina, US",
    "Incidence_Rate": 273.1716668264162,
    "Case-Fatality_Ratio": 1.7543859649122806
  },
  {
    "FIPS": 21009,
    "County": "Barren",
    "Province_State": "Kentucky",
    "Country_Region": "US",
    "Last_Update": "2020-06-20 04:33:19",
    "Latitude": 36.96469836,
    "Longitude": -85.93338945,
    "Confirmed": 70,
    "Deaths": 2,
    "Recovered": 0,
    "Active": 68,
    "Combined_Key": "Barren, Kentucky, US",
    "Incidence_Rate": 158.19566543876698,
    "Case-Fatality_Ratio": 2.857142857142857
  },
  {
    "FIPS": 55005,
    "County": "Barron",
    "Province_State": "Wisconsin",
    "Country_Region": "US",
    "Last_Update": "2020-06-20 04:33:19",
    "Latitude": 45.42372701,
    "Longitude": -91.84833627,
    "Confirmed": 30,
    "Deaths": 0,
    "Recovered": 0,
    "Active": 30,
    "Combined_Key": "Barron, Wisconsin, US",
    "Incidence_Rate": 66.30713464768809,
    "Case-Fatality_Ratio": 0
  },
  {
    "FIPS": 13013,
    "County": "Barrow",
    "Province_State": "Georgia",
    "Country_Region": "US",
    "Last_Update": "2020-06-20 04:33:19",
    "Latitude": 33.99148694,
    "Longitude": -83.71436292,
    "Confirmed": 414,
    "Deaths": 25,
    "Recovered": 0,
    "Active": 389,
    "Combined_Key": "Barrow, Georgia, US",
    "Incidence_Rate": 497.3570398846708,
    "Case-Fatality_Ratio": 6.038647342995169
  },
  {
    "FIPS": 26015,
    "County": "Barry",
    "Province_State": "Michigan",
    "Country_Region": "US",
    "Last_Update": "2020-06-20 04:33:19",
    "Latitude": 42.59513984,
    "Longitude": -85.30834519,
    "Confirmed": 94,
    "Deaths": 2,
    "Recovered": 0,
    "Active": 92,
    "Combined_Key": "Barry, Michigan, US",
    "Incidence_Rate": 152.72136474411047,
    "Case-Fatality_Ratio": 2.127659574468085
  },
  {
    "FIPS": 29009,
    "County": "Barry",
    "Province_State": "Missouri",
    "Country_Region": "US",
    "Last_Update": "2020-06-20 04:33:19",
    "Latitude": 36.70978521,
    "Longitude": -93.82919888,
    "Confirmed": 28,
    "Deaths": 0,
    "Recovered": 0,
    "Active": 28,
    "Combined_Key": "Barry, Missouri, US",
    "Incidence_Rate": 78.23632959847998,
    "Case-Fatality_Ratio": 0
  },
  {
    "FIPS": 18005,
    "County": "Bartholomew",
    "Province_State": "Indiana",
    "Country_Region": "US",
    "Last_Update": "2020-06-20 04:33:19",
    "Latitude": 39.20744865,
    "Longitude": -85.89558181,
    "Confirmed": 566,
    "Deaths": 43,
    "Recovered": 0,
    "Active": 523,
    "Combined_Key": "Bartholomew, Indiana, US",
    "Incidence_Rate": 675.5869609329307,
    "Case-Fatality_Ratio": 7.597173144876325
  },
  {
    "FIPS": 20009,
    "County": "Barton",
    "Province_State": "Kansas",
    "Country_Region": "US",
    "Last_Update": "2020-06-20 04:33:19",
    "Latitude": 38.47889676,
    "Longitude": -98.75636726,
    "Confirmed": 52,
    "Deaths": 2,
    "Recovered": 0,
    "Active": 50,
    "Combined_Key": "Barton, Kansas, US",
    "Incidence_Rate": 201.7145738779627,
    "Case-Fatality_Ratio": 3.8461538461538463
  },
  {
    "FIPS": 29011,
    "County": "Barton",
    "Province_State": "Missouri",
    "Country_Region": "US",
    "Last_Update": "2020-06-20 04:33:19",
    "Latitude": 37.50207671,
    "Longitude": -94.34757022,
    "Confirmed": 15,
    "Deaths": 0,
    "Recovered": 0,
    "Active": 15,
    "Combined_Key": "Barton, Missouri, US",
    "Incidence_Rate": 127.61613067891781,
    "Case-Fatality_Ratio": 0
  },
  {
    "FIPS": 13015,
    "County": "Bartow",
    "Province_State": "Georgia",
    "Country_Region": "US",
    "Last_Update": "2020-06-20 04:33:19",
    "Latitude": 34.23732119,
    "Longitude": -84.83887523,
    "Confirmed": 583,
    "Deaths": 39,
    "Recovered": 0,
    "Active": 544,
    "Combined_Key": "Bartow, Georgia, US",
    "Incidence_Rate": 541.1275501680002,
    "Case-Fatality_Ratio": 6.689536878216123
  },
  {
    "FIPS": 48021,
    "County": "Bastrop",
    "Province_State": "Texas",
    "Country_Region": "US",
    "Last_Update": "2020-06-20 04:33:19",
    "Latitude": 30.10370699,
    "Longitude": -97.31206354,
    "Confirmed": 338,
    "Deaths": 4,
    "Recovered": 0,
    "Active": 334,
    "Combined_Key": "Bastrop, Texas, US",
    "Incidence_Rate": 380.9609684072901,
    "Case-Fatality_Ratio": 1.183431952662722
  },
  {
    "FIPS": 29013,
    "County": "Bates",
    "Province_State": "Missouri",
    "Country_Region": "US",
    "Last_Update": "2020-06-20 04:33:19",
    "Latitude": 38.25271289,
    "Longitude": -94.34113157,
    "Confirmed": 12,
    "Deaths": 1,
    "Recovered": 0,
    "Active": 11,
    "Combined_Key": "Bates, Missouri, US",
    "Incidence_Rate": 74.20232500618353,
    "Case-Fatality_Ratio": 8.333333333333334
  },
  {
    "FIPS": 21011,
    "County": "Bath",
    "Province_State": "Kentucky",
    "Country_Region": "US",
    "Last_Update": "2020-06-20 04:33:19",
    "Latitude": 38.14735938,
    "Longitude": -83.74588932,
    "Confirmed": 10,
    "Deaths": 1,
    "Recovered": 0,
    "Active": 9,
    "Combined_Key": "Bath, Kentucky, US",
    "Incidence_Rate": 80,
    "Case-Fatality_Ratio": 10
  },
  {
    "FIPS": 51017,
    "County": "Bath",
    "Province_State": "Virginia",
    "Country_Region": "US",
    "Last_Update": "2020-06-20 04:33:19",
    "Latitude": 38.05852573,
    "Longitude": -79.73912095,
    "Confirmed": 0,
    "Deaths": 0,
    "Recovered": 0,
    "Active": 0,
    "Combined_Key": "Bath, Virginia, US",
    "Incidence_Rate": 0,
    "Case-Fatality_Ratio": null
  },
  {
    "FIPS": 5005,
    "County": "Baxter",
    "Province_State": "Arkansas",
    "Country_Region": "US",
    "Last_Update": "2020-06-20 04:33:19",
    "Latitude": 36.28784385,
    "Longitude": -92.33782872,
    "Confirmed": 14,
    "Deaths": 0,
    "Recovered": 0,
    "Active": 14,
    "Combined_Key": "Baxter, Arkansas, US",
    "Incidence_Rate": 33.387389106171895,
    "Case-Fatality_Ratio": 0
  },
  {
    "FIPS": 12005,
    "County": "Bay",
    "Province_State": "Florida",
    "Country_Region": "US",
    "Last_Update": "2020-06-20 04:33:19",
    "Latitude": 30.26548745,
    "Longitude": -85.62122584,
    "Confirmed": 175,
    "Deaths": 4,
    "Recovered": 0,
    "Active": 171,
    "Combined_Key": "Bay, Florida, US",
    "Incidence_Rate": 100.16885607166367,
    "Case-Fatality_Ratio": 2.2857142857142856
  },
  {
    "FIPS": 26017,
    "County": "Bay",
    "Province_State": "Michigan",
    "Country_Region": "US",
    "Last_Update": "2020-06-20 04:33:19",
    "Latitude": 43.70639106,
    "Longitude": -83.98731479,
    "Confirmed": 379,
    "Deaths": 29,
    "Recovered": 0,
    "Active": 350,
    "Combined_Key": "Bay, Michigan, US",
    "Incidence_Rate": 367.51158776642166,
    "Case-Fatality_Ratio": 7.651715039577836
  },
  {
    "FIPS": 55007,
    "County": "Bayfield",
    "Province_State": "Wisconsin",
    "Country_Region": "US",
    "Last_Update": "2020-06-20 04:33:19",
    "Latitude": 46.52868768,
    "Longitude": -91.19716729,
    "Confirmed": 3,
    "Deaths": 1,
    "Recovered": 0,
    "Active": 2,
    "Combined_Key": "Bayfield, Wisconsin, US",
    "Incidence_Rate": 19.952114924181963,
    "Case-Fatality_Ratio": 33.333333333333336
  },
  {
    "FIPS": 48023,
    "County": "Baylor",
    "Province_State": "Texas",
    "Country_Region": "US",
    "Last_Update": "2020-06-20 04:33:19",
    "Latitude": 33.61640794,
    "Longitude": -99.21352901,
    "Confirmed": 1,
    "Deaths": 0,
    "Recovered": 0,
    "Active": 1,
    "Combined_Key": "Baylor, Texas, US",
    "Incidence_Rate": 28.498147620404673,
    "Case-Fatality_Ratio": 0
  },
  {
    "FIPS": 46005,
    "County": "Beadle",
    "Province_State": "South Dakota",
    "Country_Region": "US",
    "Last_Update": "2020-06-20 04:33:19",
    "Latitude": 44.41464384,
    "Longitude": -98.27858469,
    "Confirmed": 476,
    "Deaths": 6,
    "Recovered": 0,
    "Active": 470,
    "Combined_Key": "Beadle, South Dakota, US",
    "Incidence_Rate": 2579.5263642768114,
    "Case-Fatality_Ratio": 1.2605042016806722
  },
  {
    "FIPS": null,
    "County": "Bear River",
    "Province_State": "Utah",
    "Country_Region": "US",
    "Last_Update": "2020-06-20 04:33:19",
    "Latitude": 41.52106798,
    "Longitude": -113.08328159999999,
    "Confirmed": 1188,
    "Deaths": 2,
    "Recovered": 0,
    "Active": 1186,
    "Combined_Key": "Bear River, Utah, US",
    "Incidence_Rate": 635.9130276525816,
    "Case-Fatality_Ratio": 0.16835016835016836
  },
  {
    "FIPS": 37013,
    "County": "Beaufort",
    "Province_State": "North Carolina",
    "Country_Region": "US",
    "Last_Update": "2020-06-20 04:33:19",
    "Latitude": 35.48531943,
    "Longitude": -76.84325809,
    "Confirmed": 55,
    "Deaths": 0,
    "Recovered": 0,
    "Active": 55,
    "Combined_Key": "Beaufort, North Carolina, US",
    "Incidence_Rate": 117.03621738945397,
    "Case-Fatality_Ratio": 0
  },
  {
    "FIPS": 45013,
    "County": "Beaufort",
    "Province_State": "South Carolina",
    "Country_Region": "US",
    "Last_Update": "2020-06-20 04:33:19",
    "Latitude": 32.39226291,
    "Longitude": -80.72619758,
    "Confirmed": 760,
    "Deaths": 15,
    "Recovered": 0,
    "Active": 745,
    "Combined_Key": "Beaufort, South Carolina, US",
    "Incidence_Rate": 395.58197395405006,
    "Case-Fatality_Ratio": 1.9736842105263157
  },
  {
    "FIPS": 22011,
    "County": "Beauregard",
    "Province_State": "Louisiana",
    "Country_Region": "US",
    "Last_Update": "2020-06-20 04:33:19",
    "Latitude": 30.64836518,
    "Longitude": -93.34173616,
    "Confirmed": 147,
    "Deaths": 7,
    "Recovered": 0,
    "Active": 140,
    "Combined_Key": "Beauregard, Louisiana, US",
    "Incidence_Rate": 392.0313625090007,
    "Case-Fatality_Ratio": 4.761904761904762
  },
  {
    "FIPS": 40007,
    "County": "Beaver",
    "Province_State": "Oklahoma",
    "Country_Region": "US",
    "Last_Update": "2020-06-20 04:33:19",
    "Latitude": 36.7496847,
    "Longitude": -100.4758872,
    "Confirmed": 30,
    "Deaths": 0,
    "Recovered": 0,
    "Active": 30,
    "Combined_Key": "Beaver, Oklahoma, US",
    "Incidence_Rate": 564.865373752589,
    "Case-Fatality_Ratio": 0
  },
  {
    "FIPS": 42007,
    "County": "Beaver",
    "Province_State": "Pennsylvania",
    "Country_Region": "US",
    "Last_Update": "2020-06-20 04:33:19",
    "Latitude": 40.6825484,
    "Longitude": -80.34921611,
    "Confirmed": 619,
    "Deaths": 77,
    "Recovered": 0,
    "Active": 542,
    "Combined_Key": "Beaver, Pennsylvania, US",
    "Incidence_Rate": 377.6024986427051,
    "Case-Fatality_Ratio": 12.439418416801292
  },
  {
    "FIPS": 30001,
    "County": "Beaverhead",
    "Province_State": "Montana",
    "Country_Region": "US",
    "Last_Update": "2020-06-20 04:33:19",
    "Latitude": 45.13434354,
    "Longitude": -112.89846940000001,
    "Confirmed": 1,
    "Deaths": 0,
    "Recovered": 0,
    "Active": 1,
    "Combined_Key": "Beaverhead, Montana, US",
    "Incidence_Rate": 10.578652279699567,
    "Case-Fatality_Ratio": 0
  },
  {
    "FIPS": 27005,
    "County": "Becker",
    "Province_State": "Minnesota",
    "Country_Region": "US",
    "Last_Update": "2020-06-20 04:33:19",
    "Latitude": 46.93479392,
    "Longitude": -95.67158144,
    "Confirmed": 48,
    "Deaths": 0,
    "Recovered": 0,
    "Active": 48,
    "Combined_Key": "Becker, Minnesota, US",
    "Incidence_Rate": 139.44165238358076,
    "Case-Fatality_Ratio": 0
  },
  {
    "FIPS": 40009,
    "County": "Beckham",
    "Province_State": "Oklahoma",
    "Country_Region": "US",
    "Last_Update": "2020-06-20 04:33:19",
    "Latitude": 35.26862449,
    "Longitude": -99.68128023,
    "Confirmed": 8,
    "Deaths": 0,
    "Recovered": 0,
    "Active": 8,
    "Combined_Key": "Beckham, Oklahoma, US",
    "Incidence_Rate": 36.59819753877122,
    "Case-Fatality_Ratio": 0
  },
  {
    "FIPS": 42009,
    "County": "Bedford",
    "Province_State": "Pennsylvania",
    "Country_Region": "US",
    "Last_Update": "2020-06-20 04:33:19",
    "Latitude": 40.00522157,
    "Longitude": -78.48998442,
    "Confirmed": 63,
    "Deaths": 2,
    "Recovered": 0,
    "Active": 61,
    "Combined_Key": "Bedford, Pennsylvania, US",
    "Incidence_Rate": 131.55696625459404,
    "Case-Fatality_Ratio": 3.1746031746031744
  },
  {
    "FIPS": 47003,
    "County": "Bedford",
    "Province_State": "Tennessee",
    "Country_Region": "US",
    "Last_Update": "2020-06-20 04:33:19",
    "Latitude": 35.51123746,
    "Longitude": -86.45549096,
    "Confirmed": 416,
    "Deaths": 4,
    "Recovered": 0,
    "Active": 412,
    "Combined_Key": "Bedford, Tennessee, US",
    "Incidence_Rate": 836.8032506587814,
    "Case-Fatality_Ratio": 0.9615384615384616
  },
  {
    "FIPS": 51019,
    "County": "Bedford",
    "Province_State": "Virginia",
    "Country_Region": "US",
    "Last_Update": "2020-06-20 04:33:19",
    "Latitude": 37.3080028,
    "Longitude": -79.5281964,
    "Confirmed": 95,
    "Deaths": 2,
    "Recovered": 0,
    "Active": 93,
    "Combined_Key": "Bedford, Virginia, US",
    "Incidence_Rate": 120.25773130625214,
    "Case-Fatality_Ratio": 2.1052631578947367
  },
  {
    "FIPS": 48025,
    "County": "Bee",
    "Province_State": "Texas",
    "Country_Region": "US",
    "Last_Update": "2020-06-20 04:33:19",
    "Latitude": 28.41761668,
    "Longitude": -97.74215593,
    "Confirmed": 33,
    "Deaths": 0,
    "Recovered": 0,
    "Active": 33,
    "Combined_Key": "Bee, Texas, US",
    "Incidence_Rate": 101.33578995854445,
    "Case-Fatality_Ratio": 0
  },
  {
    "FIPS": 33001,
    "County": "Belknap",
    "Province_State": "New Hampshire",
    "Country_Region": "US",
    "Last_Update": "2020-06-20 04:33:19",
    "Latitude": 43.51637314,
    "Longitude": -71.41684235,
    "Confirmed": 77,
    "Deaths": 1,
    "Recovered": 0,
    "Active": 76,
    "Combined_Key": "Belknap, New Hampshire, US",
    "Incidence_Rate": 125.60559842095819,
    "Case-Fatality_Ratio": 1.2987012987012987
  },
  {
    "FIPS": 21013,
    "County": "Bell",
    "Province_State": "Kentucky",
    "Country_Region": "US",
    "Last_Update": "2020-06-20 04:33:19",
    "Latitude": 36.73355174,
    "Longitude": -83.67766671,
    "Confirmed": 4,
    "Deaths": 0,
    "Recovered": 0,
    "Active": 4,
    "Combined_Key": "Bell, Kentucky, US",
    "Incidence_Rate": 15.365703749231715,
    "Case-Fatality_Ratio": 0
  },
  {
    "FIPS": 48027,
    "County": "Bell",
    "Province_State": "Texas",
    "Country_Region": "US",
    "Last_Update": "2020-06-20 04:33:19",
    "Latitude": 31.03736027,
    "Longitude": -97.4785025,
    "Confirmed": 769,
    "Deaths": 9,
    "Recovered": 0,
    "Active": 760,
    "Combined_Key": "Bell, Texas, US",
    "Incidence_Rate": 211.89009269158282,
    "Case-Fatality_Ratio": 1.1703511053315996
  },
  {
    "FIPS": 39013,
    "County": "Belmont",
    "Province_State": "Ohio",
    "Country_Region": "US",
    "Last_Update": "2020-06-20 04:33:19",
    "Latitude": 40.01625942,
    "Longitude": -80.9924051,
    "Confirmed": 476,
    "Deaths": 21,
    "Recovered": 0,
    "Active": 455,
    "Combined_Key": "Belmont, Ohio, US",
    "Incidence_Rate": 710.3841447034594,
    "Case-Fatality_Ratio": 4.411764705882353
  },
  {
    "FIPS": 27007,
    "County": "Beltrami",
    "Province_State": "Minnesota",
    "Country_Region": "US",
    "Last_Update": "2020-06-20 04:33:19",
    "Latitude": 47.97373527,
    "Longitude": -94.93732139,
    "Confirmed": 23,
    "Deaths": 0,
    "Recovered": 0,
    "Active": 23,
    "Combined_Key": "Beltrami, Minnesota, US",
    "Incidence_Rate": 48.741205391201156,
    "Case-Fatality_Ratio": 0
  },
  {
    "FIPS": 13017,
    "County": "Ben Hill",
    "Province_State": "Georgia",
    "Country_Region": "US",
    "Last_Update": "2020-06-20 04:33:19",
    "Latitude": 31.76095874,
    "Longitude": -83.22145359,
    "Confirmed": 117,
    "Deaths": 1,
    "Recovered": 0,
    "Active": 116,
    "Combined_Key": "Ben Hill, Georgia, US",
    "Incidence_Rate": 700.5988023952095,
    "Case-Fatality_Ratio": 0.8547008547008547
  },
  {
    "FIPS": 16009,
    "County": "Benewah",
    "Province_State": "Idaho",
    "Country_Region": "US",
    "Last_Update": "2020-06-20 04:33:19",
    "Latitude": 47.21754179,
    "Longitude": -116.6586851,
    "Confirmed": 21,
    "Deaths": 0,
    "Recovered": 0,
    "Active": 21,
    "Combined_Key": "Benewah, Idaho, US",
    "Incidence_Rate": 225.85502258550227,
    "Case-Fatality_Ratio": 0
  },
  {
    "FIPS": 46007,
    "County": "Bennett",
    "Province_State": "South Dakota",
    "Country_Region": "US",
    "Last_Update": "2020-06-20 04:33:19",
    "Latitude": 43.19486375,
    "Longitude": -101.6665572,
    "Confirmed": 2,
    "Deaths": 0,
    "Recovered": 0,
    "Active": 2,
    "Combined_Key": "Bennett, South Dakota, US",
    "Incidence_Rate": 59.43536404160476,
    "Case-Fatality_Ratio": 0
  },
  {
    "FIPS": 50003,
    "County": "Bennington",
    "Province_State": "Vermont",
    "Country_Region": "US",
    "Last_Update": "2020-06-20 04:33:19",
    "Latitude": 43.03519828,
    "Longitude": -73.09048868,
    "Confirmed": 69,
    "Deaths": 1,
    "Recovered": 0,
    "Active": 68,
    "Combined_Key": "Bennington, Vermont, US",
    "Incidence_Rate": 194.5305892303355,
    "Case-Fatality_Ratio": 1.4492753623188406
  },
  {
    "FIPS": 38005,
    "County": "Benson",
    "Province_State": "North Dakota",
    "Country_Region": "US",
    "Last_Update": "2020-06-20 04:33:19",
    "Latitude": 48.0683985,
    "Longitude": -99.35916363,
    "Confirmed": 3,
    "Deaths": 0,
    "Recovered": 0,
    "Active": 3,
    "Combined_Key": "Benson, North Dakota, US",
    "Incidence_Rate": 43.91100702576112,
    "Case-Fatality_Ratio": 0
  },
  {
    "FIPS": 8011,
    "County": "Bent",
    "Province_State": "Colorado",
    "Country_Region": "US",
    "Last_Update": "2020-06-20 04:33:19",
    "Latitude": 37.95474293,
    "Longitude": -103.0720195,
    "Confirmed": 3,
    "Deaths": 0,
    "Recovered": 0,
    "Active": 3,
    "Combined_Key": "Bent, Colorado, US",
    "Incidence_Rate": 53.79236148466918,
    "Case-Fatality_Ratio": 0
  },
  {
    "FIPS": 5007,
    "County": "Benton",
    "Province_State": "Arkansas",
    "Country_Region": "US",
    "Last_Update": "2020-06-20 04:33:19",
    "Latitude": 36.33644656,
    "Longitude": -94.25680817,
    "Confirmed": 1841,
    "Deaths": 11,
    "Recovered": 0,
    "Active": 1830,
    "Combined_Key": "Benton, Arkansas, US",
    "Incidence_Rate": 659.5233233383846,
    "Case-Fatality_Ratio": 0.5975013579576317
  },
  {
    "FIPS": 18007,
    "County": "Benton",
    "Province_State": "Indiana",
    "Country_Region": "US",
    "Last_Update": "2020-06-20 04:33:19",
    "Latitude": 40.60626947,
    "Longitude": -87.31093999,
    "Confirmed": 38,
    "Deaths": 0,
    "Recovered": 0,
    "Active": 38,
    "Combined_Key": "Benton, Indiana, US",
    "Incidence_Rate": 434.38500228623684,
    "Case-Fatality_Ratio": 0
  },
  {
    "FIPS": 19011,
    "County": "Benton",
    "Province_State": "Iowa",
    "Country_Region": "US",
    "Last_Update": "2020-06-20 04:33:19",
    "Latitude": 42.08011739,
    "Longitude": -92.06463573,
    "Confirmed": 50,
    "Deaths": 1,
    "Recovered": 0,
    "Active": 49,
    "Combined_Key": "Benton, Iowa, US",
    "Incidence_Rate": 194.96977968414896,
    "Case-Fatality_Ratio": 2
  },
  {
    "FIPS": 27009,
    "County": "Benton",
    "Province_State": "Minnesota",
    "Country_Region": "US",
    "Last_Update": "2020-06-20 04:33:19",
    "Latitude": 45.69804958,
    "Longitude": -93.99514135,
    "Confirmed": 200,
    "Deaths": 3,
    "Recovered": 0,
    "Active": 197,
    "Combined_Key": "Benton, Minnesota, US",
    "Incidence_Rate": 489.12910562743036,
    "Case-Fatality_Ratio": 1.5
  },
  {
    "FIPS": 28009,
    "County": "Benton",
    "Province_State": "Mississippi",
    "Country_Region": "US",
    "Last_Update": "2020-06-20 04:33:19",
    "Latitude": 34.81681228,
    "Longitude": -89.18945516,
    "Confirmed": 18,
    "Deaths": 0,
    "Recovered": 0,
    "Active": 18,
    "Combined_Key": "Benton, Mississippi, US",
    "Incidence_Rate": 217.9440610243371,
    "Case-Fatality_Ratio": 0
  },
  {
    "FIPS": 29015,
    "County": "Benton",
    "Province_State": "Missouri",
    "Country_Region": "US",
    "Last_Update": "2020-06-20 04:33:19",
    "Latitude": 38.29503305,
    "Longitude": -93.28756116,
    "Confirmed": 14,
    "Deaths": 0,
    "Recovered": 0,
    "Active": 14,
    "Combined_Key": "Benton, Missouri, US",
    "Incidence_Rate": 72.00534896878054,
    "Case-Fatality_Ratio": 0
  },
  {
    "FIPS": 41003,
    "County": "Benton",
    "Province_State": "Oregon",
    "Country_Region": "US",
    "Last_Update": "2020-06-20 04:33:19",
    "Latitude": 44.49167306,
    "Longitude": -123.4316987,
    "Confirmed": 66,
    "Deaths": 5,
    "Recovered": 0,
    "Active": 61,
    "Combined_Key": "Benton, Oregon, US",
    "Incidence_Rate": 70.92732098911372,
    "Case-Fatality_Ratio": 7.575757575757576
  },
  {
    "FIPS": 47005,
    "County": "Benton",
    "Province_State": "Tennessee",
    "Country_Region": "US",
    "Last_Update": "2020-06-20 04:33:19",
    "Latitude": 36.07110411,
    "Longitude": -88.06849355,
    "Confirmed": 8,
    "Deaths": 1,
    "Recovered": 0,
    "Active": 7,
    "Combined_Key": "Benton, Tennessee, US",
    "Incidence_Rate": 49.504950495049506,
    "Case-Fatality_Ratio": 12.5
  },
  {
    "FIPS": 53005,
    "County": "Benton",
    "Province_State": "Washington",
    "Country_Region": "US",
    "Last_Update": "2020-06-20 04:33:19",
    "Latitude": 46.23946995,
    "Longitude": -119.51208340000001,
    "Confirmed": 1313,
    "Deaths": 75,
    "Recovered": 0,
    "Active": 1238,
    "Combined_Key": "Benton, Washington, US",
    "Incidence_Rate": 642.3993346054112,
    "Case-Fatality_Ratio": 5.712109672505712
  },
  {
    "FIPS": 26019,
    "County": "Benzie",
    "Province_State": "Michigan",
    "Country_Region": "US",
    "Last_Update": "2020-06-20 04:33:19",
    "Latitude": 44.63899297,
    "Longitude": -86.01608482,
    "Confirmed": 5,
    "Deaths": 0,
    "Recovered": 0,
    "Active": 5,
    "Combined_Key": "Benzie, Michigan, US",
    "Incidence_Rate": 28.14364516492176,
    "Case-Fatality_Ratio": 0
  },
  {
    "FIPS": 34003,
    "County": "Bergen",
    "Province_State": "New Jersey",
    "Country_Region": "US",
    "Last_Update": "2020-06-20 04:33:19",
    "Latitude": 40.96010917,
    "Longitude": -74.07164325,
    "Confirmed": 18967,
    "Deaths": 1691,
    "Recovered": 0,
    "Active": 17276,
    "Combined_Key": "Bergen, New Jersey, US",
    "Incidence_Rate": 2034.6448516523242,
    "Case-Fatality_Ratio": 8.915484789371012
  },
  {
    "FIPS": 45015,
    "County": "Berkeley",
    "Province_State": "South Carolina",
    "Country_Region": "US",
    "Last_Update": "2020-06-20 04:33:19",
    "Latitude": 33.20222596,
    "Longitude": -79.94654523,
    "Confirmed": 515,
    "Deaths": 20,
    "Recovered": 0,
    "Active": 495,
    "Combined_Key": "Berkeley, South Carolina, US",
    "Incidence_Rate": 225.9693646970036,
    "Case-Fatality_Ratio": 3.883495145631068
  },
  {
    "FIPS": 54003,
    "County": "Berkeley",
    "Province_State": "West Virginia",
    "Country_Region": "US",
    "Last_Update": "2020-06-20 04:33:19",
    "Latitude": 39.46704621,
    "Longitude": -78.02414609,
    "Confirmed": 427,
    "Deaths": 9,
    "Recovered": 0,
    "Active": 418,
    "Combined_Key": "Berkeley, West Virginia, US",
    "Incidence_Rate": 358.30864891626317,
    "Case-Fatality_Ratio": 2.107728337236534
  },
  {
    "FIPS": 42011,
    "County": "Berks",
    "Province_State": "Pennsylvania",
    "Country_Region": "US",
    "Last_Update": "2020-06-20 04:33:19",
    "Latitude": 40.41570541,
    "Longitude": -75.92457766,
    "Confirmed": 4374,
    "Deaths": 343,
    "Recovered": 0,
    "Active": 4031,
    "Combined_Key": "Berks, Pennsylvania, US",
    "Incidence_Rate": 1038.5503034447388,
    "Case-Fatality_Ratio": 7.841792409693644
  },
  {
    "FIPS": 25003,
    "County": "Berkshire",
    "Province_State": "Massachusetts",
    "Country_Region": "US",
    "Last_Update": "2020-06-20 04:33:19",
    "Latitude": 42.37428441,
    "Longitude": -73.20524838,
    "Confirmed": 585,
    "Deaths": 44,
    "Recovered": 0,
    "Active": 541,
    "Combined_Key": "Berkshire, Massachusetts, US",
    "Incidence_Rate": 468.20975797157126,
    "Case-Fatality_Ratio": 7.521367521367521
  },
  {
    "FIPS": 35001,
    "County": "Bernalillo",
    "Province_State": "New Mexico",
    "Country_Region": "US",
    "Last_Update": "2020-06-20 04:33:19",
    "Latitude": 35.05163625,
    "Longitude": -106.6703554,
    "Confirmed": 1777,
    "Deaths": 82,
    "Recovered": 0,
    "Active": 1695,
    "Combined_Key": "Bernalillo, New Mexico, US",
    "Incidence_Rate": 261.66176572363395,
    "Case-Fatality_Ratio": 4.614518851997749
  },
  {
    "FIPS": 13019,
    "County": "Berrien",
    "Province_State": "Georgia",
    "Country_Region": "US",
    "Last_Update": "2020-06-20 04:33:19",
    "Latitude": 31.27590016,
    "Longitude": -83.22529920000002,
    "Confirmed": 86,
    "Deaths": 0,
    "Recovered": 0,
    "Active": 86,
    "Combined_Key": "Berrien, Georgia, US",
    "Incidence_Rate": 443.36753106150434,
    "Case-Fatality_Ratio": 0
  },
  {
    "FIPS": 26021,
    "County": "Berrien",
    "Province_State": "Michigan",
    "Country_Region": "US",
    "Last_Update": "2020-06-20 04:33:19",
    "Latitude": 41.95447397,
    "Longitude": -86.41313079999998,
    "Confirmed": 848,
    "Deaths": 60,
    "Recovered": 0,
    "Active": 788,
    "Combined_Key": "Berrien, Michigan, US",
    "Incidence_Rate": 552.7995254268225,
    "Case-Fatality_Ratio": 7.0754716981132075
  },
  {
    "FIPS": 37015,
    "County": "Bertie",
    "Province_State": "North Carolina",
    "Country_Region": "US",
    "Last_Update": "2020-06-20 04:33:19",
    "Latitude": 36.0688473,
    "Longitude": -76.96545943,
    "Confirmed": 136,
    "Deaths": 4,
    "Recovered": 0,
    "Active": 132,
    "Combined_Key": "Bertie, North Carolina, US",
    "Incidence_Rate": 712.5138544360585,
    "Case-Fatality_Ratio": 2.962962962962963
  },
  {
    "FIPS": 2050,
    "County": "Bethel",
    "Province_State": "Alaska",
    "Country_Region": "US",
    "Last_Update": "2020-06-20 04:33:19",
    "Latitude": 60.90980451,
    "Longitude": -159.8561831,
    "Confirmed": 6,
    "Deaths": 0,
    "Recovered": 0,
    "Active": 6,
    "Combined_Key": "Bethel, Alaska, US",
    "Incidence_Rate": 32.63352550853911,
    "Case-Fatality_Ratio": 0
  },
  {
    "FIPS": 48029,
    "County": "Bexar",
    "Province_State": "Texas",
    "Country_Region": "US",
    "Last_Update": "2020-06-20 04:33:19",
    "Latitude": 29.44928723,
    "Longitude": -98.52019748,
    "Confirmed": 5550,
    "Deaths": 92,
    "Recovered": 0,
    "Active": 5458,
    "Combined_Key": "Bexar, Texas, US",
    "Incidence_Rate": 277.00775721542817,
    "Case-Fatality_Ratio": 1.6576576576576576
  },
  {
    "FIPS": 1007,
    "County": "Bibb",
    "Province_State": "Alabama",
    "Country_Region": "US",
    "Last_Update": "2020-06-20 04:33:19",
    "Latitude": 32.99642064,
    "Longitude": -87.12511459999996,
    "Confirmed": 123,
    "Deaths": 1,
    "Recovered": 0,
    "Active": 122,
    "Combined_Key": "Bibb, Alabama, US",
    "Incidence_Rate": 549.2542645351433,
    "Case-Fatality_Ratio": 0.8130081300813008
  },
  {
    "FIPS": 13021,
    "County": "Bibb",
    "Province_State": "Georgia",
    "Country_Region": "US",
    "Last_Update": "2020-06-20 04:33:19",
    "Latitude": 32.80904227,
    "Longitude": -83.70489165,
    "Confirmed": 590,
    "Deaths": 37,
    "Recovered": 0,
    "Active": 553,
    "Combined_Key": "Bibb, Georgia, US",
    "Incidence_Rate": 385.2205877552086,
    "Case-Fatality_Ratio": 6.271186440677966
  },
  {
    "FIPS": 22013,
    "County": "Bienville",
    "Province_State": "Louisiana",
    "Country_Region": "US",
    "Last_Update": "2020-06-20 04:33:19",
    "Latitude": 32.34569994,
    "Longitude": -93.05398492,
    "Confirmed": 196,
    "Deaths": 25,
    "Recovered": 0,
    "Active": 171,
    "Combined_Key": "Bienville, Louisiana, US",
    "Incidence_Rate": 1480.2507363492184,
    "Case-Fatality_Ratio": 12.755102040816327
  },
  {
    "FIPS": 30003,
    "County": "Big Horn",
    "Province_State": "Montana",
    "Country_Region": "US",
    "Last_Update": "2020-06-20 04:33:19",
    "Latitude": 45.42335905,
    "Longitude": -107.492347,
    "Confirmed": 53,
    "Deaths": 3,
    "Recovered": 0,
    "Active": 50,
    "Combined_Key": "Big Horn, Montana, US",
    "Incidence_Rate": 397.92777235528195,
    "Case-Fatality_Ratio": 5.660377358490566
  },
  {
    "FIPS": 56003,
    "County": "Big Horn",
    "Province_State": "Wyoming",
    "Country_Region": "US",
    "Last_Update": "2020-06-20 04:33:19",
    "Latitude": 44.52405055,
    "Longitude": -107.9960365,
    "Confirmed": 11,
    "Deaths": 0,
    "Recovered": 0,
    "Active": 11,
    "Combined_Key": "Big Horn, Wyoming, US",
    "Incidence_Rate": 93.29940627650551,
    "Case-Fatality_Ratio": 0
  },
  {
    "FIPS": 27011,
    "County": "Big Stone",
    "Province_State": "Minnesota",
    "Country_Region": "US",
    "Last_Update": "2020-06-20 04:33:19",
    "Latitude": 45.42712824,
    "Longitude": -96.41403739,
    "Confirmed": 14,
    "Deaths": 0,
    "Recovered": 0,
    "Active": 14,
    "Combined_Key": "Big Stone, Minnesota, US",
    "Incidence_Rate": 280.50490883590464,
    "Case-Fatality_Ratio": 0
  },
  {
    "FIPS": 16011,
    "County": "Bingham",
    "Province_State": "Idaho",
    "Country_Region": "US",
    "Last_Update": "2020-06-20 04:33:19",
    "Latitude": 43.21672879999999,
    "Longitude": -112.3978437,
    "Confirmed": 27,
    "Deaths": 0,
    "Recovered": 0,
    "Active": 27,
    "Combined_Key": "Bingham, Idaho, US",
    "Incidence_Rate": 57.67875072098438,
    "Case-Fatality_Ratio": 0
  },
  {
    "FIPS": 19013,
    "County": "Black Hawk",
    "Province_State": "Iowa",
    "Country_Region": "US",
    "Last_Update": "2020-06-20 04:33:19",
    "Latitude": 42.4704581,
    "Longitude": -92.30524729,
    "Confirmed": 1870,
    "Deaths": 56,
    "Recovered": 0,
    "Active": 1814,
    "Combined_Key": "Black Hawk, Iowa, US",
    "Incidence_Rate": 1425.000762032493,
    "Case-Fatality_Ratio": 2.9946524064171123
  },
  {
    "FIPS": 18009,
    "County": "Blackford",
    "Province_State": "Indiana",
    "Country_Region": "US",
    "Last_Update": "2020-06-20 04:33:19",
    "Latitude": 40.47388153,
    "Longitude": -85.32499702,
    "Confirmed": 32,
    "Deaths": 2,
    "Recovered": 0,
    "Active": 30,
    "Combined_Key": "Blackford, Indiana, US",
    "Incidence_Rate": 272.15512842320123,
    "Case-Fatality_Ratio": 6.25
  },
  {
    "FIPS": 37017,
    "County": "Bladen",
    "Province_State": "North Carolina",
    "Country_Region": "US",
    "Last_Update": "2020-06-20 04:33:19",
    "Latitude": 34.61296243,
    "Longitude": -78.56180059,
    "Confirmed": 232,
    "Deaths": 2,
    "Recovered": 0,
    "Active": 230,
    "Combined_Key": "Bladen, North Carolina, US",
    "Incidence_Rate": 672.3305421429008,
    "Case-Fatality_Ratio": 0.9090909090909091
  },
  {
    "FIPS": 16013,
    "County": "Blaine",
    "Province_State": "Idaho",
    "Country_Region": "US",
    "Last_Update": "2020-06-20 04:33:19",
    "Latitude": 43.4085812,
    "Longitude": -113.9752658,
    "Confirmed": 518,
    "Deaths": 5,
    "Recovered": 0,
    "Active": 513,
    "Combined_Key": "Blaine, Idaho, US",
    "Incidence_Rate": 2250.1194561487337,
    "Case-Fatality_Ratio": 0.9652509652509652
  },
  {
    "FIPS": 40011,
    "County": "Blaine",
    "Province_State": "Oklahoma",
    "Country_Region": "US",
    "Last_Update": "2020-06-20 04:33:19",
    "Latitude": 35.87518314,
    "Longitude": -98.43307003,
    "Confirmed": 13,
    "Deaths": 0,
    "Recovered": 0,
    "Active": 13,
    "Combined_Key": "Blaine, Oklahoma, US",
    "Incidence_Rate": 137.8725209460176,
    "Case-Fatality_Ratio": 0
  },
  {
    "FIPS": 42013,
    "County": "Blair",
    "Province_State": "Pennsylvania",
    "Country_Region": "US",
    "Last_Update": "2020-06-20 04:33:19",
    "Latitude": 40.47961444,
    "Longitude": -78.34917412,
    "Confirmed": 56,
    "Deaths": 1,
    "Recovered": 0,
    "Active": 55,
    "Combined_Key": "Blair, Pennsylvania, US",
    "Incidence_Rate": 45.966067192540365,
    "Case-Fatality_Ratio": 1.7857142857142858
  },
  {
    "FIPS": 48031,
    "County": "Blanco",
    "Province_State": "Texas",
    "Country_Region": "US",
    "Last_Update": "2020-06-20 04:33:19",
    "Latitude": 30.26640707,
    "Longitude": -98.3999852,
    "Confirmed": 14,
    "Deaths": 1,
    "Recovered": 0,
    "Active": 13,
    "Combined_Key": "Blanco, Texas, US",
    "Incidence_Rate": 117.34137959936301,
    "Case-Fatality_Ratio": 7.142857142857143
  },
  {
    "FIPS": 51021,
    "County": "Bland",
    "Province_State": "Virginia",
    "Country_Region": "US",
    "Last_Update": "2020-06-20 04:33:19",
    "Latitude": 37.13128068,
    "Longitude": -81.13599391,
    "Confirmed": 1,
    "Deaths": 0,
    "Recovered": 0,
    "Active": 1,
    "Combined_Key": "Bland, Virginia, US",
    "Incidence_Rate": 15.92356687898089,
    "Case-Fatality_Ratio": 0
  },
  {
    "FIPS": 13023,
    "County": "Bleckley",
    "Province_State": "Georgia",
    "Country_Region": "US",
    "Last_Update": "2020-06-20 04:33:19",
    "Latitude": 32.43829035,
    "Longitude": -83.33035166,
    "Confirmed": 54,
    "Deaths": 1,
    "Recovered": 0,
    "Active": 53,
    "Combined_Key": "Bleckley, Georgia, US",
    "Incidence_Rate": 419.4826380797017,
    "Case-Fatality_Ratio": 1.8518518518518519
  },
  {
    "FIPS": 47007,
    "County": "Bledsoe",
    "Province_State": "Tennessee",
    "Country_Region": "US",
    "Last_Update": "2020-06-20 04:33:19",
    "Latitude": 35.59942968,
    "Longitude": -85.20611967,
    "Confirmed": 614,
    "Deaths": 1,
    "Recovered": 0,
    "Active": 613,
    "Combined_Key": "Bledsoe, Tennessee, US",
    "Incidence_Rate": 4075.942644715879,
    "Case-Fatality_Ratio": 0.16286644951140064
  },
  {
    "FIPS": 1009,
    "County": "Blount",
    "Province_State": "Alabama",
    "Country_Region": "US",
    "Last_Update": "2020-06-20 04:33:19",
    "Latitude": 33.98210918,
    "Longitude": -86.56790593,
    "Confirmed": 136,
    "Deaths": 1,
    "Recovered": 0,
    "Active": 135,
    "Combined_Key": "Blount, Alabama, US",
    "Incidence_Rate": 235.18832359146404,
    "Case-Fatality_Ratio": 0.7352941176470589
  },
  {
    "FIPS": 47009,
    "County": "Blount",
    "Province_State": "Tennessee",
    "Country_Region": "US",
    "Last_Update": "2020-06-20 04:33:19",
    "Latitude": 35.68938198,
    "Longitude": -83.92847788,
    "Confirmed": 119,
    "Deaths": 3,
    "Recovered": 0,
    "Active": 116,
    "Combined_Key": "Blount, Tennessee, US",
    "Incidence_Rate": 89.41452272180813,
    "Case-Fatality_Ratio": 2.5210084033613445
  },
  {
    "FIPS": 27013,
    "County": "Blue Earth",
    "Province_State": "Minnesota",
    "Country_Region": "US",
    "Last_Update": "2020-06-20 04:33:19",
    "Latitude": 44.03554215,
    "Longitude": -94.06699781,
    "Confirmed": 174,
    "Deaths": 2,
    "Recovered": 0,
    "Active": 172,
    "Combined_Key": "Blue Earth, Minnesota, US",
    "Incidence_Rate": 257.19480289122436,
    "Case-Fatality_Ratio": 1.1494252873563218
  },
  {
    "FIPS": 28011,
    "County": "Bolivar",
    "Province_State": "Mississippi",
    "Country_Region": "US",
    "Last_Update": "2020-06-20 04:33:19",
    "Latitude": 33.79696941,
    "Longitude": -90.87372121,
    "Confirmed": 197,
    "Deaths": 13,
    "Recovered": 0,
    "Active": 184,
    "Combined_Key": "Bolivar, Mississippi, US",
    "Incidence_Rate": 643.2022985503461,
    "Case-Fatality_Ratio": 6.598984771573604
  },
  {
    "FIPS": 29017,
    "County": "Bollinger",
    "Province_State": "Missouri",
    "Country_Region": "US",
    "Last_Update": "2020-06-20 04:33:19",
    "Latitude": 37.32449052,
    "Longitude": -90.02725304,
    "Confirmed": 11,
    "Deaths": 0,
    "Recovered": 0,
    "Active": 11,
    "Combined_Key": "Bollinger, Missouri, US",
    "Incidence_Rate": 90.66183136899366,
    "Case-Fatality_Ratio": 0
  },
  {
    "FIPS": 46009,
    "County": "Bon Homme",
    "Province_State": "South Dakota",
    "Country_Region": "US",
    "Last_Update": "2020-06-20 04:33:19",
    "Latitude": 42.98914167,
    "Longitude": -97.88592746,
    "Confirmed": 11,
    "Deaths": 0,
    "Recovered": 0,
    "Active": 11,
    "Combined_Key": "Bon Homme, South Dakota, US",
    "Incidence_Rate": 159.39718881321548,
    "Case-Fatality_Ratio": 0
  },
  {
    "FIPS": 17005,
    "County": "Bond",
    "Province_State": "Illinois",
    "Country_Region": "US",
    "Last_Update": "2020-06-20 04:33:19",
    "Latitude": 38.88829622,
    "Longitude": -89.43534887,
    "Confirmed": 12,
    "Deaths": 1,
    "Recovered": 0,
    "Active": 11,
    "Combined_Key": "Bond, Illinois, US",
    "Incidence_Rate": 73.05491294289541,
    "Case-Fatality_Ratio": 8.333333333333334
  },
  {
    "FIPS": 16017,
    "County": "Bonner",
    "Province_State": "Idaho",
    "Country_Region": "US",
    "Last_Update": "2020-06-20 04:33:19",
    "Latitude": 48.29996017,
    "Longitude": -116.6017932,
    "Confirmed": 11,
    "Deaths": 0,
    "Recovered": 0,
    "Active": 11,
    "Combined_Key": "Bonner, Idaho, US",
    "Incidence_Rate": 24.049498240013993,
    "Case-Fatality_Ratio": 0
  },
  {
    "FIPS": 16019,
    "County": "Bonneville",
    "Province_State": "Idaho",
    "Country_Region": "US",
    "Last_Update": "2020-06-20 04:33:19",
    "Latitude": 43.38713372,
    "Longitude": -111.6161537,
    "Confirmed": 91,
    "Deaths": 1,
    "Recovered": 0,
    "Active": 90,
    "Combined_Key": "Bonneville, Idaho, US",
    "Incidence_Rate": 76.43076716332666,
    "Case-Fatality_Ratio": 1.098901098901099
  },
  {
    "FIPS": 5009,
    "County": "Boone",
    "Province_State": "Arkansas",
    "Country_Region": "US",
    "Last_Update": "2020-06-20 04:33:19",
    "Latitude": 36.3084504,
    "Longitude": -93.09374925,
    "Confirmed": 10,
    "Deaths": 0,
    "Recovered": 0,
    "Active": 10,
    "Combined_Key": "Boone, Arkansas, US",
    "Incidence_Rate": 26.715110066253473,
    "Case-Fatality_Ratio": 0
  },
  {
    "FIPS": 17007,
    "County": "Boone",
    "Province_State": "Illinois",
    "Country_Region": "US",
    "Last_Update": "2020-06-20 04:33:19",
    "Latitude": 42.32359279,
    "Longitude": -88.82345779,
    "Confirmed": 551,
    "Deaths": 19,
    "Recovered": 0,
    "Active": 532,
    "Combined_Key": "Boone, Illinois, US",
    "Incidence_Rate": 1029.0602121619602,
    "Case-Fatality_Ratio": 3.4482758620689653
  },
  {
    "FIPS": 18011,
    "County": "Boone",
    "Province_State": "Indiana",
    "Country_Region": "US",
    "Last_Update": "2020-06-20 04:33:19",
    "Latitude": 40.0509304,
    "Longitude": -86.46841646,
    "Confirmed": 381,
    "Deaths": 39,
    "Recovered": 0,
    "Active": 342,
    "Combined_Key": "Boone, Indiana, US",
    "Incidence_Rate": 561.5907315419424,
    "Case-Fatality_Ratio": 10.236220472440944
  },
  {
    "FIPS": 19015,
    "County": "Boone",
    "Province_State": "Iowa",
    "Country_Region": "US",
    "Last_Update": "2020-06-20 04:33:19",
    "Latitude": 42.03657094,
    "Longitude": -93.9313999,
    "Confirmed": 107,
    "Deaths": 1,
    "Recovered": 0,
    "Active": 106,
    "Combined_Key": "Boone, Iowa, US",
    "Incidence_Rate": 407.8676526644812,
    "Case-Fatality_Ratio": 0.9345794392523364
  },
  {
    "FIPS": 21015,
    "County": "Boone",
    "Province_State": "Kentucky",
    "Country_Region": "US",
    "Last_Update": "2020-06-20 04:33:19",
    "Latitude": 38.97065142,
    "Longitude": -84.72615357,
    "Confirmed": 561,
    "Deaths": 23,
    "Recovered": 0,
    "Active": 538,
    "Combined_Key": "Boone, Kentucky, US",
    "Incidence_Rate": 419.9699058997911,
    "Case-Fatality_Ratio": 4.09982174688057
  },
  {
    "FIPS": 29019,
    "County": "Boone",
    "Province_State": "Missouri",
    "Country_Region": "US",
    "Last_Update": "2020-06-20 04:33:19",
    "Latitude": 38.99186229,
    "Longitude": -92.30723575,
    "Confirmed": 246,
    "Deaths": 2,
    "Recovered": 0,
    "Active": 244,
    "Combined_Key": "Boone, Missouri, US",
    "Incidence_Rate": 136.31603154109152,
    "Case-Fatality_Ratio": 0.8130081300813008
  },
  {
    "FIPS": 31011,
    "County": "Boone",
    "Province_State": "Nebraska",
    "Country_Region": "US",
    "Last_Update": "2020-06-20 04:33:19",
    "Latitude": 41.70759415,
    "Longitude": -98.06737183,
    "Confirmed": 7,
    "Deaths": 0,
    "Recovered": 0,
    "Active": 7,
    "Combined_Key": "Boone, Nebraska, US",
    "Incidence_Rate": 134.82280431432974,
    "Case-Fatality_Ratio": 0
  },
  {
    "FIPS": 54005,
    "County": "Boone",
    "Province_State": "West Virginia",
    "Country_Region": "US",
    "Last_Update": "2020-06-20 04:33:19",
    "Latitude": 38.01974191,
    "Longitude": -81.69888019,
    "Confirmed": 20,
    "Deaths": 0,
    "Recovered": 0,
    "Active": 20,
    "Combined_Key": "Boone, West Virginia, US",
    "Incidence_Rate": 93.20967516428205,
    "Case-Fatality_Ratio": 0
  },
  {
    "FIPS": 48035,
    "County": "Bosque",
    "Province_State": "Texas",
    "Country_Region": "US",
    "Last_Update": "2020-06-20 04:33:19",
    "Latitude": 31.89978581,
    "Longitude": -97.63613524,
    "Confirmed": 7,
    "Deaths": 0,
    "Recovered": 0,
    "Active": 7,
    "Combined_Key": "Bosque, Texas, US",
    "Incidence_Rate": 37.46320578003746,
    "Case-Fatality_Ratio": 0
  },
  {
    "FIPS": 22015,
    "County": "Bossier",
    "Province_State": "Louisiana",
    "Country_Region": "US",
    "Last_Update": "2020-06-20 04:33:19",
    "Latitude": 32.67932307,
    "Longitude": -93.60460152,
    "Confirmed": 643,
    "Deaths": 28,
    "Recovered": 0,
    "Active": 615,
    "Combined_Key": "Bossier, Louisiana, US",
    "Incidence_Rate": 506.1437826179362,
    "Case-Fatality_Ratio": 4.354587869362364
  },
  {
    "FIPS": 51023,
    "County": "Botetourt",
    "Province_State": "Virginia",
    "Country_Region": "US",
    "Last_Update": "2020-06-20 04:33:19",
    "Latitude": 37.55531756,
    "Longitude": -79.80982182,
    "Confirmed": 55,
    "Deaths": 4,
    "Recovered": 0,
    "Active": 51,
    "Combined_Key": "Botetourt, Virginia, US",
    "Incidence_Rate": 164.5770370148718,
    "Case-Fatality_Ratio": 7.2727272727272725
  },
  {
    "FIPS": 38009,
    "County": "Bottineau",
    "Province_State": "North Dakota",
    "Country_Region": "US",
    "Last_Update": "2020-06-20 04:33:19",
    "Latitude": 48.79106111,
    "Longitude": -100.8378166,
    "Confirmed": 4,
    "Deaths": 0,
    "Recovered": 0,
    "Active": 4,
    "Combined_Key": "Bottineau, North Dakota, US",
    "Incidence_Rate": 63.67398917542184,
    "Case-Fatality_Ratio": 0
  },
  {
    "FIPS": 8013,
    "County": "Boulder",
    "Province_State": "Colorado",
    "Country_Region": "US",
    "Last_Update": "2020-06-20 04:33:19",
    "Latitude": 40.09313619,
    "Longitude": -105.3546767,
    "Confirmed": 1211,
    "Deaths": 71,
    "Recovered": 0,
    "Active": 1140,
    "Combined_Key": "Boulder, Colorado, US",
    "Incidence_Rate": 371.2491876049982,
    "Case-Fatality_Ratio": 5.862923203963667
  },
  {
    "FIPS": 16021,
    "County": "Boundary",
    "Province_State": "Idaho",
    "Country_Region": "US",
    "Last_Update": "2020-06-20 04:33:19",
    "Latitude": 48.76684761,
    "Longitude": -116.4630179,
    "Confirmed": 0,
    "Deaths": 0,
    "Recovered": 0,
    "Active": 0,
    "Combined_Key": "Boundary, Idaho, US",
    "Incidence_Rate": 0,
    "Case-Fatality_Ratio": null
  },
  {
    "FIPS": 20011,
    "County": "Bourbon",
    "Province_State": "Kansas",
    "Country_Region": "US",
    "Last_Update": "2020-06-20 04:33:19",
    "Latitude": 37.85508555,
    "Longitude": -94.84865997,
    "Confirmed": 9,
    "Deaths": 1,
    "Recovered": 0,
    "Active": 8,
    "Combined_Key": "Bourbon, Kansas, US",
    "Incidence_Rate": 61.923764964909864,
    "Case-Fatality_Ratio": 11.11111111111111
  },