[
  {
    "FIPS": 45001,
    "County": "Abbeville",
    "Province_State": "South Carolina",
    "Country_Region": "US",
    "Last_Update": "2020-06-30 04:33:48",
    "Latitude": 34.22333378,
    "Longitude": -82.46170658,
    "Confirmed": 106,
    "Deaths": 0,
    "Recovered": 0,
    "Active": 106,
    "Combined_Key": "Abbeville, South Carolina, US",
    "Incidence_Rate": 432.17678476780685,
    "Case-Fatality_Ratio": 0
  },
  {
    "FIPS": 22001,
    "County": "Acadia",
    "Province_State": "Louisiana",
    "Country_Region": "US",
    "Last_Update": "2020-06-30 04:33:48",
    "Latitude": 30.295064899999996,
    "Longitude": -92.41419698,
    "Confirmed": 850,
    "Deaths": 37,
    "Recovered": 0,
    "Active": 813,
    "Combined_Key": "Acadia, Louisiana, US",
    "Incidence_Rate": 1369.9734063985816,
    "Case-Fatality_Ratio": 4.352941176
  },
  {
    "FIPS": 51001,
    "County": "Accomack",
    "Province_State": "Virginia",
    "Country_Region": "US",
    "Last_Update": "2020-06-30 04:33:48",
    "Latitude": 37.76707161,
    "Longitude": -75.63234615,
    "Confirmed": 1039,
    "Deaths": 14,
    "Recovered": 0,
    "Active": 1025,
    "Combined_Key": "Accomack, Virginia, US",
    "Incidence_Rate": 3215.1256343606883,
    "Case-Fatality_Ratio": 1.347449471
  },
  {
    "FIPS": 16001,
    "County": "Ada",
    "Province_State": "Idaho",
    "Country_Region": "US",
    "Last_Update": "2020-06-30 04:33:48",
    "Latitude": 43.4526575,
    "Longitude": -116.24155159999998,
    "Confirmed": 2040,
    "Deaths": 23,
    "Recovered": 0,
    "Active": 2017,
    "Combined_Key": "Ada, Idaho, US",
    "Incidence_Rate": 423.5994742382997,
    "Case-Fatality_Ratio": 1.12745098
  },
  {
    "FIPS": 19001,
    "County": "Adair",
    "Province_State": "Iowa",
    "Country_Region": "US",
    "Last_Update": "2020-06-30 04:33:48",
    "Latitude": 41.33075609,
    "Longitude": -94.47105874,
    "Confirmed": 15,
    "Deaths": 0,
    "Recovered": 0,
    "Active": 15,
    "Combined_Key": "Adair, Iowa, US",
    "Incidence_Rate": 209.7315436241611,
    "Case-Fatality_Ratio": 0
  },
  {
    "FIPS": 21001,
    "County": "Adair",
    "Province_State": "Kentucky",
    "Country_Region": "US",
    "Last_Update": "2020-06-30 04:33:48",
    "Latitude": 37.10459774,
    "Longitude": -85.28129668,
    "Confirmed": 115,
    "Deaths": 19,
    "Recovered": 0,
    "Active": 96,
    "Combined_Key": "Adair, Kentucky, US",
    "Incidence_Rate": 598.8959483387148,
    "Case-Fatality_Ratio": 16.52173913
  },
  {
    "FIPS": 29001,
    "County": "Adair",
    "Province_State": "Missouri",
    "Country_Region": "US",
    "Last_Update": "2020-06-30 04:33:48",
    "Latitude": 40.19058551,
    "Longitude": -92.60078167,
    "Confirmed": 90,
    "Deaths": 0,
    "Recovered": 0,
    "Active": 90,
    "Combined_Key": "Adair, Missouri, US",
    "Incidence_Rate": 355.12764866037963,
    "Case-Fatality_Ratio": 0
  },
  {
    "FIPS": 40001,
    "County": "Adair",
    "Province_State": "Oklahoma",
    "Country_Region": "US",
    "Last_Update": "2020-06-30 04:33:48",
    "Latitude": 35.88494195,
    "Longitude": -94.65859267,
    "Confirmed": 114,
    "Deaths": 4,
    "Recovered": 0,
    "Active": 110,
    "Combined_Key": "Adair, Oklahoma, US",
    "Incidence_Rate": 513.6523384698568,
    "Case-Fatality_Ratio": 3.50877193
  },
  {
    "FIPS": 8001,
    "County": "Adams",
    "Province_State": "Colorado",
    "Country_Region": "US",
    "Last_Update": "2020-06-30 04:33:48",
    "Latitude": 39.87432092,
    "Longitude": -104.3362578,
    "Confirmed": 4170,
    "Deaths": 155,
    "Recovered": 0,
    "Active": 4015,
    "Combined_Key": "Adams, Colorado, US",
    "Incidence_Rate": 805.9201308025766,
    "Case-Fatality_Ratio": 3.717026379
  },
  {
    "FIPS": 16003,
    "County": "Adams",
    "Province_State": "Idaho",
    "Country_Region": "US",
    "Last_Update": "2020-06-30 04:33:48",
    "Latitude": 44.89333571,
    "Longitude": -116.4545247,
    "Confirmed": 10,
    "Deaths": 0,
    "Recovered": 0,
    "Active": 10,
    "Combined_Key": "Adams, Idaho, US",
    "Incidence_Rate": 232.8830926874709,
    "Case-Fatality_Ratio": 0
  },
  {
    "FIPS": 17001,
    "County": "Adams",
    "Province_State": "Illinois",
    "Country_Region": "US",
    "Last_Update": "2020-06-30 04:33:48",
    "Latitude": 39.98815591,
    "Longitude": -91.18786813,
    "Confirmed": 88,
    "Deaths": 1,
    "Recovered": 0,
    "Active": 87,
    "Combined_Key": "Adams, Illinois, US",
    "Incidence_Rate": 134.48460304118592,
    "Case-Fatality_Ratio": 1.136363636
  },
  {
    "FIPS": 18001,
    "County": "Adams",
    "Province_State": "Indiana",
    "Country_Region": "US",
    "Last_Update": "2020-06-30 04:33:48",
    "Latitude": 40.7457653,
    "Longitude": -84.93671406,
    "Confirmed": 45,
    "Deaths": 1,
    "Recovered": 0,
    "Active": 44,
    "Combined_Key": "Adams, Indiana, US",
    "Incidence_Rate": 125.77913184448109,
    "Case-Fatality_Ratio": 2.222222222
  },
  {
    "FIPS": 19003,
    "County": "Adams",
    "Province_State": "Iowa",
    "Country_Region": "US",
    "Last_Update": "2020-06-30 04:33:48",
    "Latitude": 41.02903567,
    "Longitude": -94.69932645,
    "Confirmed": 8,
    "Deaths": 0,
    "Recovered": 0,
    "Active": 8,
    "Combined_Key": "Adams, Iowa, US",
    "Incidence_Rate": 222.0988339811216,
    "Case-Fatality_Ratio": 0
  },
  {
    "FIPS": 28001,
    "County": "Adams",
    "Province_State": "Mississippi",
    "Country_Region": "US",
    "Last_Update": "2020-06-30 04:33:48",
    "Latitude": 31.47669768,
    "Longitude": -91.35326037,
    "Confirmed": 253,
    "Deaths": 18,
    "Recovered": 0,
    "Active": 235,
    "Combined_Key": "Adams, Mississippi, US",
    "Incidence_Rate": 824.2921838855765,
    "Case-Fatality_Ratio": 7.114624506
  },
  {
    "FIPS": 31001,
    "County": "Adams",
    "Province_State": "Nebraska",
    "Country_Region": "US",
    "Last_Update": "2020-06-30 04:33:48",
    "Latitude": 40.52449420000001,
    "Longitude": -98.50117804,
    "Confirmed": 292,
    "Deaths": 11,
    "Recovered": 0,
    "Active": 281,
    "Combined_Key": "Adams, Nebraska, US",
    "Incidence_Rate": 931.0333832860376,
    "Case-Fatality_Ratio": 3.767123288
  },
  {
    "FIPS": 39001,
    "County": "Adams",
    "Province_State": "Ohio",
    "Country_Region": "US",
    "Last_Update": "2020-06-30 04:33:48",
    "Latitude": 38.84541072,
    "Longitude": -83.4718964,
    "Confirmed": 21,
    "Deaths": 1,
    "Recovered": 0,
    "Active": 20,
    "Combined_Key": "Adams, Ohio, US",
    "Incidence_Rate": 75.81774857390425,
    "Case-Fatality_Ratio": 4.761904762
  },
  {
    "FIPS": 42001,
    "County": "Adams",
    "Province_State": "Pennsylvania",
    "Country_Region": "US",
    "Last_Update": "2020-06-30 04:33:48",
    "Latitude": 39.87140411,
    "Longitude": -77.21610347,
    "Confirmed": 332,
    "Deaths": 12,
    "Recovered": 0,
    "Active": 320,
    "Combined_Key": "Adams, Pennsylvania, US",
    "Incidence_Rate": 322.30193478239767,
    "Case-Fatality_Ratio": 3.614457831
  },
  {
    "FIPS": 53001,
    "County": "Adams",
    "Province_State": "Washington",
    "Country_Region": "US",
    "Last_Update": "2020-06-30 04:33:48",
    "Latitude": 46.98299757,
    "Longitude": -118.56017340000001,
    "Confirmed": 130,
    "Deaths": 0,
    "Recovered": 0,
    "Active": 130,
    "Combined_Key": "Adams, Washington, US",
    "Incidence_Rate": 650.5529700245207,
    "Case-Fatality_Ratio": 0
  },
  {
    "FIPS": 55001,
    "County": "Adams",
    "Province_State": "Wisconsin",
    "Country_Region": "US",
    "Last_Update": "2020-06-30 04:33:48",
    "Latitude": 43.96974651,
    "Longitude": -89.76782777,
    "Confirmed": 19,
    "Deaths": 2,
    "Recovered": 0,
    "Active": 17,
    "Combined_Key": "Adams, Wisconsin, US",
    "Incidence_Rate": 93.96636993076163,
    "Case-Fatality_Ratio": 10.52631579
  },
  {
    "FIPS": 50001,
    "County": "Addison",
    "Province_State": "Vermont",
    "Country_Region": "US",
    "Last_Update": "2020-06-30 04:33:48",
    "Latitude": 44.03217337,
    "Longitude": -73.14130877,
    "Confirmed": 68,
    "Deaths": 2,
    "Recovered": 0,
    "Active": 66,
    "Combined_Key": "Addison, Vermont, US",
    "Incidence_Rate": 184.8981700519346,
    "Case-Fatality_Ratio": 2.941176471
  },
  {
    "FIPS": 45003,
    "County": "Aiken",
    "Province_State": "South Carolina",
    "Country_Region": "US",
    "Last_Update": "2020-06-30 04:33:48",
    "Latitude": 33.54338026,
    "Longitude": -81.63645384,
    "Confirmed": 358,
    "Deaths": 9,
    "Recovered": 0,
    "Active": 349,
    "Combined_Key": "Aiken, South Carolina, US",
    "Incidence_Rate": 209.51355400533728,
    "Case-Fatality_Ratio": 2.51396648
  },
  {
    "FIPS": 27001,
    "County": "Aitkin",
    "Province_State": "Minnesota",
    "Country_Region": "US",
    "Last_Update": "2020-06-30 04:33:48",
    "Latitude": 46.60962049,
    "Longitude": -93.41168259999999,
    "Confirmed": 13,
    "Deaths": 0,
    "Recovered": 0,
    "Active": 13,
    "Combined_Key": "Aitkin, Minnesota, US",
    "Incidence_Rate": 81.83306055646482,
    "Case-Fatality_Ratio": 0
  },
  {
    "FIPS": 12001,
    "County": "Alachua",
    "Province_State": "Florida",
    "Country_Region": "US",
    "Last_Update": "2020-06-30 04:33:48",
    "Latitude": 29.67866525,
    "Longitude": -82.35928158,
    "Confirmed": 1159,
    "Deaths": 12,
    "Recovered": 0,
    "Active": 1147,
    "Combined_Key": "Alachua, Florida, US",
    "Incidence_Rate": 430.7861568596841,
    "Case-Fatality_Ratio": 1.035375324
  },
  {
    "FIPS": 37001,
    "County": "Alamance",
    "Province_State": "North Carolina",
    "Country_Region": "US",
    "Last_Update": "2020-06-30 04:33:48",
    "Latitude": 36.0434701,
    "Longitude": -79.39976137,
    "Confirmed": 1114,
    "Deaths": 37,
    "Recovered": 0,
    "Active": 1077,
    "Combined_Key": "Alamance, North Carolina, US",
    "Incidence_Rate": 657.1922434796973,
    "Case-Fatality_Ratio": 3.321364452
  },
  {
    "FIPS": 6001,
    "County": "Alameda",
    "Province_State": "California",
    "Country_Region": "US",
    "Last_Update": "2020-06-30 04:33:48",
    "Latitude": 37.64629437,
    "Longitude": -121.8929271,
    "Confirmed": 5762,
    "Deaths": 133,
    "Recovered": 0,
    "Active": 5629,
    "Combined_Key": "Alameda, California, US",
    "Incidence_Rate": 344.7555807384423,
    "Case-Fatality_Ratio": 2.30822631
  },
  {
    "FIPS": 8003,
    "County": "Alamosa",
    "Province_State": "Colorado",
    "Country_Region": "US",
    "Last_Update": "2020-06-30 04:33:48",
    "Latitude": 37.57250606,
    "Longitude": -105.7885451,
    "Confirmed": 188,
    "Deaths": 3,
    "Recovered": 0,
    "Active": 185,
    "Combined_Key": "Alamosa, Colorado, US",
    "Incidence_Rate": 1158.1346639561384,
    "Case-Fatality_Ratio": 1.595744681
  },
  {
    "FIPS": 36001,
    "County": "Albany",
    "Province_State": "New York",
    "Country_Region": "US",
    "Last_Update": "2020-06-30 04:33:48",
    "Latitude": 42.60060306,
    "Longitude": -73.97723916,
    "Confirmed": 2099,
    "Deaths": 121,
    "Recovered": 0,
    "Active": 1978,
    "Combined_Key": "Albany, New York, US",
    "Incidence_Rate": 687.0568826798819,
    "Case-Fatality_Ratio": 5.764649833
  },
  {
    "FIPS": 56001,
    "County": "Albany",
    "Province_State": "Wyoming",
    "Country_Region": "US",
    "Last_Update": "2020-06-30 04:33:48",
    "Latitude": 41.65498705,
    "Longitude": -105.72354150000001,
    "Confirmed": 34,
    "Deaths": 0,
    "Recovered": 0,
    "Active": 34,
    "Combined_Key": "Albany, Wyoming, US",
    "Incidence_Rate": 87.4485596707819,
    "Case-Fatality_Ratio": 0
  },
  {
    "FIPS": 51003,
    "County": "Albemarle",
    "Province_State": "Virginia",
    "Country_Region": "US",
    "Last_Update": "2020-06-30 04:33:48",
    "Latitude": 38.02080697,
    "Longitude": -78.55481085,
    "Confirmed": 394,
    "Deaths": 8,
    "Recovered": 0,
    "Active": 386,
    "Combined_Key": "Albemarle, Virginia, US",
    "Incidence_Rate": 360.3768407573402,
    "Case-Fatality_Ratio": 2.030456853
  },
  {
    "FIPS": 26001,
    "County": "Alcona",
    "Province_State": "Michigan",
    "Country_Region": "US",
    "Last_Update": "2020-06-30 04:33:48",
    "Latitude": 44.6846864,
    "Longitude": -83.59507875,
    "Confirmed": 21,
    "Deaths": 1,
    "Recovered": 0,
    "Active": 20,
    "Combined_Key": "Alcona, Michigan, US",
    "Incidence_Rate": 201.8260451705911,
    "Case-Fatality_Ratio": 4.761904762
  },
  {
    "FIPS": 28003,
    "County": "Alcorn",
    "Province_State": "Mississippi",
    "Country_Region": "US",
    "Last_Update": "2020-06-30 04:33:48",
    "Latitude": 34.88084463,
    "Longitude": -88.57996173,
    "Confirmed": 53,
    "Deaths": 1,
    "Recovered": 0,
    "Active": 52,
    "Combined_Key": "Alcorn, Mississippi, US",
    "Incidence_Rate": 143.4254323059021,
    "Case-Fatality_Ratio": 1.886792453
  },
  {
    "FIPS": 17003,
    "County": "Alexander",
    "Province_State": "Illinois",
    "Country_Region": "US",
    "Last_Update": "2020-06-30 04:33:48",
    "Latitude": 37.18049267,
    "Longitude": -89.32910838,
    "Confirmed": 22,
    "Deaths": 0,
    "Recovered": 0,
    "Active": 22,
    "Combined_Key": "Alexander, Illinois, US",
    "Incidence_Rate": 381.87814615518135,
    "Case-Fatality_Ratio": 0
  },
  {
    "FIPS": 37003,
    "County": "Alexander",
    "Province_State": "North Carolina",
    "Country_Region": "US",
    "Last_Update": "2020-06-30 04:33:48",
    "Latitude": 35.922379600000006,
    "Longitude": -81.17751948,
    "Confirmed": 88,
    "Deaths": 0,
    "Recovered": 0,
    "Active": 88,
    "Combined_Key": "Alexander, North Carolina, US",
    "Incidence_Rate": 234.68544150198682,
    "Case-Fatality_Ratio": 0
  },
  {
    "FIPS": 51510,
    "County": "Alexandria",
    "Province_State": "Virginia",
    "Country_Region": "US",
    "Last_Update": "2020-06-30 04:33:48",
    "Latitude": 38.814003,
    "Longitude": -77.08183073,
    "Confirmed": 2317,
    "Deaths": 57,
    "Recovered": 0,
    "Active": 2260,
    "Combined_Key": "Alexandria, Virginia, US",
    "Incidence_Rate": 1453.3206212208645,
    "Case-Fatality_Ratio": 2.460077687
  },
  {
    "FIPS": 40003,
    "County": "Alfalfa",
    "Province_State": "Oklahoma",
    "Country_Region": "US",
    "Last_Update": "2020-06-30 04:33:48",
    "Latitude": 36.73090616,
    "Longitude": -98.32408495,
    "Confirmed": 1,
    "Deaths": 0,
    "Recovered": 0,
    "Active": 1,
    "Combined_Key": "Alfalfa, Oklahoma, US",
    "Incidence_Rate": 17.5377060680463,
    "Case-Fatality_Ratio": 0
  },
  {
    "FIPS": 26003,
    "County": "Alger",
    "Province_State": "Michigan",
    "Country_Region": "US",
    "Last_Update": "2020-06-30 04:33:48",
    "Latitude": 46.41292944,
    "Longitude": -86.60260122,
    "Confirmed": 3,
    "Deaths": 0,
    "Recovered": 0,
    "Active": 3,
    "Combined_Key": "Alger, Michigan, US",
    "Incidence_Rate": 32.93807641633729,
    "Case-Fatality_Ratio": 0
  },
  {
    "FIPS": 19005,
    "County": "Allamakee",
    "Province_State": "Iowa",
    "Country_Region": "US",
    "Last_Update": "2020-06-30 04:33:48",
    "Latitude": 43.28383218,
    "Longitude": -91.37860922,
    "Confirmed": 123,
    "Deaths": 4,
    "Recovered": 0,
    "Active": 119,
    "Combined_Key": "Allamakee, Iowa, US",
    "Incidence_Rate": 898.6629648571637,
    "Case-Fatality_Ratio": 3.25203252
  },
  {
    "FIPS": 26005,
    "County": "Allegan",
    "Province_State": "Michigan",
    "Country_Region": "US",
    "Last_Update": "2020-06-30 04:33:48",
    "Latitude": 42.59147037,
    "Longitude": -85.89102866,
    "Confirmed": 308,
    "Deaths": 6,
    "Recovered": 0,
    "Active": 302,
    "Combined_Key": "Allegan, Michigan, US",
    "Incidence_Rate": 260.8378994080335,
    "Case-Fatality_Ratio": 1.948051948
  },
  {
    "FIPS": 24001,
    "County": "Allegany",
    "Province_State": "Maryland",
    "Country_Region": "US",
    "Last_Update": "2020-06-30 04:33:48",
    "Latitude": 39.62357628,
    "Longitude": -78.69280486,
    "Confirmed": 204,
    "Deaths": 17,
    "Recovered": 0,
    "Active": 187,
    "Combined_Key": "Allegany, Maryland, US",
    "Incidence_Rate": 289.70688479890936,
    "Case-Fatality_Ratio": 8.333333333
  },
  {
    "FIPS": 36003,
    "County": "Allegany",
    "Province_State": "New York",
    "Country_Region": "US",
    "Last_Update": "2020-06-30 04:33:48",
    "Latitude": 42.25748406,
    "Longitude": -78.02750466,
    "Confirmed": 59,
    "Deaths": 0,
    "Recovered": 0,
    "Active": 59,
    "Combined_Key": "Allegany, New York, US",
    "Incidence_Rate": 128.0076370658046,
    "Case-Fatality_Ratio": 0
  },
  {
    "FIPS": 37005,
    "County": "Alleghany",
    "Province_State": "North Carolina",
    "Country_Region": "US",
    "Last_Update": "2020-06-30 04:33:48",
    "Latitude": 36.49360862,
    "Longitude": -81.12857041,
    "Confirmed": 31,
    "Deaths": 0,
    "Recovered": 0,
    "Active": 31,
    "Combined_Key": "Alleghany, North Carolina, US",
    "Incidence_Rate": 278.3514411421388,
    "Case-Fatality_Ratio": 0
  },
  {
    "FIPS": 51005,
    "County": "Alleghany",
    "Province_State": "Virginia",
    "Country_Region": "US",
    "Last_Update": "2020-06-30 04:33:48",
    "Latitude": 37.78636074,
    "Longitude": -80.00222498,
    "Confirmed": 31,
    "Deaths": 2,
    "Recovered": 0,
    "Active": 29,
    "Combined_Key": "Alleghany, Virginia, US",
    "Incidence_Rate": 208.6137281292059,
    "Case-Fatality_Ratio": 6.451612903
  },
  {
    "FIPS": 42003,
    "County": "Allegheny",
    "Province_State": "Pennsylvania",
    "Country_Region": "US",
    "Last_Update": "2020-06-30 04:33:48",
    "Latitude": 40.46809875,
    "Longitude": -79.98167747,
    "Confirmed": 2651,
    "Deaths": 183,
    "Recovered": 0,
    "Active": 2468,
    "Combined_Key": "Allegheny, Pennsylvania, US",
    "Incidence_Rate": 218.00180092019627,
    "Case-Fatality_Ratio": 6.903055451
  },
  {
    "FIPS": 18003,
    "County": "Allen",
    "Province_State": "Indiana",
    "Country_Region": "US",
    "Last_Update": "2020-06-30 04:33:48",
    "Latitude": 41.09194313,
    "Longitude": -85.06800636,
    "Confirmed": 2621,
    "Deaths": 106,
    "Recovered": 0,
    "Active": 2515,
    "Combined_Key": "Allen, Indiana, US",
    "Incidence_Rate": 691.0115766189734,
    "Case-Fatality_Ratio": 4.044257917
  },
  {
    "FIPS": 20001,
    "County": "Allen",
    "Province_State": "Kansas",
    "Country_Region": "US",
    "Last_Update": "2020-06-30 04:33:48",
    "Latitude": 37.88582951,
    "Longitude": -95.30030847,
    "Confirmed": 4,
    "Deaths": 0,
    "Recovered": 0,
    "Active": 4,
    "Combined_Key": "Allen, Kansas, US",
    "Incidence_Rate": 32.338911795618074,
    "Case-Fatality_Ratio": 0
  },
  {
    "FIPS": 21003,
    "County": "Allen",
    "Province_State": "Kentucky",
    "Country_Region": "US",
    "Last_Update": "2020-06-30 04:33:48",
    "Latitude": 36.75197631,
    "Longitude": -86.19457544,
    "Confirmed": 165,
    "Deaths": 5,
    "Recovered": 0,
    "Active": 160,
    "Combined_Key": "Allen, Kentucky, US",
    "Incidence_Rate": 774.1027445460942,
    "Case-Fatality_Ratio": 3.03030303
  },
  {
    "FIPS": 22003,
    "County": "Allen",
    "Province_State": "Louisiana",
    "Country_Region": "US",
    "Last_Update": "2020-06-30 04:33:48",
    "Latitude": 30.65385745,
    "Longitude": -92.82442028,
    "Confirmed": 287,
    "Deaths": 10,
    "Recovered": 0,
    "Active": 277,
    "Combined_Key": "Allen, Louisiana, US",
    "Incidence_Rate": 1119.9125921879267,
    "Case-Fatality_Ratio": 3.484320557
  },
  {
    "FIPS": 39003,
    "County": "Allen",
    "Province_State": "Ohio",
    "Country_Region": "US",
    "Last_Update": "2020-06-30 04:33:48",
    "Latitude": 40.77285242,
    "Longitude": -84.10802343,
    "Confirmed": 284,
    "Deaths": 38,
    "Recovered": 0,
    "Active": 246,
    "Combined_Key": "Allen, Ohio, US",
    "Incidence_Rate": 277.47652685367024,
    "Case-Fatality_Ratio": 13.38028169
  },
  {
    "FIPS": 45005,
    "County": "Allendale",
    "Province_State": "South Carolina",
    "Country_Region": "US",
    "Last_Update": "2020-06-30 04:33:48",
    "Latitude": 32.98837386,
    "Longitude": -81.35321066,
    "Confirmed": 48,
    "Deaths": 3,
    "Recovered": 0,
    "Active": 45,
    "Combined_Key": "Allendale, South Carolina, US",
    "Incidence_Rate": 552.4861878453039,
    "Case-Fatality_Ratio": 6.25
  },
  {
    "FIPS": 26007,
    "County": "Alpena",
    "Province_State": "Michigan",
    "Country_Region": "US",
    "Last_Update": "2020-06-30 04:33:48",
    "Latitude": 45.03477666,
    "Longitude": -83.62212411,
    "Confirmed": 119,
    "Deaths": 11,
    "Recovered": 0,
    "Active": 108,
    "Combined_Key": "Alpena, Michigan, US",
    "Incidence_Rate": 418.9403274071465,
    "Case-Fatality_Ratio": 9.243697479
  },
  {
    "FIPS": 6003,
    "County": "Alpine",
    "Province_State": "California",
    "Country_Region": "US",
    "Last_Update": "2020-06-30 04:33:48",
    "Latitude": 38.59678594,
    "Longitude": -119.82235940000001,
    "Confirmed": 2,
    "Deaths": 0,
    "Recovered": 0,
    "Active": 2,
    "Combined_Key": "Alpine, California, US",
    "Incidence_Rate": 177.14791851195747,
    "Case-Fatality_Ratio": 0
  },
  {
    "FIPS": 6005,
    "County": "Amador",
    "Province_State": "California",
    "Country_Region": "US",
    "Last_Update": "2020-06-30 04:33:48",
    "Latitude": 38.44583082,
    "Longitude": -120.65696000000001,
    "Confirmed": 22,
    "Deaths": 0,
    "Recovered": 0,
    "Active": 22,
    "Combined_Key": "Amador, California, US",
    "Incidence_Rate": 55.34312738981686,
    "Case-Fatality_Ratio": 0
  },
  {
    "FIPS": 51007,
    "County": "Amelia",
    "Province_State": "Virginia",
    "Country_Region": "US",
    "Last_Update": "2020-06-30 04:33:48",
    "Latitude": 37.34081025,
    "Longitude": -77.98584649,
    "Confirmed": 44,
    "Deaths": 1,
    "Recovered": 0,
    "Active": 43,
    "Combined_Key": "Amelia, Virginia, US",
    "Incidence_Rate": 334.72803347280336,
    "Case-Fatality_Ratio": 2.272727273
  },
  {
    "FIPS": 51009,
    "County": "Amherst",
    "Province_State": "Virginia",
    "Country_Region": "US",
    "Last_Update": "2020-06-30 04:33:48",
    "Latitude": 37.60308293,
    "Longitude": -79.14548696,
    "Confirmed": 35,
    "Deaths": 0,
    "Recovered": 0,
    "Active": 35,
    "Combined_Key": "Amherst, Virginia, US",
    "Incidence_Rate": 110.74197120708747,
    "Case-Fatality_Ratio": 0
  },
  {
    "FIPS": 28005,
    "County": "Amite",
    "Province_State": "Mississippi",
    "Country_Region": "US",
    "Last_Update": "2020-06-30 04:33:48",
    "Latitude": 31.17467303,
    "Longitude": -90.80501621,
    "Confirmed": 80,
    "Deaths": 2,
    "Recovered": 0,
    "Active": 78,
    "Combined_Key": "Amite, Mississippi, US",
    "Incidence_Rate": 650.5651784988207,
    "Case-Fatality_Ratio": 2.5
  },
  {
    "FIPS": 2020,
    "County": "Anchorage",
    "Province_State": "Alaska",
    "Country_Region": "US",
    "Last_Update": "2020-06-30 04:33:48",
    "Latitude": 61.14998174,
    "Longitude": -149.14269860000005,
    "Confirmed": 418,
    "Deaths": 6,
    "Recovered": 0,
    "Active": 412,
    "Combined_Key": "Anchorage, Alaska, US",
    "Incidence_Rate": 145.13888888888889,
    "Case-Fatality_Ratio": 1.435406699
  },
  {
    "FIPS": 20003,
    "County": "Anderson",
    "Province_State": "Kansas",
    "Country_Region": "US",
    "Last_Update": "2020-06-30 04:33:48",
    "Latitude": 38.21413251,
    "Longitude": -95.29272815,
    "Confirmed": 4,
    "Deaths": 0,
    "Recovered": 0,
    "Active": 4,
    "Combined_Key": "Anderson, Kansas, US",
    "Incidence_Rate": 50.903537795876815,
    "Case-Fatality_Ratio": 0
  },
  {
    "FIPS": 21005,
    "County": "Anderson",
    "Province_State": "Kentucky",
    "Country_Region": "US",
    "Last_Update": "2020-06-30 04:33:48",
    "Latitude": 38.00671029,
    "Longitude": -84.99171713,
    "Confirmed": 26,
    "Deaths": 1,
    "Recovered": 0,
    "Active": 25,
    "Combined_Key": "Anderson, Kentucky, US",
    "Incidence_Rate": 114.30078691695608,
    "Case-Fatality_Ratio": 3.846153846
  },
  {
    "FIPS": 45007,
    "County": "Anderson",
    "Province_State": "South Carolina",
    "Country_Region": "US",
    "Last_Update": "2020-06-30 04:33:48",
    "Latitude": 34.51828081,
    "Longitude": -82.63959517,
    "Confirmed": 578,
    "Deaths": 11,
    "Recovered": 0,
    "Active": 567,
    "Combined_Key": "Anderson, South Carolina, US",
    "Incidence_Rate": 285.35036878326207,
    "Case-Fatality_Ratio": 1.903114187
  },
  {
    "FIPS": 47001,
    "County": "Anderson",
    "Province_State": "Tennessee",
    "Country_Region": "US",
    "Last_Update": "2020-06-30 04:33:48",
    "Latitude": 36.12684348,
    "Longitude": -84.19965764,
    "Confirmed": 97,
    "Deaths": 2,
    "Recovered": 0,
    "Active": 95,
    "Combined_Key": "Anderson, Tennessee, US",
    "Incidence_Rate": 126.01002883940866,
    "Case-Fatality_Ratio": 2.06185567
  },
  {
    "FIPS": 48001,
    "County": "Anderson",
    "Province_State": "Texas",
    "Country_Region": "US",
    "Last_Update": "2020-06-30 04:33:48",
    "Latitude": 31.81534745,
    "Longitude": -95.65354823,
    "Confirmed": 1016,
    "Deaths": 2,
    "Recovered": 0,
    "Active": 1014,
    "Combined_Key": "Anderson, Texas, US",
    "Incidence_Rate": 1759.764440980341,
    "Case-Fatality_Ratio": 0.1968503937
  },
  {
    "FIPS": 29003,
    "County": "Andrew",
    "Province_State": "Missouri",
    "Country_Region": "US",
    "Last_Update": "2020-06-30 04:33:48",
    "Latitude": 39.98492163,
    "Longitude": -94.80163024,
    "Confirmed": 49,
    "Deaths": 0,
    "Recovered": 0,
    "Active": 49,
    "Combined_Key": "Andrew, Missouri, US",
    "Incidence_Rate": 276.64859981933154,
    "Case-Fatality_Ratio": 0
  },
  {
    "FIPS": 48003,
    "County": "Andrews",
    "Province_State": "Texas",
    "Country_Region": "US",
    "Last_Update": "2020-06-30 04:33:48",
    "Latitude": 32.30468633,
    "Longitude": -102.63765479999999,
    "Confirmed": 73,
    "Deaths": 0,
    "Recovered": 0,
    "Active": 73,
    "Combined_Key": "Andrews, Texas, US",
    "Incidence_Rate": 390.2699812884255,
    "Case-Fatality_Ratio": 0
  },
  {
    "FIPS": 23001,
    "County": "Androscoggin",
    "Province_State": "Maine",
    "Country_Region": "US",
    "Last_Update": "2020-06-30 04:33:48",
    "Latitude": 44.1664747,
    "Longitude": -70.20380627,
    "Confirmed": 476,
    "Deaths": 4,
    "Recovered": 0,
    "Active": 472,
    "Combined_Key": "Androscoggin, Maine, US",
    "Incidence_Rate": 439.6132142560285,
    "Case-Fatality_Ratio": 0.8403361345
  },
  {
    "FIPS": 48005,
    "County": "Angelina",
    "Province_State": "Texas",
    "Country_Region": "US",
    "Last_Update": "2020-06-30 04:33:48",
    "Latitude": 31.25457347,
    "Longitude": -94.60901487,
    "Confirmed": 464,
    "Deaths": 6,
    "Recovered": 0,
    "Active": 458,
    "Combined_Key": "Angelina, Texas, US",
    "Incidence_Rate": 535.0862019258492,
    "Case-Fatality_Ratio": 1.293103448
  },
  {
    "FIPS": 24003,
    "County": "Anne Arundel",
    "Province_State": "Maryland",
    "Country_Region": "US",
    "Last_Update": "2020-06-30 04:33:48",
    "Latitude": 39.00670238,
    "Longitude": -76.60329337,
    "Confirmed": 5092,
    "Deaths": 207,
    "Recovered": 0,
    "Active": 4885,
    "Combined_Key": "Anne Arundel, Maryland, US",
    "Incidence_Rate": 879.0920422489012,
    "Case-Fatality_Ratio": 4.065200314
  },
  {
    "FIPS": 27003,
    "County": "Anoka",
    "Province_State": "Minnesota",
    "Country_Region": "US",
    "Last_Update": "2020-06-30 04:33:48",
    "Latitude": 45.27476015,
    "Longitude": -93.24604565,
    "Confirmed": 2076,
    "Deaths": 107,
    "Recovered": 0,
    "Active": 1969,
    "Combined_Key": "Anoka, Minnesota, US",
    "Incidence_Rate": 581.6413155852415,
    "Case-Fatality_Ratio": 5.154142582
  },
  {
    "FIPS": 37007,
    "County": "Anson",
    "Province_State": "North Carolina",
    "Country_Region": "US",
    "Last_Update": "2020-06-30 04:33:48",
    "Latitude": 34.97403241,
    "Longitude": -80.09953279,
    "Confirmed": 126,
    "Deaths": 2,
    "Recovered": 0,
    "Active": 124,
    "Combined_Key": "Anson, North Carolina, US",
    "Incidence_Rate": 515.4217458888978,
    "Case-Fatality_Ratio": 1.587301587
  },
  {
    "FIPS": 31003,
    "County": "Antelope",
    "Province_State": "Nebraska",
    "Country_Region": "US",
    "Last_Update": "2020-06-30 04:33:48",
    "Latitude": 42.17695516,
    "Longitude": -98.06662829999999,
    "Confirmed": 9,
    "Deaths": 1,
    "Recovered": 0,
    "Active": 8,
    "Combined_Key": "Antelope, Nebraska, US",
    "Incidence_Rate": 142.9025087329311,
    "Case-Fatality_Ratio": 11.11111111
  },
  {
    "FIPS": 26009,
    "County": "Antrim",
    "Province_State": "Michigan",
    "Country_Region": "US",
    "Last_Update": "2020-06-30 04:33:48",
    "Latitude": 44.99690221,
    "Longitude": -85.15503082,
    "Confirmed": 18,
    "Deaths": 0,
    "Recovered": 0,
    "Active": 18,
    "Combined_Key": "Antrim, Michigan, US",
    "Incidence_Rate": 77.17372663351055,
    "Case-Fatality_Ratio": 0
  },
  {
    "FIPS": 4001,
    "County": "Apache",
    "Province_State": "Arizona",
    "Country_Region": "US",
    "Last_Update": "2020-06-30 04:33:48",
    "Latitude": 35.39465006,
    "Longitude": -109.4892383,
    "Confirmed": 2309,
    "Deaths": 85,
    "Recovered": 0,
    "Active": 2224,
    "Combined_Key": "Apache, Arizona, US",
    "Incidence_Rate": 3211.985477207284,
    "Case-Fatality_Ratio": 3.681247293
  },
  {
    "FIPS": 19007,
    "County": "Appanoose",
    "Province_State": "Iowa",
    "Country_Region": "US",
    "Last_Update": "2020-06-30 04:33:48",
    "Latitude": 40.74324454,
    "Longitude": -92.86865906,
    "Confirmed": 20,
    "Deaths": 3,
    "Recovered": 0,
    "Active": 17,
    "Combined_Key": "Appanoose, Iowa, US",
    "Incidence_Rate": 160.95284081764044,
    "Case-Fatality_Ratio": 15
  },
  {
    "FIPS": 13001,
    "County": "Appling",
    "Province_State": "Georgia",
    "Country_Region": "US",
    "Last_Update": "2020-06-30 04:33:48",
    "Latitude": 31.74847232,
    "Longitude": -82.28909114,
    "Confirmed": 256,
    "Deaths": 14,
    "Recovered": 0,
    "Active": 242,
    "Combined_Key": "Appling, Georgia, US",
    "Incidence_Rate": 1392.3637550310018,
    "Case-Fatality_Ratio": 5.46875
  },
  {
    "FIPS": 51011,
    "County": "Appomattox",
    "Province_State": "Virginia",
    "Country_Region": "US",
    "Last_Update": "2020-06-30 04:33:48",
    "Latitude": 37.37569884,
    "Longitude": -78.81340003,
    "Confirmed": 39,
    "Deaths": 0,
    "Recovered": 0,
    "Active": 39,
    "Combined_Key": "Appomattox, Virginia, US",
    "Incidence_Rate": 245.1134435296336,
    "Case-Fatality_Ratio": 0
  },
  {
    "FIPS": 48007,
    "County": "Aransas",
    "Province_State": "Texas",
    "Country_Region": "US",
    "Last_Update": "2020-06-30 04:33:48",
    "Latitude": 28.10556197,
    "Longitude": -96.9995047,
    "Confirmed": 20,
    "Deaths": 0,
    "Recovered": 0,
    "Active": 20,
    "Combined_Key": "Aransas, Texas, US",
    "Incidence_Rate": 85.07018290089323,
    "Case-Fatality_Ratio": 0
  },
  {
    "FIPS": 8005,
    "County": "Arapahoe",
    "Province_State": "Colorado",
    "Country_Region": "US",
    "Last_Update": "2020-06-30 04:33:48",
    "Latitude": 39.64977461,
    "Longitude": -104.3353617,
    "Confirmed": 5172,
    "Deaths": 343,
    "Recovered": 0,
    "Active": 4829,
    "Combined_Key": "Arapahoe, Colorado, US",
    "Incidence_Rate": 787.7061788939825,
    "Case-Fatality_Ratio": 6.631863882
  },
  {
    "FIPS": 48009,
    "County": "Archer",
    "Province_State": "Texas",
    "Country_Region": "US",
    "Last_Update": "2020-06-30 04:33:48",
    "Latitude": 33.61569967,
    "Longitude": -98.68754589,
    "Confirmed": 6,
    "Deaths": 0,
    "Recovered": 0,
    "Active": 6,
    "Combined_Key": "Archer, Texas, US",
    "Incidence_Rate": 70.1508242721852,
    "Case-Fatality_Ratio": 0
  },
  {
    "FIPS": 8007,
    "County": "Archuleta",
    "Province_State": "Colorado",
    "Country_Region": "US",
    "Last_Update": "2020-06-30 04:33:48",
    "Latitude": 37.19474156,
    "Longitude": -107.0476867,
    "Confirmed": 8,
    "Deaths": 0,
    "Recovered": 0,
    "Active": 8,
    "Combined_Key": "Archuleta, Colorado, US",
    "Incidence_Rate": 57.02473447858009,
    "Case-Fatality_Ratio": 0
  },
  {
    "FIPS": 26011,
    "County": "Arenac",
    "Province_State": "Michigan",
    "Country_Region": "US",
    "Last_Update": "2020-06-30 04:33:48",
    "Latitude": 44.0636262,
    "Longitude": -83.89277559,
    "Confirmed": 38,
    "Deaths": 2,
    "Recovered": 0,
    "Active": 36,
    "Combined_Key": "Arenac, Michigan, US",
    "Incidence_Rate": 255.32486729825973,
    "Case-Fatality_Ratio": 5.263157895
  },
  {
    "FIPS": 5001,
    "County": "Arkansas",
    "Province_State": "Arkansas",
    "Country_Region": "US",
    "Last_Update": "2020-06-30 04:33:48",
    "Latitude": 34.29145151,
    "Longitude": -91.37277296,
    "Confirmed": 28,
    "Deaths": 0,
    "Recovered": 0,
    "Active": 28,
    "Combined_Key": "Arkansas, Arkansas, US",
    "Incidence_Rate": 160.1281024819856,
    "Case-Fatality_Ratio": 0
  },
  {
    "FIPS": 51013,
    "County": "Arlington",
    "Province_State": "Virginia",
    "Country_Region": "US",
    "Last_Update": "2020-06-30 04:33:48",
    "Latitude": 38.8767675,
    "Longitude": -77.10139853,
    "Confirmed": 2466,
    "Deaths": 132,
    "Recovered": 0,
    "Active": 2334,
    "Combined_Key": "Arlington, Virginia, US",
    "Incidence_Rate": 1041.2004627557612,
    "Case-Fatality_Ratio": 5.352798054
  },
  {
    "FIPS": 42005,
    "County": "Armstrong",
    "Province_State": "Pennsylvania",
    "Country_Region": "US",
    "Last_Update": "2020-06-30 04:33:48",
    "Latitude": 40.81665618,
    "Longitude": -79.46290811,
    "Confirmed": 73,
    "Deaths": 6,
    "Recovered": 0,
    "Active": 67,
    "Combined_Key": "Armstrong, Pennsylvania, US",
    "Incidence_Rate": 112.76743647176953,
    "Case-Fatality_Ratio": 8.219178082
  },
  {
    "FIPS": 48011,
    "County": "Armstrong",
    "Province_State": "Texas",
    "Country_Region": "US",
    "Last_Update": "2020-06-30 04:33:48",
    "Latitude": 34.96507426,
    "Longitude": -101.35748740000001,
    "Confirmed": 3,
    "Deaths": 0,
    "Recovered": 0,
    "Active": 3,
    "Combined_Key": "Armstrong, Texas, US",
    "Incidence_Rate": 158.9825119236884,
    "Case-Fatality_Ratio": 0
  },
  {
    "FIPS": 23003,
    "County": "Aroostook",
    "Province_State": "Maine",
    "Country_Region": "US",
    "Last_Update": "2020-06-30 04:33:48",
    "Latitude": 46.65926321,
    "Longitude": -68.59841248,
    "Confirmed": 22,
    "Deaths": 1,
    "Recovered": 0,
    "Active": 21,
    "Combined_Key": "Aroostook, Maine, US",
    "Incidence_Rate": 32.808888226083056,
    "Case-Fatality_Ratio": 4.545454545
  },
  {
    "FIPS": 31005,
    "County": "Arthur",
    "Province_State": "Nebraska",
    "Country_Region": "US",
    "Last_Update": "2020-06-30 04:33:48",
    "Latitude": 41.56896142,
    "Longitude": -101.6959559,
    "Confirmed": 0,
    "Deaths": 0,
    "Recovered": 0,
    "Active": 0,
    "Combined_Key": "Arthur, Nebraska, US",
    "Incidence_Rate": 0,
    "Case-Fatality_Ratio": 0
  },
  {
    "FIPS": 22005,
    "County": "Ascension",
    "Province_State": "Louisiana",
    "Country_Region": "US",
    "Last_Update": "2020-06-30 04:33:48",
    "Latitude": 30.20406249,
    "Longitude": -90.91328409999998,
    "Confirmed": 1157,
    "Deaths": 58,
    "Recovered": 0,
    "Active": 1099,
    "Combined_Key": "Ascension, Louisiana, US",
    "Incidence_Rate": 913.8731793624214,
    "Case-Fatality_Ratio": 5.012964564
  },
  {
    "FIPS": 37009,
    "County": "Ashe",
    "Province_State": "North Carolina",
    "Country_Region": "US",
    "Last_Update": "2020-06-30 04:33:48",
    "Latitude": 36.43296207,
    "Longitude": -81.49862729,
    "Confirmed": 52,
    "Deaths": 1,
    "Recovered": 0,
    "Active": 51,
    "Combined_Key": "Ashe, North Carolina, US",
    "Incidence_Rate": 191.15538727346248,
    "Case-Fatality_Ratio": 1.923076923
  },
  {
    "FIPS": 39005,
    "County": "Ashland",
    "Province_State": "Ohio",
    "Country_Region": "US",
    "Last_Update": "2020-06-30 04:33:48",
    "Latitude": 40.84772277,
    "Longitude": -82.27280781,
    "Confirmed": 51,
    "Deaths": 1,
    "Recovered": 0,
    "Active": 50,
    "Combined_Key": "Ashland, Ohio, US",
    "Incidence_Rate": 95.35562037244786,
    "Case-Fatality_Ratio": 1.960784314
  },
  {
    "FIPS": 55003,
    "County": "Ashland",
    "Province_State": "Wisconsin",
    "Country_Region": "US",
    "Last_Update": "2020-06-30 04:33:48",
    "Latitude": 46.31956891,
    "Longitude": -90.67837132,
    "Confirmed": 3,
    "Deaths": 0,
    "Recovered": 0,
    "Active": 3,
    "Combined_Key": "Ashland, Wisconsin, US",
    "Incidence_Rate": 19.27772779848349,
    "Case-Fatality_Ratio": 0
  },
  {
    "FIPS": 5003,
    "County": "Ashley",
    "Province_State": "Arkansas",
    "Country_Region": "US",
    "Last_Update": "2020-06-30 04:33:48",
    "Latitude": 33.19153461,
    "Longitude": -91.76984709999999,
    "Confirmed": 70,
    "Deaths": 1,
    "Recovered": 0,
    "Active": 69,
    "Combined_Key": "Ashley, Arkansas, US",
    "Incidence_Rate": 356.1072391514473,
    "Case-Fatality_Ratio": 1.428571429
  },
  {
    "FIPS": 39007,
    "County": "Ashtabula",
    "Province_State": "Ohio",
    "Country_Region": "US",
    "Last_Update": "2020-06-30 04:33:48",
    "Latitude": 41.70860332,
    "Longitude": -80.74830218,
    "Confirmed": 419,
    "Deaths": 43,
    "Recovered": 0,
    "Active": 376,
    "Combined_Key": "Ashtabula, Ohio, US",
    "Incidence_Rate": 430.8882055922914,
    "Case-Fatality_Ratio": 10.26252983
  },
  {
    "FIPS": 53003,
    "County": "Asotin",
    "Province_State": "Washington",
    "Country_Region": "US",
    "Last_Update": "2020-06-30 04:33:48",
    "Latitude": 46.18894415,
    "Longitude": -117.2022851,
    "Confirmed": 21,
    "Deaths": 2,
    "Recovered": 0,
    "Active": 19,
    "Combined_Key": "Asotin, Washington, US",
    "Incidence_Rate": 92.99442033477993,
    "Case-Fatality_Ratio": 9.523809524
  },
  {
    "FIPS": 22007,
    "County": "Assumption",
    "Province_State": "Louisiana",
    "Country_Region": "US",
    "Last_Update": "2020-06-30 04:33:48",
    "Latitude": 29.89946234,
    "Longitude": -91.06461642,
    "Confirmed": 351,
    "Deaths": 14,
    "Recovered": 0,
    "Active": 337,
    "Combined_Key": "Assumption, Louisiana, US",
    "Incidence_Rate": 1603.3986569823214,
    "Case-Fatality_Ratio": 3.988603989
  },
  {
    "FIPS": 48013,
    "County": "Atascosa",
    "Province_State": "Texas",
    "Country_Region": "US",
    "Last_Update": "2020-06-30 04:33:48",
    "Latitude": 28.89333001,
    "Longitude": -98.52730485,
    "Confirmed": 90,
    "Deaths": 2,
    "Recovered": 0,
    "Active": 88,
    "Combined_Key": "Atascosa, Texas, US",
    "Incidence_Rate": 175.94275995542785,
    "Case-Fatality_Ratio": 2.222222222
  },
  {
    "FIPS": 20005,
    "County": "Atchison",
    "Province_State": "Kansas",
    "Country_Region": "US",
    "Last_Update": "2020-06-30 04:33:48",
    "Latitude": 39.53185661,
    "Longitude": -95.30870026,
    "Confirmed": 34,
    "Deaths": 0,
    "Recovered": 0,
    "Active": 34,
    "Combined_Key": "Atchison, Kansas, US",
    "Incidence_Rate": 211.5348721458346,
    "Case-Fatality_Ratio": 0
  },
  {
    "FIPS": 29005,
    "County": "Atchison",
    "Province_State": "Missouri",
    "Country_Region": "US",
    "Last_Update": "2020-06-30 04:33:48",
    "Latitude": 40.43238737,
    "Longitude": -95.42970639,
    "Confirmed": 3,
    "Deaths": 0,
    "Recovered": 0,
    "Active": 3,
    "Combined_Key": "Atchison, Missouri, US",
    "Incidence_Rate": 58.331713007972,
    "Case-Fatality_Ratio": 0
  },
  {
    "FIPS": 39009,
    "County": "Athens",
    "Province_State": "Ohio",
    "Country_Region": "US",
    "Last_Update": "2020-06-30 04:33:48",
    "Latitude": 39.33425634,
    "Longitude": -82.04278644,
    "Confirmed": 32,
    "Deaths": 1,
    "Recovered": 0,
    "Active": 31,
    "Combined_Key": "Athens, Ohio, US",
    "Incidence_Rate": 48.984340318704355,
    "Case-Fatality_Ratio": 3.125
  },
  {
    "FIPS": 13003,
    "County": "Atkinson",
    "Province_State": "Georgia",
    "Country_Region": "US",
    "Last_Update": "2020-06-30 04:33:48",
    "Latitude": 31.29633502,
    "Longitude": -82.87545866,
    "Confirmed": 139,
    "Deaths": 2,
    "Recovered": 0,
    "Active": 137,
    "Combined_Key": "Atkinson, Georgia, US",
    "Incidence_Rate": 1702.388242498469,
    "Case-Fatality_Ratio": 1.438848921
  },
  {
    "FIPS": 34001,
    "County": "Atlantic",
    "Province_State": "New Jersey",
    "Country_Region": "US",
    "Last_Update": "2020-06-30 04:33:48",
    "Latitude": 39.47538693,
    "Longitude": -74.65848483,
    "Confirmed": 2845,
    "Deaths": 214,
    "Recovered": 0,
    "Active": 2631,
    "Combined_Key": "Atlantic, New Jersey, US",
    "Incidence_Rate": 1079.0002654833693,
    "Case-Fatality_Ratio": 7.521968366
  },
  {
    "FIPS": 40005,
    "County": "Atoka",
    "Province_State": "Oklahoma",
    "Country_Region": "US",
    "Last_Update": "2020-06-30 04:33:48",
    "Latitude": 34.37366573,
    "Longitude": -96.03802487,
    "Confirmed": 19,
    "Deaths": 0,
    "Recovered": 0,
    "Active": 19,
    "Combined_Key": "Atoka, Oklahoma, US",
    "Incidence_Rate": 138.1014682366623,
    "Case-Fatality_Ratio": 0
  },
  {
    "FIPS": 28007,
    "County": "Attala",
    "Province_State": "Mississippi",
    "Country_Region": "US",
    "Last_Update": "2020-06-30 04:33:48",
    "Latitude": 33.08658803,
    "Longitude": -89.57838564,
    "Confirmed": 347,
    "Deaths": 23,
    "Recovered": 0,
    "Active": 324,
    "Combined_Key": "Attala, Mississippi, US",
    "Incidence_Rate": 1909.3210080334545,
    "Case-Fatality_Ratio": 6.628242075
  },
  {
    "FIPS": 29007,
    "County": "Audrain",
    "Province_State": "Missouri",
    "Country_Region": "US",
    "Last_Update": "2020-06-30 04:33:48",
    "Latitude": 39.215877,
    "Longitude": -91.84242683,
    "Confirmed": 138,
    "Deaths": 1,
    "Recovered": 0,
    "Active": 137,
    "Combined_Key": "Audrain, Missouri, US",
    "Incidence_Rate": 543.5638884512368,
    "Case-Fatality_Ratio": 0.7246376812
  },
  {
    "FIPS": 19009,
    "County": "Audubon",
    "Province_State": "Iowa",
    "Country_Region": "US",
    "Last_Update": "2020-06-30 04:33:48",
    "Latitude": 41.6844628,
    "Longitude": -94.90581859,
    "Confirmed": 17,
    "Deaths": 1,
    "Recovered": 0,
    "Active": 16,
    "Combined_Key": "Audubon, Iowa, US",
    "Incidence_Rate": 309.315866084425,
    "Case-Fatality_Ratio": 5.882352941
  },
  {
    "FIPS": 39011,
    "County": "Auglaize",
    "Province_State": "Ohio",
    "Country_Region": "US",
    "Last_Update": "2020-06-30 04:33:48",
    "Latitude": 40.55998859,
    "Longitude": -84.22421429999999,
    "Confirmed": 98,
    "Deaths": 3,
    "Recovered": 0,
    "Active": 95,
    "Combined_Key": "Auglaize, Ohio, US",
    "Incidence_Rate": 214.6486770632557,
    "Case-Fatality_Ratio": 3.06122449
  },
  {
    "FIPS": 51015,
    "County": "Augusta",
    "Province_State": "Virginia",
    "Country_Region": "US",
    "Last_Update": "2020-06-30 04:33:48",
    "Latitude": 38.16404586,
    "Longitude": -79.12461614,
    "Confirmed": 183,
    "Deaths": 2,
    "Recovered": 0,
    "Active": 181,
    "Combined_Key": "Augusta, Virginia, US",
    "Incidence_Rate": 242.1980465337886,
    "Case-Fatality_Ratio": 1.092896175
  },
  {
    "FIPS": 46003,
    "County": "Aurora",
    "Province_State": "South Dakota",
    "Country_Region": "US",
    "Last_Update": "2020-06-30 04:33:48",
    "Latitude": 43.71757685,
    "Longitude": -98.56050467,
    "Confirmed": 34,
    "Deaths": 0,
    "Recovered": 0,
    "Active": 34,
    "Combined_Key": "Aurora, South Dakota, US",
    "Incidence_Rate": 1235.9142130134496,
    "Case-Fatality_Ratio": 0
  },
  {
    "FIPS": 48015,
    "County": "Austin",
    "Province_State": "Texas",
    "Country_Region": "US",
    "Last_Update": "2020-06-30 04:33:48",
    "Latitude": 29.88548725,
    "Longitude": -96.27736949,
    "Confirmed": 69,
    "Deaths": 0,
    "Recovered": 0,
    "Active": 69,
    "Combined_Key": "Austin, Texas, US",
    "Incidence_Rate": 229.75492807671813,
    "Case-Fatality_Ratio": 0
  },
  {
    "FIPS": 1001,
    "County": "Autauga",
    "Province_State": "Alabama",
    "Country_Region": "US",
    "Last_Update": "2020-06-30 04:33:48",
    "Latitude": 32.53952745,
    "Longitude": -86.64408227,
    "Confirmed": 521,
    "Deaths": 11,
    "Recovered": 0,
    "Active": 510,
    "Combined_Key": "Autauga, Alabama, US",
    "Incidence_Rate": 932.5386171221967,
    "Case-Fatality_Ratio": 2.111324376
  },
  {
    "FIPS": 37011,
    "County": "Avery",
    "Province_State": "North Carolina",
    "Country_Region": "US",
    "Last_Update": "2020-06-30 04:33:48",
    "Latitude": 36.07569796,
    "Longitude": -81.92308483,
    "Confirmed": 11,
    "Deaths": 0,
    "Recovered": 0,
    "Active": 11,
    "Combined_Key": "Avery, North Carolina, US",
    "Incidence_Rate": 62.65307284843653,
    "Case-Fatality_Ratio": 0
  },
  {
    "FIPS": 22009,
    "County": "Avoyelles",
    "Province_State": "Louisiana",
    "Country_Region": "US",
    "Last_Update": "2020-06-30 04:33:48",
    "Latitude": 31.07796211,
    "Longitude": -92.00079449,
    "Confirmed": 309,
    "Deaths": 11,
    "Recovered": 0,
    "Active": 298,
    "Combined_Key": "Avoyelles, Louisiana, US",
    "Incidence_Rate": 769.7289756875249,
    "Case-Fatality_Ratio": 3.55987055
  },
  {
    "FIPS": 8009,
    "County": "Baca",
    "Province_State": "Colorado",
    "Country_Region": "US",
    "Last_Update": "2020-06-30 04:33:48",
    "Latitude": 37.31940883,
    "Longitude": -102.5603223,
    "Confirmed": 14,
    "Deaths": 0,
    "Recovered": 0,
    "Active": 14,
    "Combined_Key": "Baca, Colorado, US",
    "Incidence_Rate": 390.9522479754258,
    "Case-Fatality_Ratio": 0
  },
  {
    "FIPS": 13005,
    "County": "Bacon",
    "Province_State": "Georgia",
    "Country_Region": "US",
    "Last_Update": "2020-06-30 04:33:48",
    "Latitude": 31.55456473,
    "Longitude": -82.45936528,
    "Confirmed": 229,
    "Deaths": 4,
    "Recovered": 0,
    "Active": 225,
    "Combined_Key": "Bacon, Georgia, US",
    "Incidence_Rate": 2051.236116087424,
    "Case-Fatality_Ratio": 1.746724891
  },
  {
    "FIPS": 48017,
    "County": "Bailey",
    "Province_State": "Texas",
    "Country_Region": "US",
    "Last_Update": "2020-06-30 04:33:48",
    "Latitude": 34.06854817,
    "Longitude": -102.8299707,
    "Confirmed": 93,
    "Deaths": 1,
    "Recovered": 0,
    "Active": 92,
    "Combined_Key": "Bailey, Texas, US",
    "Incidence_Rate": 1328.5714285714287,
    "Case-Fatality_Ratio": 1.075268817
  },
  {
    "FIPS": 12003,
    "County": "Baker",
    "Province_State": "Florida",
    "Country_Region": "US",
    "Last_Update": "2020-06-30 04:33:48",
    "Latitude": 30.33060121,
    "Longitude": -82.28467476,
    "Confirmed": 57,
    "Deaths": 4,
    "Recovered": 0,
    "Active": 53,
    "Combined_Key": "Baker, Florida, US",
    "Incidence_Rate": 195.13865114686752,
    "Case-Fatality_Ratio": 7.01754386
  },
  {
    "FIPS": 13007,
    "County": "Baker",
    "Province_State": "Georgia",
    "Country_Region": "US",
    "Last_Update": "2020-06-30 04:33:48",
    "Latitude": 31.32669878,
    "Longitude": -84.44218806,
    "Confirmed": 43,
    "Deaths": 3,
    "Recovered": 0,
    "Active": 40,
    "Combined_Key": "Baker, Georgia, US",
    "Incidence_Rate": 1415.4048716260697,
    "Case-Fatality_Ratio": 6.976744186
  },
  {
    "FIPS": 41001,
    "County": "Baker",
    "Province_State": "Oregon",
    "Country_Region": "US",
    "Last_Update": "2020-06-30 04:33:48",
    "Latitude": 44.70915557,
    "Longitude": -117.6749883,
    "Confirmed": 1,
    "Deaths": 0,
    "Recovered": 0,
    "Active": 1,
    "Combined_Key": "Baker, Oregon, US",
    "Incidence_Rate": 6.201935003721161,
    "Case-Fatality_Ratio": 0
  },
  {
    "FIPS": 1003,
    "County": "Baldwin",
    "Province_State": "Alabama",
    "Country_Region": "US",
    "Last_Update": "2020-06-30 04:33:48",
    "Latitude": 30.72774991,
    "Longitude": -87.72207058,
    "Confirmed": 626,
    "Deaths": 9,
    "Recovered": 0,
    "Active": 617,
    "Combined_Key": "Baldwin, Alabama, US",
    "Incidence_Rate": 280.4232330200597,
    "Case-Fatality_Ratio": 1.437699681
  },
  {
    "FIPS": 13009,
    "County": "Baldwin",
    "Province_State": "Georgia",
    "Country_Region": "US",
    "Last_Update": "2020-06-30 04:33:48",
    "Latitude": 33.06882326,
    "Longitude": -83.24701748,
    "Confirmed": 483,
    "Deaths": 33,
    "Recovered": 0,
    "Active": 450,
    "Combined_Key": "Baldwin, Georgia, US",
    "Incidence_Rate": 1075.9634662508354,
    "Case-Fatality_Ratio": 6.832298137
  },
  {
    "FIPS": 21007,
    "County": "Ballard",
    "Province_State": "Kentucky",
    "Country_Region": "US",
    "Last_Update": "2020-06-30 04:33:48",
    "Latitude": 37.05842757,
    "Longitude": -88.99427697,
    "Confirmed": 14,
    "Deaths": 0,
    "Recovered": 0,
    "Active": 14,
    "Combined_Key": "Ballard, Kentucky, US",
    "Incidence_Rate": 177.4847870182556,
    "Case-Fatality_Ratio": 0
  },
  {
    "FIPS": 24005,
    "County": "Baltimore",
    "Province_State": "Maryland",
    "Country_Region": "US",
    "Last_Update": "2020-06-30 04:33:48",
    "Latitude": 39.45784712,
    "Longitude": -76.62911955,
    "Confirmed": 7929,
    "Deaths": 470,
    "Recovered": 0,
    "Active": 7459,
    "Combined_Key": "Baltimore, Maryland, US",
    "Incidence_Rate": 958.3378657674316,
    "Case-Fatality_Ratio": 5.927607517
  },
  {
    "FIPS": 24510,
    "County": "Baltimore City",
    "Province_State": "Maryland",
    "Country_Region": "US",
    "Last_Update": "2020-06-30 04:33:48",
    "Latitude": 39.30211911,
    "Longitude": -76.61151012,
    "Confirmed": 7498,
    "Deaths": 335,
    "Recovered": 0,
    "Active": 7163,
    "Combined_Key": "Baltimore City, Maryland, US",
    "Incidence_Rate": 1263.3742775783921,
    "Case-Fatality_Ratio": 4.467858095
  },
  {
    "FIPS": 45009,
    "County": "Bamberg",
    "Province_State": "South Carolina",
    "Country_Region": "US",
    "Last_Update": "2020-06-30 04:33:48",
    "Latitude": 33.21927586,
    "Longitude": -81.05659969,
    "Confirmed": 103,
    "Deaths": 1,
    "Recovered": 0,
    "Active": 102,
    "Combined_Key": "Bamberg, South Carolina, US",
    "Incidence_Rate": 732.2621925209726,
    "Case-Fatality_Ratio": 0.9708737864
  },
  {
    "FIPS": 48019,
    "County": "Bandera",
    "Province_State": "Texas",
    "Country_Region": "US",
    "Last_Update": "2020-06-30 04:33:48",
    "Latitude": 29.74619598,
    "Longitude": -99.24598147,
    "Confirmed": 16,
    "Deaths": 0,
    "Recovered": 0,
    "Active": 16,
    "Combined_Key": "Bandera, Texas, US",
    "Incidence_Rate": 69.22810661128418,
    "Case-Fatality_Ratio": 0
  },
  {
    "FIPS": 13011,
    "County": "Banks",
    "Province_State": "Georgia",
    "Country_Region": "US",
    "Last_Update": "2020-06-30 04:33:48",
    "Latitude": 34.35607081,
    "Longitude": -83.49644388,
    "Confirmed": 130,
    "Deaths": 0,
    "Recovered": 0,
    "Active": 130,
    "Combined_Key": "Banks, Georgia, US",
    "Incidence_Rate": 675.8864510762191,
    "Case-Fatality_Ratio": 0
  },
  {
    "FIPS": 31007,
    "County": "Banner",
    "Province_State": "Nebraska",
    "Country_Region": "US",
    "Last_Update": "2020-06-30 04:33:48",
    "Latitude": 41.54634427,
    "Longitude": -103.7114332,
    "Confirmed": 1,
    "Deaths": 0,
    "Recovered": 0,
    "Active": 1,
    "Combined_Key": "Banner, Nebraska, US",
    "Incidence_Rate": 134.2281879194631,
    "Case-Fatality_Ratio": 0
  },
  {
    "FIPS": 16005,
    "County": "Bannock",
    "Province_State": "Idaho",
    "Country_Region": "US",
    "Last_Update": "2020-06-30 04:33:48",
    "Latitude": 42.67002716,
    "Longitude": -112.2233311,
    "Confirmed": 95,
    "Deaths": 1,
    "Recovered": 0,
    "Active": 94,
    "Combined_Key": "Bannock, Idaho, US",
    "Incidence_Rate": 108.1905976676385,
    "Case-Fatality_Ratio": 1.052631579
  },
  {
    "FIPS": 26013,
    "County": "Baraga",
    "Province_State": "Michigan",
    "Country_Region": "US",
    "Last_Update": "2020-06-30 04:33:48",
    "Latitude": 46.6720582,
    "Longitude": -88.36363591,
    "Confirmed": 5,
    "Deaths": 0,
    "Recovered": 0,
    "Active": 5,
    "Combined_Key": "Baraga, Michigan, US",
    "Incidence_Rate": 60.908758679498106,
    "Case-Fatality_Ratio": 0
  },
  {
    "FIPS": 20007,
    "County": "Barber",
    "Province_State": "Kansas",
    "Country_Region": "US",
    "Last_Update": "2020-06-30 04:33:48",
    "Latitude": 37.2288586,
    "Longitude": -98.68460053,
    "Confirmed": 1,
    "Deaths": 0,
    "Recovered": 0,
    "Active": 1,
    "Combined_Key": "Barber, Kansas, US",
    "Incidence_Rate": 22.588660492432798,
    "Case-Fatality_Ratio": 0
  },
  {
    "FIPS": 1005,
    "County": "Barbour",
    "Province_State": "Alabama",
    "Country_Region": "US",
    "Last_Update": "2020-06-30 04:33:48",
    "Latitude": 31.868263,
    "Longitude": -85.3871286,
    "Confirmed": 319,
    "Deaths": 1,
    "Recovered": 0,
    "Active": 318,
    "Combined_Key": "Barbour, Alabama, US",
    "Incidence_Rate": 1292.230413999838,
    "Case-Fatality_Ratio": 0.3134796238
  },
  {
    "FIPS": 54001,
    "County": "Barbour",
    "Province_State": "West Virginia",
    "Country_Region": "US",
    "Last_Update": "2020-06-30 04:33:48",
    "Latitude": 39.1307219,
    "Longitude": -80.00350858,
    "Confirmed": 15,
    "Deaths": 1,
    "Recovered": 0,
    "Active": 14,
    "Combined_Key": "Barbour, West Virginia, US",
    "Incidence_Rate": 91.23532631835045,
    "Case-Fatality_Ratio": 6.666666667
  },
  {
    "FIPS": 38003,
    "County": "Barnes",
    "Province_State": "North Dakota",
    "Country_Region": "US",
    "Last_Update": "2020-06-30 04:33:48",
    "Latitude": 46.93579637,
    "Longitude": -98.06605978,
    "Confirmed": 19,
    "Deaths": 0,
    "Recovered": 0,
    "Active": 19,
    "Combined_Key": "Barnes, North Dakota, US",
    "Incidence_Rate": 182.4291886701872,
    "Case-Fatality_Ratio": 0
  },
  {
    "FIPS": 25001,
    "County": "Barnstable",
    "Province_State": "Massachusetts",
    "Country_Region": "US",
    "Last_Update": "2020-06-30 04:33:48",
    "Latitude": 41.72980578,
    "Longitude": -70.28854339,
    "Confirmed": 1535,
    "Deaths": 145,
    "Recovered": 0,
    "Active": 1390,
    "Combined_Key": "Barnstable, Massachusetts, US",
    "Incidence_Rate": 720.6911122587915,
    "Case-Fatality_Ratio": 9.446254072
  },
  {
    "FIPS": 45011,
    "County": "Barnwell",
    "Province_State": "South Carolina",
    "Country_Region": "US",
    "Last_Update": "2020-06-30 04:33:48",
    "Latitude": 33.26679302,
    "Longitude": -81.43584352,
    "Confirmed": 77,
    "Deaths": 1,
    "Recovered": 0,
    "Active": 76,
    "Combined_Key": "Barnwell, South Carolina, US",
    "Incidence_Rate": 369.02137448480784,
    "Case-Fatality_Ratio": 1.298701299
  },
  {
    "FIPS": 21009,
    "County": "Barren",
    "Province_State": "Kentucky",
    "Country_Region": "US",
    "Last_Update": "2020-06-30 04:33:48",
    "Latitude": 36.96469836,
    "Longitude": -85.93338945,
    "Confirmed": 85,
    "Deaths": 2,
    "Recovered": 0,
    "Active": 83,
    "Combined_Key": "Barren, Kentucky, US",
    "Incidence_Rate": 192.09473660421705,
    "Case-Fatality_Ratio": 2.352941176
  },
  {
    "FIPS": 55005,
    "County": "Barron",
    "Province_State": "Wisconsin",
    "Country_Region": "US",
    "Last_Update": "2020-06-30 04:33:48",
    "Latitude": 45.42372701,
    "Longitude": -91.84833627,
    "Confirmed": 34,
    "Deaths": 0,
    "Recovered": 0,
    "Active": 34,
    "Combined_Key": "Barron, Wisconsin, US",
    "Incidence_Rate": 75.14808593404649,
    "Case-Fatality_Ratio": 0
  },
  {
    "FIPS": 13013,
    "County": "Barrow",
    "Province_State": "Georgia",
    "Country_Region": "US",
    "Last_Update": "2020-06-30 04:33:48",
    "Latitude": 33.99148694,
    "Longitude": -83.71436292,
    "Confirmed": 485,
    "Deaths": 25,
    "Recovered": 0,
    "Active": 460,
    "Combined_Key": "Barrow, Georgia, US",
    "Incidence_Rate": 582.6525708793848,
    "Case-Fatality_Ratio": 5.154639175
  },
  {
    "FIPS": 26015,
    "County": "Barry",
    "Province_State": "Michigan",
    "Country_Region": "US",
    "Last_Update": "2020-06-30 04:33:48",
    "Latitude": 42.59513984,
    "Longitude": -85.30834519,
    "Confirmed": 98,
    "Deaths": 2,
    "Recovered": 0,
    "Active": 96,
    "Combined_Key": "Barry, Michigan, US",
    "Incidence_Rate": 159.22014622258325,
    "Case-Fatality_Ratio": 2.040816327
  },
  {
    "FIPS": 29009,
    "County": "Barry",
    "Province_State": "Missouri",
    "Country_Region": "US",
    "Last_Update": "2020-06-30 04:33:48",
    "Latitude": 36.70978521,
    "Longitude": -93.82919888,
    "Confirmed": 43,
    "Deaths": 0,
    "Recovered": 0,
    "Active": 43,
    "Combined_Key": "Barry, Missouri, US",
    "Incidence_Rate": 120.14864902623712,
    "Case-Fatality_Ratio": 0
  },
  {
    "FIPS": 18005,
    "County": "Bartholomew",
    "Province_State": "Indiana",
    "Country_Region": "US",
    "Last_Update": "2020-06-30 04:33:48",
    "Latitude": 39.20744865,
    "Longitude": -85.89558181,
    "Confirmed": 578,
    "Deaths": 44,
    "Recovered": 0,
    "Active": 534,
    "Combined_Key": "Bartholomew, Indiana, US",
    "Incidence_Rate": 689.9103593979397,
    "Case-Fatality_Ratio": 7.612456747
  },
  {
    "FIPS": 20009,
    "County": "Barton",
    "Province_State": "Kansas",
    "Country_Region": "US",
    "Last_Update": "2020-06-30 04:33:48",
    "Latitude": 38.47889676,
    "Longitude": -98.75636726,
    "Confirmed": 56,
    "Deaths": 2,
    "Recovered": 0,
    "Active": 54,
    "Combined_Key": "Barton, Kansas, US",
    "Incidence_Rate": 217.23107956088288,
    "Case-Fatality_Ratio": 3.571428571
  },
  {
    "FIPS": 29011,
    "County": "Barton",
    "Province_State": "Missouri",
    "Country_Region": "US",
    "Last_Update": "2020-06-30 04:33:48",
    "Latitude": 37.50207671,
    "Longitude": -94.34757022,
    "Confirmed": 21,
    "Deaths": 0,
    "Recovered": 0,
    "Active": 21,
    "Combined_Key": "Barton, Missouri, US",
    "Incidence_Rate": 178.66258295048493,
    "Case-Fatality_Ratio": 0
  },
  {
    "FIPS": 13015,
    "County": "Bartow",
    "Province_State": "Georgia",
    "Country_Region": "US",
    "Last_Update": "2020-06-30 04:33:48",
    "Latitude": 34.23732119,
    "Longitude": -84.83887523,
    "Confirmed": 677,
    "Deaths": 42,
    "Recovered": 0,
    "Active": 635,
    "Combined_Key": "Bartow, Georgia, US",
    "Incidence_Rate": 628.3762460784495,
    "Case-Fatality_Ratio": 6.203840473
  },
  {
    "FIPS": 48021,
    "County": "Bastrop",
    "Province_State": "Texas",
    "Country_Region": "US",
    "Last_Update": "2020-06-30 04:33:48",
    "Latitude": 30.10370699,
    "Longitude": -97.31206354,
    "Confirmed": 439,
    "Deaths": 6,
    "Recovered": 0,
    "Active": 433,
    "Combined_Key": "Bastrop, Texas, US",
    "Incidence_Rate": 494.7984175467466,
    "Case-Fatality_Ratio": 1.366742597
  },
  {
    "FIPS": 29013,
    "County": "Bates",
    "Province_State": "Missouri",
    "Country_Region": "US",
    "Last_Update": "2020-06-30 04:33:48",
    "Latitude": 38.25271289,
    "Longitude": -94.34113157,
    "Confirmed": 12,
    "Deaths": 1,
    "Recovered": 0,
    "Active": 11,
    "Combined_Key": "Bates, Missouri, US",
    "Incidence_Rate": 74.20232500618353,
    "Case-Fatality_Ratio": 8.333333333
  },
  {
    "FIPS": 21011,
    "County": "Bath",
    "Province_State": "Kentucky",
    "Country_Region": "US",
    "Last_Update": "2020-06-30 04:33:48",
    "Latitude": 38.14735938,
    "Longitude": -83.74588932,
    "Confirmed": 13,
    "Deaths": 1,
    "Recovered": 0,
    "Active": 12,
    "Combined_Key": "Bath, Kentucky, US",
    "Incidence_Rate": 104,
    "Case-Fatality_Ratio": 7.692307692
  },
  {
    "FIPS": 51017,
    "County": "Bath",
    "Province_State": "Virginia",
    "Country_Region": "US",
    "Last_Update": "2020-06-30 04:33:48",
    "Latitude": 38.05852573,
    "Longitude": -79.73912095,
    "Confirmed": 0,
    "Deaths": 0,
    "Recovered": 0,
    "Active": 0,
    "Combined_Key": "Bath, Virginia, US",
    "Incidence_Rate": 0,
    "Case-Fatality_Ratio": 0
  },
  {
    "FIPS": 5005,
    "County": "Baxter",
    "Province_State": "Arkansas",
    "Country_Region": "US",
    "Last_Update": "2020-06-30 04:33:48",
    "Latitude": 36.28784385,
    "Longitude": -92.33782872,
    "Confirmed": 20,
    "Deaths": 0,
    "Recovered": 0,
    "Active": 20,
    "Combined_Key": "Baxter, Arkansas, US",
    "Incidence_Rate": 47.696270151674135,
    "Case-Fatality_Ratio": 0
  },
  {
    "FIPS": 12005,
    "County": "Bay",
    "Province_State": "Florida",
    "Country_Region": "US",
    "Last_Update": "2020-06-30 04:33:48",
    "Latitude": 30.26548745,
    "Longitude": -85.62122584,
    "Confirmed": 347,
    "Deaths": 4,
    "Recovered": 0,
    "Active": 343,
    "Combined_Key": "Bay, Florida, US",
    "Incidence_Rate": 198.62053175352742,
    "Case-Fatality_Ratio": 1.152737752
  },
  {
    "FIPS": 26017,
    "County": "Bay",
    "Province_State": "Michigan",
    "Country_Region": "US",
    "Last_Update": "2020-06-30 04:33:48",
    "Latitude": 43.70639106,
    "Longitude": -83.98731479,
    "Confirmed": 387,
    "Deaths": 30,
    "Recovered": 0,
    "Active": 357,
    "Combined_Key": "Bay, Michigan, US",
    "Incidence_Rate": 375.26908829974985,
    "Case-Fatality_Ratio": 7.751937984
  },
  {
    "FIPS": 55007,
    "County": "Bayfield",
    "Province_State": "Wisconsin",
    "Country_Region": "US",
    "Last_Update": "2020-06-30 04:33:48",
    "Latitude": 46.52868768,
    "Longitude": -91.19716729,
    "Confirmed": 3,
    "Deaths": 1,
    "Recovered": 0,
    "Active": 2,
    "Combined_Key": "Bayfield, Wisconsin, US",
    "Incidence_Rate": 19.952114924181963,
    "Case-Fatality_Ratio": 33.33333333
  },
  {
    "FIPS": 48023,
    "County": "Baylor",
    "Province_State": "Texas",
    "Country_Region": "US",
    "Last_Update": "2020-06-30 04:33:48",
    "Latitude": 33.61640794,
    "Longitude": -99.21352901,
    "Confirmed": 1,
    "Deaths": 0,
    "Recovered": 0,
    "Active": 1,
    "Combined_Key": "Baylor, Texas, US",
    "Incidence_Rate": 28.498147620404676,
    "Case-Fatality_Ratio": 0
  },
  {
    "FIPS": 46005,
    "County": "Beadle",
    "Province_State": "South Dakota",
    "Country_Region": "US",
    "Last_Update": "2020-06-30 04:33:48",
    "Latitude": 44.41464384,
    "Longitude": -98.27858469,
    "Confirmed": 523,
    "Deaths": 6,
    "Recovered": 0,
    "Active": 517,
    "Combined_Key": "Beadle, South Dakota, US",
    "Incidence_Rate": 2834.2274968839756,
    "Case-Fatality_Ratio": 1.147227533
  },
  {
    "FIPS": null,
    "County": "Bear River",
    "Province_State": "Utah",
    "Country_Region": "US",
    "Last_Update": "2020-06-30 04:33:48",
    "Latitude": 41.52106798,
    "Longitude": -113.08328159999999,
    "Confirmed": 1504,
    "Deaths": 2,
    "Recovered": 0,
    "Active": 1502,
    "Combined_Key": "Bear River, Utah, US",
    "Incidence_Rate": 805.0616107655578,
    "Case-Fatality_Ratio": 0.1329787234
  },
  {
    "FIPS": 37013,
    "County": "Beaufort",
    "Province_State": "North Carolina",
    "Country_Region": "US",
    "Last_Update": "2020-06-30 04:33:48",
    "Latitude": 35.48531943,
    "Longitude": -76.84325809,
    "Confirmed": 80,
    "Deaths": 0,
    "Recovered": 0,
    "Active": 80,
    "Combined_Key": "Beaufort, North Carolina, US",
    "Incidence_Rate": 170.23449802102397,
    "Case-Fatality_Ratio": 0
  },
  {
    "FIPS": 45013,
    "County": "Beaufort",
    "Province_State": "South Carolina",
    "Country_Region": "US",
    "Last_Update": "2020-06-30 04:33:48",
    "Latitude": 32.39226291,
    "Longitude": -80.72619758,
    "Confirmed": 1152,
    "Deaths": 18,
    "Recovered": 0,
    "Active": 1134,
    "Combined_Key": "Beaufort, South Carolina, US",
    "Incidence_Rate": 599.6189920987706,
    "Case-Fatality_Ratio": 1.5625
  },
  {
    "FIPS": 22011,
    "County": "Beauregard",
    "Province_State": "Louisiana",
    "Country_Region": "US",
    "Last_Update": "2020-06-30 04:33:48",
    "Latitude": 30.64836518,
    "Longitude": -93.34173616,
    "Confirmed": 193,
    "Deaths": 8,
    "Recovered": 0,
    "Active": 185,
    "Combined_Key": "Beauregard, Louisiana, US",
    "Incidence_Rate": 514.7078432941302,
    "Case-Fatality_Ratio": 4.14507772
  },
  {
    "FIPS": 40007,
    "County": "Beaver",
    "Province_State": "Oklahoma",
    "Country_Region": "US",
    "Last_Update": "2020-06-30 04:33:48",
    "Latitude": 36.7496847,
    "Longitude": -100.4758872,
    "Confirmed": 30,
    "Deaths": 0,
    "Recovered": 0,
    "Active": 30,
    "Combined_Key": "Beaver, Oklahoma, US",
    "Incidence_Rate": 564.865373752589,
    "Case-Fatality_Ratio": 0
  },
  {
    "FIPS": 42007,
    "County": "Beaver",
    "Province_State": "Pennsylvania",
    "Country_Region": "US",
    "Last_Update": "2020-06-30 04:33:48",
    "Latitude": 40.6825484,
    "Longitude": -80.34921611,
    "Confirmed": 651,
    "Deaths": 78,
    "Recovered": 0,
    "Active": 573,
    "Combined_Key": "Beaver, Pennsylvania, US",
    "Incidence_Rate": 397.12314477609215,
    "Case-Fatality_Ratio": 11.98156682
  },
  {
    "FIPS": 30001,
    "County": "Beaverhead",
    "Province_State": "Montana",
    "Country_Region": "US",
    "Last_Update": "2020-06-30 04:33:48",
    "Latitude": 45.13434354,
    "Longitude": -112.89846940000001,
    "Confirmed": 1,
    "Deaths": 0,
    "Recovered": 0,
    "Active": 1,
    "Combined_Key": "Beaverhead, Montana, US",
    "Incidence_Rate": 10.578652279699568,
    "Case-Fatality_Ratio": 0
  },
  {
    "FIPS": 27005,
    "County": "Becker",
    "Province_State": "Minnesota",
    "Country_Region": "US",
    "Last_Update": "2020-06-30 04:33:48",
    "Latitude": 46.93479392,
    "Longitude": -95.67158144,
    "Confirmed": 54,
    "Deaths": 0,
    "Recovered": 0,
    "Active": 54,
    "Combined_Key": "Becker, Minnesota, US",
    "Incidence_Rate": 156.87185893152838,
    "Case-Fatality_Ratio": 0
  },
  {
    "FIPS": 40009,
    "County": "Beckham",
    "Province_State": "Oklahoma",
    "Country_Region": "US",
    "Last_Update": "2020-06-30 04:33:48",
    "Latitude": 35.26862449,
    "Longitude": -99.68128023,
    "Confirmed": 11,
    "Deaths": 0,
    "Recovered": 0,
    "Active": 11,
    "Combined_Key": "Beckham, Oklahoma, US",
    "Incidence_Rate": 50.32252161581042,
    "Case-Fatality_Ratio": 0
  },
  {
    "FIPS": 42009,
    "County": "Bedford",
    "Province_State": "Pennsylvania",
    "Country_Region": "US",
    "Last_Update": "2020-06-30 04:33:48",
    "Latitude": 40.00522157,
    "Longitude": -78.48998442,
    "Confirmed": 81,
    "Deaths": 3,
    "Recovered": 0,
    "Active": 78,
    "Combined_Key": "Bedford, Pennsylvania, US",
    "Incidence_Rate": 169.14467089876382,
    "Case-Fatality_Ratio": 3.703703704
  },
  {
    "FIPS": 47003,
    "County": "Bedford",
    "Province_State": "Tennessee",
    "Country_Region": "US",
    "Last_Update": "2020-06-30 04:33:48",
    "Latitude": 35.51123746,
    "Longitude": -86.45549096,
    "Confirmed": 502,
    "Deaths": 5,
    "Recovered": 0,
    "Active": 497,
    "Combined_Key": "Bedford, Tennessee, US",
    "Incidence_Rate": 1009.7962303622796,
    "Case-Fatality_Ratio": 0.9960159363
  },
  {
    "FIPS": 51019,
    "County": "Bedford",
    "Province_State": "Virginia",
    "Country_Region": "US",
    "Last_Update": "2020-06-30 04:33:48",
    "Latitude": 37.3080028,
    "Longitude": -79.5281964,
    "Confirmed": 114,
    "Deaths": 3,
    "Recovered": 0,
    "Active": 111,
    "Combined_Key": "Bedford, Virginia, US",
    "Incidence_Rate": 144.30927756750256,
    "Case-Fatality_Ratio": 2.631578947
  },
  {
    "FIPS": 48025,
    "County": "Bee",
    "Province_State": "Texas",
    "Country_Region": "US",
    "Last_Update": "2020-06-30 04:33:48",
    "Latitude": 28.41761668,
    "Longitude": -97.74215593,
    "Confirmed": 46,
    "Deaths": 0,
    "Recovered": 0,
    "Active": 46,
    "Combined_Key": "Bee, Texas, US",
    "Incidence_Rate": 141.25594963918317,
    "Case-Fatality_Ratio": 0
  },
  {
    "FIPS": 33001,
    "County": "Belknap",
    "Province_State": "New Hampshire",
    "Country_Region": "US",
    "Last_Update": "2020-06-30 04:33:48",
    "Latitude": 43.51637314,
    "Longitude": -71.41684235,
    "Confirmed": 81,
    "Deaths": 1,
    "Recovered": 0,
    "Active": 80,
    "Combined_Key": "Belknap, New Hampshire, US",
    "Incidence_Rate": 132.13056457269627,
    "Case-Fatality_Ratio": 1.234567901
  },
  {
    "FIPS": 21013,
    "County": "Bell",
    "Province_State": "Kentucky",
    "Country_Region": "US",
    "Last_Update": "2020-06-30 04:33:48",
    "Latitude": 36.73355174,
    "Longitude": -83.67766671,
    "Confirmed": 8,
    "Deaths": 0,
    "Recovered": 0,
    "Active": 8,
    "Combined_Key": "Bell, Kentucky, US",
    "Incidence_Rate": 30.73140749846343,
    "Case-Fatality_Ratio": 0
  },
  {
    "FIPS": 48027,
    "County": "Bell",
    "Province_State": "Texas",
    "Country_Region": "US",
    "Last_Update": "2020-06-30 04:33:48",
    "Latitude": 31.03736027,
    "Longitude": -97.4785025,
    "Confirmed": 1128,
    "Deaths": 12,
    "Recovered": 0,
    "Active": 1116,
    "Combined_Key": "Bell, Texas, US",
    "Incidence_Rate": 310.8088745853126,
    "Case-Fatality_Ratio": 1.063829787
  },
  {
    "FIPS": 39013,
    "County": "Belmont",
    "Province_State": "Ohio",
    "Country_Region": "US",
    "Last_Update": "2020-06-30 04:33:48",
    "Latitude": 40.01625942,
    "Longitude": -80.9924051,
    "Confirmed": 524,
    "Deaths": 21,
    "Recovered": 0,
    "Active": 503,
    "Combined_Key": "Belmont, Ohio, US",
    "Incidence_Rate": 782.0195206399428,
    "Case-Fatality_Ratio": 4.007633588
  },
  {
    "FIPS": 27007,
    "County": "Beltrami",
    "Province_State": "Minnesota",
    "Country_Region": "US",
    "Last_Update": "2020-06-30 04:33:48",
    "Latitude": 47.97373527,
    "Longitude": -94.93732139,
    "Confirmed": 27,
    "Deaths": 0,
    "Recovered": 0,
    "Active": 27,
    "Combined_Key": "Beltrami, Minnesota, US",
    "Incidence_Rate": 57.217936763583964,
    "Case-Fatality_Ratio": 0
  },
  {
    "FIPS": 13017,
    "County": "Ben Hill",
    "Province_State": "Georgia",
    "Country_Region": "US",
    "Last_Update": "2020-06-30 04:33:48",
    "Latitude": 31.76095874,
    "Longitude": -83.22145359,
    "Confirmed": 159,
    "Deaths": 1,
    "Recovered": 0,
    "Active": 158,
    "Combined_Key": "Ben Hill, Georgia, US",
    "Incidence_Rate": 952.0958083832336,
    "Case-Fatality_Ratio": 0.6289308176
  },
  {
    "FIPS": 16009,
    "County": "Benewah",
    "Province_State": "Idaho",
    "Country_Region": "US",
    "Last_Update": "2020-06-30 04:33:48",
    "Latitude": 47.21754179,
    "Longitude": -116.6586851,
    "Confirmed": 21,
    "Deaths": 0,
    "Recovered": 0,
    "Active": 21,
    "Combined_Key": "Benewah, Idaho, US",
    "Incidence_Rate": 225.85502258550227,
    "Case-Fatality_Ratio": 0
  },
  {
    "FIPS": 46007,
    "County": "Bennett",
    "Province_State": "South Dakota",
    "Country_Region": "US",
    "Last_Update": "2020-06-30 04:33:48",
    "Latitude": 43.19486375,
    "Longitude": -101.6665572,
    "Confirmed": 5,
    "Deaths": 0,
    "Recovered": 0,
    "Active": 5,
    "Combined_Key": "Bennett, South Dakota, US",
    "Incidence_Rate": 148.5884101040119,
    "Case-Fatality_Ratio": 0
  },
  {
    "FIPS": 50003,
    "County": "Bennington",
    "Province_State": "Vermont",
    "Country_Region": "US",
    "Last_Update": "2020-06-30 04:33:48",
    "Latitude": 43.03519828,
    "Longitude": -73.09048868,
    "Confirmed": 72,
    "Deaths": 1,
    "Recovered": 0,
    "Active": 71,
    "Combined_Key": "Bennington, Vermont, US",
    "Incidence_Rate": 202.98844093600223,
    "Case-Fatality_Ratio": 1.388888889
  },
  {
    "FIPS": 38005,
    "County": "Benson",
    "Province_State": "North Dakota",
    "Country_Region": "US",
    "Last_Update": "2020-06-30 04:33:48",
    "Latitude": 48.0683985,
    "Longitude": -99.35916363,
    "Confirmed": 3,
    "Deaths": 0,
    "Recovered": 0,
    "Active": 3,
    "Combined_Key": "Benson, North Dakota, US",
    "Incidence_Rate": 43.911007025761116,
    "Case-Fatality_Ratio": 0
  },
  {
    "FIPS": 8011,
    "County": "Bent",
    "Province_State": "Colorado",
    "Country_Region": "US",
    "Last_Update": "2020-06-30 04:33:48",
    "Latitude": 37.95474293,
    "Longitude": -103.0720195,
    "Confirmed": 4,
    "Deaths": 0,
    "Recovered": 0,
    "Active": 4,
    "Combined_Key": "Bent, Colorado, US",
    "Incidence_Rate": 71.72314864622557,
    "Case-Fatality_Ratio": 0
  },
  {
    "FIPS": 5007,
    "County": "Benton",
    "Province_State": "Arkansas",
    "Country_Region": "US",
    "Last_Update": "2020-06-30 04:33:48",
    "Latitude": 36.33644656,
    "Longitude": -94.25680817,
    "Confirmed": 2679,
    "Deaths": 18,
    "Recovered": 0,
    "Active": 2661,
    "Combined_Key": "Benton, Arkansas, US",
    "Incidence_Rate": 959.7300289101207,
    "Case-Fatality_Ratio": 0.6718924972
  },
  {
    "FIPS": 18007,
    "County": "Benton",
    "Province_State": "Indiana",
    "Country_Region": "US",
    "Last_Update": "2020-06-30 04:33:48",
    "Latitude": 40.60626947,
    "Longitude": -87.31093999,
    "Confirmed": 46,
    "Deaths": 0,
    "Recovered": 0,
    "Active": 46,
    "Combined_Key": "Benton, Indiana, US",
    "Incidence_Rate": 525.8344764517605,
    "Case-Fatality_Ratio": 0
  },
  {
    "FIPS": 19011,
    "County": "Benton",
    "Province_State": "Iowa",
    "Country_Region": "US",
    "Last_Update": "2020-06-30 04:33:48",
    "Latitude": 42.08011739,
    "Longitude": -92.06463573,
    "Confirmed": 58,
    "Deaths": 1,
    "Recovered": 0,
    "Active": 57,
    "Combined_Key": "Benton, Iowa, US",
    "Incidence_Rate": 226.16494443361282,
    "Case-Fatality_Ratio": 1.724137931
  },
  {
    "FIPS": 27009,
    "County": "Benton",
    "Province_State": "Minnesota",
    "Country_Region": "US",
    "Last_Update": "2020-06-30 04:33:48",
    "Latitude": 45.69804958,
    "Longitude": -93.99514135,
    "Confirmed": 208,
    "Deaths": 3,
    "Recovered": 0,
    "Active": 205,
    "Combined_Key": "Benton, Minnesota, US",
    "Incidence_Rate": 508.6942698525276,
    "Case-Fatality_Ratio": 1.442307692
  },
  {
    "FIPS": 28009,
    "County": "Benton",
    "Province_State": "Mississippi",
    "Country_Region": "US",
    "Last_Update": "2020-06-30 04:33:48",
    "Latitude": 34.81681228,
    "Longitude": -89.18945516,
    "Confirmed": 27,
    "Deaths": 0,
    "Recovered": 0,
    "Active": 27,
    "Combined_Key": "Benton, Mississippi, US",
    "Incidence_Rate": 326.91609153650563,
    "Case-Fatality_Ratio": 0
  },
  {
    "FIPS": 29015,
    "County": "Benton",
    "Province_State": "Missouri",
    "Country_Region": "US",
    "Last_Update": "2020-06-30 04:33:48",
    "Latitude": 38.29503305,
    "Longitude": -93.28756116,
    "Confirmed": 17,
    "Deaths": 0,
    "Recovered": 0,
    "Active": 17,
    "Combined_Key": "Benton, Missouri, US",
    "Incidence_Rate": 87.43506660494779,
    "Case-Fatality_Ratio": 0
  },
  {
    "FIPS": 41003,
    "County": "Benton",
    "Province_State": "Oregon",
    "Country_Region": "US",
    "Last_Update": "2020-06-30 04:33:48",
    "Latitude": 44.49167306,
    "Longitude": -123.4316987,
    "Confirmed": 82,
    "Deaths": 5,
    "Recovered": 0,
    "Active": 77,
    "Combined_Key": "Benton, Oregon, US",
    "Incidence_Rate": 88.12182304708071,
    "Case-Fatality_Ratio": 6.097560976
  },
  {
    "FIPS": 47005,
    "County": "Benton",
    "Province_State": "Tennessee",
    "Country_Region": "US",
    "Last_Update": "2020-06-30 04:33:48",
    "Latitude": 36.07110411,
    "Longitude": -88.06849355,
    "Confirmed": 12,
    "Deaths": 1,
    "Recovered": 0,
    "Active": 11,
    "Combined_Key": "Benton, Tennessee, US",
    "Incidence_Rate": 74.25742574257426,
    "Case-Fatality_Ratio": 8.333333333
  },
  {
    "FIPS": 53005,
    "County": "Benton",
    "Province_State": "Washington",
    "Country_Region": "US",
    "Last_Update": "2020-06-30 04:33:48",
    "Latitude": 46.23946995,
    "Longitude": -119.51208340000001,
    "Confirmed": 1718,
    "Deaths": 79,
    "Recovered": 0,
    "Active": 1639,
    "Combined_Key": "Benton, Washington, US",
    "Incidence_Rate": 840.5499290571946,
    "Case-Fatality_Ratio": 4.598370198
  },
  {
    "FIPS": 26019,
    "County": "Benzie",
    "Province_State": "Michigan",
    "Country_Region": "US",
    "Last_Update": "2020-06-30 04:33:48",
    "Latitude": 44.63899297,
    "Longitude": -86.01608482,
    "Confirmed": 9,
    "Deaths": 0,
    "Recovered": 0,
    "Active": 9,
    "Combined_Key": "Benzie, Michigan, US",
    "Incidence_Rate": 50.65856129685917,
    "Case-Fatality_Ratio": 0
  },
  {
    "FIPS": 34003,
    "County": "Bergen",
    "Province_State": "New Jersey",
    "Country_Region": "US",
    "Last_Update": "2020-06-30 04:33:48",
    "Latitude": 40.96010917,
    "Longitude": -74.07164325,
    "Confirmed": 19375,
    "Deaths": 1985,
    "Recovered": 0,
    "Active": 17390,
    "Combined_Key": "Bergen, New Jersey, US",
    "Incidence_Rate": 2078.412189632719,
    "Case-Fatality_Ratio": 10.24516129
  },
  {
    "FIPS": 45015,
    "County": "Berkeley",
    "Province_State": "South Carolina",
    "Country_Region": "US",
    "Last_Update": "2020-06-30 04:33:48",
    "Latitude": 33.20222596,
    "Longitude": -79.94654523,
    "Confirmed": 1007,
    "Deaths": 21,
    "Recovered": 0,
    "Active": 986,
    "Combined_Key": "Berkeley, South Carolina, US",
    "Incidence_Rate": 441.8468936890925,
    "Case-Fatality_Ratio": 2.085402185
  },
  {
    "FIPS": 54003,
    "County": "Berkeley",
    "Province_State": "West Virginia",
    "Country_Region": "US",
    "Last_Update": "2020-06-30 04:33:48",
    "Latitude": 39.46704621,
    "Longitude": -78.02414609,
    "Confirmed": 454,
    "Deaths": 10,
    "Recovered": 0,
    "Active": 444,
    "Combined_Key": "Berkeley, West Virginia, US",
    "Incidence_Rate": 380.9651677001955,
    "Case-Fatality_Ratio": 2.202643172
  },
  {
    "FIPS": 42011,
    "County": "Berks",
    "Province_State": "Pennsylvania",
    "Country_Region": "US",
    "Last_Update": "2020-06-30 04:33:48",
    "Latitude": 40.41570541,
    "Longitude": -75.92457766,
    "Confirmed": 4521,
    "Deaths": 350,
    "Recovered": 0,
    "Active": 4171,
    "Combined_Key": "Berks, Pennsylvania, US",
    "Incidence_Rate": 1073.4535715303302,
    "Case-Fatality_Ratio": 7.741650077
  },
  {
    "FIPS": 25003,
    "County": "Berkshire",
    "Province_State": "Massachusetts",
    "Country_Region": "US",
    "Last_Update": "2020-06-30 04:33:48",
    "Latitude": 42.37428441,
    "Longitude": -73.20524838,
    "Confirmed": 594,
    "Deaths": 44,
    "Recovered": 0,
    "Active": 550,
    "Combined_Key": "Berkshire, Massachusetts, US",
    "Incidence_Rate": 475.41298501728767,
    "Case-Fatality_Ratio": 7.407407407
  },
  {
    "FIPS": 35001,
    "County": "Bernalillo",
    "Province_State": "New Mexico",
    "Country_Region": "US",
    "Last_Update": "2020-06-30 04:33:48",
    "Latitude": 35.05163625,
    "Longitude": -106.6703554,
    "Confirmed": 2109,
    "Deaths": 85,
    "Recovered": 0,
    "Active": 2024,
    "Combined_Key": "Bernalillo, New Mexico, US",
    "Incidence_Rate": 310.5484884136995,
    "Case-Fatality_Ratio": 4.030346136
  },
  {
    "FIPS": 13019,
    "County": "Berrien",
    "Province_State": "Georgia",
    "Country_Region": "US",
    "Last_Update": "2020-06-30 04:33:48",
    "Latitude": 31.27590016,
    "Longitude": -83.22529920000002,
    "Confirmed": 114,
    "Deaths": 0,
    "Recovered": 0,
    "Active": 114,
    "Combined_Key": "Berrien, Georgia, US",
    "Incidence_Rate": 587.7197504768777,
    "Case-Fatality_Ratio": 0
  },
  {
    "FIPS": 26021,
    "County": "Berrien",
    "Province_State": "Michigan",
    "Country_Region": "US",
    "Last_Update": "2020-06-30 04:33:48",
    "Latitude": 41.95447397,
    "Longitude": -86.41313079999998,
    "Confirmed": 879,
    "Deaths": 60,
    "Recovered": 0,
    "Active": 819,
    "Combined_Key": "Berrien, Michigan, US",
    "Incidence_Rate": 573.0079986440768,
    "Case-Fatality_Ratio": 6.825938567
  },
  {
    "FIPS": 37015,
    "County": "Bertie",
    "Province_State": "North Carolina",
    "Country_Region": "US",
    "Last_Update": "2020-06-30 04:33:48",
    "Latitude": 36.0688473,
    "Longitude": -76.96545943,
    "Confirmed": 145,
    "Deaths": 4,
    "Recovered": 0,
    "Active": 141,
    "Combined_Key": "Bertie, North Carolina, US",
    "Incidence_Rate": 765.292658468359,
    "Case-Fatality_Ratio": 2.75862069
  },
  {
    "FIPS": 2050,
    "County": "Bethel",
    "Province_State": "Alaska",
    "Country_Region": "US",
    "Last_Update": "2020-06-30 04:33:48",
    "Latitude": 60.90980451,
    "Longitude": -159.8561831,
    "Confirmed": 9,
    "Deaths": 0,
    "Recovered": 0,
    "Active": 9,
    "Combined_Key": "Bethel, Alaska, US",
    "Incidence_Rate": 48.950288262808655,
    "Case-Fatality_Ratio": 0
  },
  {
    "FIPS": 48029,
    "County": "Bexar",
    "Province_State": "Texas",
    "Country_Region": "US",
    "Last_Update": "2020-06-30 04:33:48",
    "Latitude": 29.44928723,
    "Longitude": -98.52019748,
    "Confirmed": 10797,
    "Deaths": 109,
    "Recovered": 0,
    "Active": 10688,
    "Combined_Key": "Bexar, Texas, US",
    "Incidence_Rate": 538.8923882261222,
    "Case-Fatality_Ratio": 1.009539687
  },
  {
    "FIPS": 1007,
    "County": "Bibb",
    "Province_State": "Alabama",
    "Country_Region": "US",
    "Last_Update": "2020-06-30 04:33:48",
    "Latitude": 32.99642064,
    "Longitude": -87.12511459999996,
    "Confirmed": 162,
    "Deaths": 1,
    "Recovered": 0,
    "Active": 161,
    "Combined_Key": "Bibb, Alabama, US",
    "Incidence_Rate": 723.4080557292133,
    "Case-Fatality_Ratio": 0.6172839506
  },
  {
    "FIPS": 13021,
    "County": "Bibb",
    "Province_State": "Georgia",
    "Country_Region": "US",
    "Last_Update": "2020-06-30 04:33:48",
    "Latitude": 32.80904227,
    "Longitude": -83.70489165,
    "Confirmed": 775,
    "Deaths": 38,
    "Recovered": 0,
    "Active": 737,
    "Combined_Key": "Bibb, Georgia, US",
    "Incidence_Rate": 506.0100940852317,
    "Case-Fatality_Ratio": 4.903225806
  },
  {
    "FIPS": 22013,
    "County": "Bienville",
    "Province_State": "Louisiana",
    "Country_Region": "US",
    "Last_Update": "2020-06-30 04:33:48",
    "Latitude": 32.34569994,
    "Longitude": -93.05398492,
    "Confirmed": 220,
    "Deaths": 26,
    "Recovered": 0,
    "Active": 194,
    "Combined_Key": "Bienville, Louisiana, US",
    "Incidence_Rate": 1661.505928555245,
    "Case-Fatality_Ratio": 11.81818182
  },
  {
    "FIPS": 30003,
    "County": "Big Horn",
    "Province_State": "Montana",
    "Country_Region": "US",
    "Last_Update": "2020-06-30 04:33:48",
    "Latitude": 45.42335905,
    "Longitude": -107.492347,
    "Confirmed": 73,
    "Deaths": 3,
    "Recovered": 0,
    "Active": 70,
    "Combined_Key": "Big Horn, Montana, US",
    "Incidence_Rate": 548.0891958855768,
    "Case-Fatality_Ratio": 4.109589041
  },
  {
    "FIPS": 56003,
    "County": "Big Horn",
    "Province_State": "Wyoming",
    "Country_Region": "US",
    "Last_Update": "2020-06-30 04:33:48",
    "Latitude": 44.52405055,
    "Longitude": -107.9960365,
    "Confirmed": 14,
    "Deaths": 0,
    "Recovered": 0,
    "Active": 14,
    "Combined_Key": "Big Horn, Wyoming, US",
    "Incidence_Rate": 118.74469889737064,
    "Case-Fatality_Ratio": 0
  },
  {
    "FIPS": 27011,
    "County": "Big Stone",
    "Province_State": "Minnesota",
    "Country_Region": "US",
    "Last_Update": "2020-06-30 04:33:48",
    "Latitude": 45.42712824,
    "Longitude": -96.41403739,
    "Confirmed": 14,
    "Deaths": 0,
    "Recovered": 0,
    "Active": 14,
    "Combined_Key": "Big Stone, Minnesota, US",
    "Incidence_Rate": 280.50490883590464,
    "Case-Fatality_Ratio": 0
  },
  {
    "FIPS": 38007,
    "County": "Billings",
    "Province_State": "North Dakota",
    "Country_Region": "US",
    "Last_Update": "2020-06-30 04:33:48",
    "Latitude": 47.02366884,
    "Longitude": -103.3762965,
    "Confirmed": 1,
    "Deaths": 0,
    "Recovered": 0,
    "Active": 1,
    "Combined_Key": "Billings, North Dakota, US",
    "Incidence_Rate": 107.75862068965515,
    "Case-Fatality_Ratio": 0
  },
  {
    "FIPS": 16011,
    "County": "Bingham",
    "Province_State": "Idaho",
    "Country_Region": "US",
    "Last_Update": "2020-06-30 04:33:48",
    "Latitude": 43.21672879999999,
    "Longitude": -112.3978437,
    "Confirmed": 37,
    "Deaths": 0,
    "Recovered": 0,
    "Active": 37,
    "Combined_Key": "Bingham, Idaho, US",
    "Incidence_Rate": 79.04125098801562,
    "Case-Fatality_Ratio": 0
  },
  {
    "FIPS": 19013,
    "County": "Black Hawk",
    "Province_State": "Iowa",
    "Country_Region": "US",
    "Last_Update": "2020-06-30 04:33:48",
    "Latitude": 42.4704581,
    "Longitude": -92.30524729,
    "Confirmed": 2079,
    "Deaths": 57,
    "Recovered": 0,
    "Active": 2022,
    "Combined_Key": "Black Hawk, Iowa, US",
    "Incidence_Rate": 1584.2655530831837,
    "Case-Fatality_Ratio": 2.741702742
  },
  {
    "FIPS": 18009,
    "County": "Blackford",
    "Province_State": "Indiana",
    "Country_Region": "US",
    "Last_Update": "2020-06-30 04:33:48",
    "Latitude": 40.47388153,
    "Longitude": -85.32499702,
    "Confirmed": 35,
    "Deaths": 2,
    "Recovered": 0,
    "Active": 33,
    "Combined_Key": "Blackford, Indiana, US",
    "Incidence_Rate": 297.6696717128763,
    "Case-Fatality_Ratio": 5.714285714
  },
  {
    "FIPS": 37017,
    "County": "Bladen",
    "Province_State": "North Carolina",
    "Country_Region": "US",
    "Last_Update": "2020-06-30 04:33:48",
    "Latitude": 34.61296243,
    "Longitude": -78.56180059,
    "Confirmed": 366,
    "Deaths": 3,
    "Recovered": 0,
    "Active": 363,
    "Combined_Key": "Bladen, North Carolina, US",
    "Incidence_Rate": 1118.5135382922804,
    "Case-Fatality_Ratio": 0.8196721311
  },
  {
    "FIPS": 16013,
    "County": "Blaine",
    "Province_State": "Idaho",
    "Country_Region": "US",
    "Last_Update": "2020-06-30 04:33:48",
    "Latitude": 43.4085812,
    "Longitude": -113.9752658,
    "Confirmed": 532,
    "Deaths": 5,
    "Recovered": 0,
    "Active": 527,
    "Combined_Key": "Blaine, Idaho, US",
    "Incidence_Rate": 2310.933495504105,
    "Case-Fatality_Ratio": 0.9398496241
  },
  {
    "FIPS": 31009,
    "County": "Blaine",
    "Province_State": "Nebraska",
    "Country_Region": "US",
    "Last_Update": "2020-06-30 04:33:48",
    "Latitude": 41.91311716,
    "Longitude": -99.97677845,
    "Confirmed": 0,
    "Deaths": 0,
    "Recovered": 0,
    "Active": 0,
    "Combined_Key": "Blaine, Nebraska, US",
    "Incidence_Rate": 0,
    "Case-Fatality_Ratio": 0
  },
  {
    "FIPS": 40011,
    "County": "Blaine",
    "Province_State": "Oklahoma",
    "Country_Region": "US",
    "Last_Update": "2020-06-30 04:33:48",
    "Latitude": 35.87518314,
    "Longitude": -98.43307003,
    "Confirmed": 14,
    "Deaths": 0,
    "Recovered": 0,
    "Active": 14,
    "Combined_Key": "Blaine, Oklahoma, US",
    "Incidence_Rate": 148.47809948032662,
    "Case-Fatality_Ratio": 0
  },
  {
    "FIPS": 42013,
    "County": "Blair",
    "Province_State": "Pennsylvania",
    "Country_Region": "US",
    "Last_Update": "2020-06-30 04:33:48",
    "Latitude": 40.47961444,
    "Longitude": -78.34917412,
    "Confirmed": 72,
    "Deaths": 1,
    "Recovered": 0,
    "Active": 71,
    "Combined_Key": "Blair, Pennsylvania, US",
    "Incidence_Rate": 59.0992292475519,
    "Case-Fatality_Ratio": 1.388888889
  },
  {
    "FIPS": 48031,
    "County": "Blanco",
    "Province_State": "Texas",
    "Country_Region": "US",
    "Last_Update": "2020-06-30 04:33:48",
    "Latitude": 30.26640707,
    "Longitude": -98.3999852,
    "Confirmed": 27,
    "Deaths": 1,
    "Recovered": 0,
    "Active": 26,
    "Combined_Key": "Blanco, Texas, US",
    "Incidence_Rate": 226.3012320844858,
    "Case-Fatality_Ratio": 3.703703704
  },
  {
    "FIPS": 51021,
    "County": "Bland",
    "Province_State": "Virginia",
    "Country_Region": "US",
    "Last_Update": "2020-06-30 04:33:48",
    "Latitude": 37.13128068,
    "Longitude": -81.13599391,
    "Confirmed": 2,
    "Deaths": 0,
    "Recovered": 0,
    "Active": 2,
    "Combined_Key": "Bland, Virginia, US",
    "Incidence_Rate": 31.84713375796178,
    "Case-Fatality_Ratio": 0
  },
  {
    "FIPS": 13023,
    "County": "Bleckley",
    "Province_State": "Georgia",
    "Country_Region": "US",
    "Last_Update": "2020-06-30 04:33:48",
    "Latitude": 32.43829035,
    "Longitude": -83.33035166,
    "Confirmed": 58,
    "Deaths": 1,
    "Recovered": 0,
    "Active": 57,
    "Combined_Key": "Bleckley, Georgia, US",
    "Incidence_Rate": 450.55542608560546,
    "Case-Fatality_Ratio": 1.724137931
  },
  {
    "FIPS": 47007,
    "County": "Bledsoe",
    "Province_State": "Tennessee",
    "Country_Region": "US",
    "Last_Update": "2020-06-30 04:33:48",
    "Latitude": 35.59942968,
    "Longitude": -85.20611967,
    "Confirmed": 616,
    "Deaths": 1,
    "Recovered": 0,
    "Active": 615,
    "Combined_Key": "Bledsoe, Tennessee, US",
    "Incidence_Rate": 4089.219330855018,
    "Case-Fatality_Ratio": 0.1623376623
  },
  {
    "FIPS": 1009,
    "County": "Blount",
    "Province_State": "Alabama",
    "Country_Region": "US",
    "Last_Update": "2020-06-30 04:33:48",
    "Latitude": 33.98210918,
    "Longitude": -86.56790593,
    "Confirmed": 196,
    "Deaths": 1,
    "Recovered": 0,
    "Active": 195,
    "Combined_Key": "Blount, Alabama, US",
    "Incidence_Rate": 338.94787811710995,
    "Case-Fatality_Ratio": 0.5102040816
  },
  {
    "FIPS": 47009,
    "County": "Blount",
    "Province_State": "Tennessee",
    "Country_Region": "US",
    "Last_Update": "2020-06-30 04:33:48",
    "Latitude": 35.68938198,
    "Longitude": -83.92847788,
    "Confirmed": 162,
    "Deaths": 3,
    "Recovered": 0,
    "Active": 159,
    "Combined_Key": "Blount, Tennessee, US",
    "Incidence_Rate": 121.72397210867996,
    "Case-Fatality_Ratio": 1.851851852
  },
  {
    "FIPS": 27013,
    "County": "Blue Earth",
    "Province_State": "Minnesota",
    "Country_Region": "US",
    "Last_Update": "2020-06-30 04:33:48",
    "Latitude": 44.03554215,
    "Longitude": -94.06699781,
    "Confirmed": 377,
    "Deaths": 2,
    "Recovered": 0,
    "Active": 375,
    "Combined_Key": "Blue Earth, Minnesota, US",
    "Incidence_Rate": 557.2554062643194,
    "Case-Fatality_Ratio": 0.5305039788
  },
  {
    "FIPS": 16015,
    "County": "Boise",
    "Province_State": "Idaho",
    "Country_Region": "US",
    "Last_Update": "2020-06-30 04:33:48",
    "Latitude": 43.98829931,
    "Longitude": -115.7309284,
    "Confirmed": 4,
    "Deaths": 0,
    "Recovered": 0,
    "Active": 4,
    "Combined_Key": "Boise, Idaho, US",
    "Incidence_Rate": 51.07904482186183,
    "Case-Fatality_Ratio": 0
  },
  {
    "FIPS": 28011,
    "County": "Bolivar",
    "Province_State": "Mississippi",
    "Country_Region": "US",
    "Last_Update": "2020-06-30 04:33:48",
    "Latitude": 33.79696941,
    "Longitude": -90.87372121,
    "Confirmed": 254,
    "Deaths": 13,
    "Recovered": 0,
    "Active": 241,
    "Combined_Key": "Bolivar, Mississippi, US",
    "Incidence_Rate": 829.3065169126289,
    "Case-Fatality_Ratio": 5.118110236
  },
  {
    "FIPS": 29017,
    "County": "Bollinger",
    "Province_State": "Missouri",
    "Country_Region": "US",
    "Last_Update": "2020-06-30 04:33:48",
    "Latitude": 37.32449052,
    "Longitude": -90.02725304,
    "Confirmed": 12,
    "Deaths": 0,
    "Recovered": 0,
    "Active": 12,
    "Combined_Key": "Bollinger, Missouri, US",
    "Incidence_Rate": 98.90381603890215,
    "Case-Fatality_Ratio": 0
  },
  {
    "FIPS": 46009,
    "County": "Bon Homme",
    "Province_State": "South Dakota",
    "Country_Region": "US",
    "Last_Update": "2020-06-30 04:33:48",
    "Latitude": 42.98914167,
    "Longitude": -97.88592746,
    "Confirmed": 11,
    "Deaths": 0,
    "Recovered": 0,
    "Active": 11,
    "Combined_Key": "Bon Homme, South Dakota, US",
    "Incidence_Rate": 159.39718881321548,
    "Case-Fatality_Ratio": 0
  },
  {
    "FIPS": 17005,
    "County": "Bond",
    "Province_State": "Illinois",
    "Country_Region": "US",
    "Last_Update": "2020-06-30 04:33:48",
    "Latitude": 38.88829622,
    "Longitude": -89.43534887,
    "Confirmed": 13,
    "Deaths": 1,
    "Recovered": 0,
    "Active": 12,
    "Combined_Key": "Bond, Illinois, US",
    "Incidence_Rate": 79.14282235480336,
    "Case-Fatality_Ratio": 7.692307692
  },
  {
    "FIPS": 16017,
    "County": "Bonner",
    "Province_State": "Idaho",
    "Country_Region": "US",
    "Last_Update": "2020-06-30 04:33:48",
    "Latitude": 48.29996017,
    "Longitude": -116.6017932,
    "Confirmed": 31,
    "Deaths": 0,
    "Recovered": 0,
    "Active": 31,
    "Combined_Key": "Bonner, Idaho, US",
    "Incidence_Rate": 67.77585867640308,
    "Case-Fatality_Ratio": 0
  },
  {
    "FIPS": 16019,
    "County": "Bonneville",
    "Province_State": "Idaho",
    "Country_Region": "US",
    "Last_Update": "2020-06-30 04:33:48",
    "Latitude": 43.38713372,
    "Longitude": -111.6161537,
    "Confirmed": 113,
    "Deaths": 1,
    "Recovered": 0,
    "Active": 112,
    "Combined_Key": "Bonneville, Idaho, US",
    "Incidence_Rate": 94.90853504896609,
    "Case-Fatality_Ratio": 0.8849557522
  },
  {
    "FIPS": 5009,
    "County": "Boone",
    "Province_State": "Arkansas",
    "Country_Region": "US",
    "Last_Update": "2020-06-30 04:33:48",
    "Latitude": 36.3084504,
    "Longitude": -93.09374925,
    "Confirmed": 22,
    "Deaths": 1,
    "Recovered": 0,
    "Active": 21,
    "Combined_Key": "Boone, Arkansas, US",
    "Incidence_Rate": 58.773242145757635,
    "Case-Fatality_Ratio": 4.545454545
  },
  {
    "FIPS": 17007,
    "County": "Boone",
    "Province_State": "Illinois",
    "Country_Region": "US",
    "Last_Update": "2020-06-30 04:33:48",
    "Latitude": 42.32359279,
    "Longitude": -88.82345779,
    "Confirmed": 579,
    "Deaths": 21,
    "Recovered": 0,
    "Active": 558,
    "Combined_Key": "Boone, Illinois, US",
    "Incidence_Rate": 1081.353653070372,
    "Case-Fatality_Ratio": 3.626943005
  },
  {
    "FIPS": 18011,
    "County": "Boone",
    "Province_State": "Indiana",
    "Country_Region": "US",
    "Last_Update": "2020-06-30 04:33:48",
    "Latitude": 40.0509304,
    "Longitude": -86.46841646,
    "Confirmed": 416,
    "Deaths": 41,
    "Recovered": 0,
    "Active": 375,
    "Combined_Key": "Boone, Indiana, US",
    "Incidence_Rate": 613.1804312898897,
    "Case-Fatality_Ratio": 9.855769231
  },
  {
    "FIPS": 19015,
    "County": "Boone",
    "Province_State": "Iowa",
    "Country_Region": "US",
    "Last_Update": "2020-06-30 04:33:48",
    "Latitude": 42.03657094,
    "Longitude": -93.9313999,
    "Confirmed": 135,
    "Deaths": 1,
    "Recovered": 0,
    "Active": 134,
    "Combined_Key": "Boone, Iowa, US",
    "Incidence_Rate": 514.5993748570556,
    "Case-Fatality_Ratio": 0.7407407407
  },
  {
    "FIPS": 21015,
    "County": "Boone",
    "Province_State": "Kentucky",
    "Country_Region": "US",
    "Last_Update": "2020-06-30 04:33:48",
    "Latitude": 38.97065142,
    "Longitude": -84.72615357,
    "Confirmed": 594,
    "Deaths": 23,
    "Recovered": 0,
    "Active": 571,
    "Combined_Key": "Boone, Kentucky, US",
    "Incidence_Rate": 444.67401801154364,
    "Case-Fatality_Ratio": 3.872053872
  },
  {
    "FIPS": 29019,
    "County": "Boone",
    "Province_State": "Missouri",
    "Country_Region": "US",
    "Last_Update": "2020-06-30 04:33:48",
    "Latitude": 38.99186229,
    "Longitude": -92.30723575,
    "Confirmed": 313,
    "Deaths": 2,
    "Recovered": 0,
    "Active": 311,
    "Combined_Key": "Boone, Missouri, US",
    "Incidence_Rate": 173.44275557870586,
    "Case-Fatality_Ratio": 0.6389776358
  },
  {
    "FIPS": 31011,
    "County": "Boone",
    "Province_State": "Nebraska",
    "Country_Region": "US",
    "Last_Update": "2020-06-30 04:33:48",
    "Latitude": 41.70759415,
    "Longitude": -98.06737183,
    "Confirmed": 7,
    "Deaths": 0,
    "Recovered": 0,
    "Active": 7,
    "Combined_Key": "Boone, Nebraska, US",
    "Incidence_Rate": 134.82280431432974,
    "Case-Fatality_Ratio": 0
  },
  {
    "FIPS": 54005,
    "County": "Boone",
    "Province_State": "West Virginia",
    "Country_Region": "US",
    "Last_Update": "2020-06-30 04:33:48",
    "Latitude": 38.01974191,
    "Longitude": -81.69888019,
    "Confirmed": 20,
    "Deaths": 0,
    "Recovered": 0,
    "Active": 20,
    "Combined_Key": "Boone, West Virginia, US",
    "Incidence_Rate": 93.20967516428206,
    "Case-Fatality_Ratio": 0
  },
  {
    "FIPS": 48035,
    "County": "Bosque",
    "Province_State": "Texas",
    "Country_Region": "US",
    "Last_Update": "2020-06-30 04:33:48",
    "Latitude": 31.89978581,
    "Longitude": -97.63613524,
    "Confirmed": 13,
    "Deaths": 0,
    "Recovered": 0,
    "Active": 13,
    "Combined_Key": "Bosque, Texas, US",
    "Incidence_Rate": 69.57452502006957,
    "Case-Fatality_Ratio": 0
  },
  {
    "FIPS": 22015,
    "County": "Bossier",
    "Province_State": "Louisiana",
    "Country_Region": "US",
    "Last_Update": "2020-06-30 04:33:48",
    "Latitude": 32.67932307,
    "Longitude": -93.60460152,
    "Confirmed": 836,
    "Deaths": 29,
    "Recovered": 0,
    "Active": 807,
    "Combined_Key": "Bossier, Louisiana, US",
    "Incidence_Rate": 658.0656333881723,
    "Case-Fatality_Ratio": 3.468899522
  },
  {
    "FIPS": 51023,
    "County": "Botetourt",
    "Province_State": "Virginia",
    "Country_Region": "US",
    "Last_Update": "2020-06-30 04:33:48",
    "Latitude": 37.55531756,
    "Longitude": -79.80982182,
    "Confirmed": 86,
    "Deaths": 4,
    "Recovered": 0,
    "Active": 82,
    "Combined_Key": "Botetourt, Virginia, US",
    "Incidence_Rate": 257.3386396959813,
    "Case-Fatality_Ratio": 4.651162791
  },
  {
    "FIPS": 38009,
    "County": "Bottineau",
    "Province_State": "North Dakota",
    "Country_Region": "US",
    "Last_Update": "2020-06-30 04:33:48",
    "Latitude": 48.79106111,
    "Longitude": -100.8378166,
    "Confirmed": 5,
    "Deaths": 0,
    "Recovered": 0,
    "Active": 5,
    "Combined_Key": "Bottineau, North Dakota, US",
    "Incidence_Rate": 79.59248646927729,
    "Case-Fatality_Ratio": 0
  },
  {
    "FIPS": 8013,
    "County": "Boulder",
    "Province_State": "Colorado",
    "Country_Region": "US",
    "Last_Update": "2020-06-30 04:33:48",
    "Latitude": 40.09313619,
    "Longitude": -105.3546767,
    "Confirmed": 1367,
    "Deaths": 71,
    "Recovered": 0,
    "Active": 1296,
    "Combined_Key": "Boulder, Colorado, US",
    "Incidence_Rate": 419.07319525683937,
    "Case-Fatality_Ratio": 5.193855157
  },
  {
    "FIPS": 16021,
    "County": "Boundary",
    "Province_State": "Idaho",
    "Country_Region": "US",
    "Last_Update": "2020-06-30 04:33:48",
    "Latitude": 48.76684761,
    "Longitude": -116.4630179,
    "Confirmed": 1,
    "Deaths": 0,
    "Recovered": 0,
    "Active": 1,
    "Combined_Key": "Boundary, Idaho, US",
    "Incidence_Rate": 8.166598611678237,
    "Case-Fatality_Ratio": 0
  },