[
  {
    "FIPS": 45001,
    "County": "Abbeville",
    "Province_State": "South Carolina",
    "Country_Region": "US",
    "Last_Update": "2020-07-01 04:33:52",
    "Latitude": 34.22333378,
    "Longitude": -82.46170658,
    "Confirmed": 113,
    "Deaths": 0,
    "Recovered": 0,
    "Active": 113,
    "Combined_Key": "Abbeville, South Carolina, US",
    "Incidence_Rate": 460.7167611203979,
    "Case-Fatality_Ratio": 0
  },
  {
    "FIPS": 22001,
    "County": "Acadia",
    "Province_State": "Louisiana",
    "Country_Region": "US",
    "Last_Update": "2020-07-01 04:33:52",
    "Latitude": 30.2950649,
    "Longitude": -92.41419698,
    "Confirmed": 878,
    "Deaths": 36,
    "Recovered": 0,
    "Active": 842,
    "Combined_Key": "Acadia, Louisiana, US",
    "Incidence_Rate": 1415.1019421387703,
    "Case-Fatality_Ratio": 4.100227790432802
  },
  {
    "FIPS": 51001,
    "County": "Accomack",
    "Province_State": "Virginia",
    "Country_Region": "US",
    "Last_Update": "2020-07-01 04:33:52",
    "Latitude": 37.76707161,
    "Longitude": -75.63234615,
    "Confirmed": 1042,
    "Deaths": 14,
    "Recovered": 0,
    "Active": 1028,
    "Combined_Key": "Accomack, Virginia, US",
    "Incidence_Rate": 3224.4089615051366,
    "Case-Fatality_Ratio": 1.3435700575815739
  },
  {
    "FIPS": 16001,
    "County": "Ada",
    "Province_State": "Idaho",
    "Country_Region": "US",
    "Last_Update": "2020-07-01 04:33:52",
    "Latitude": 43.4526575,
    "Longitude": -116.24155159999998,
    "Confirmed": 2169,
    "Deaths": 23,
    "Recovered": 0,
    "Active": 2146,
    "Combined_Key": "Ada, Idaho, US",
    "Incidence_Rate": 450.38591157983916,
    "Case-Fatality_Ratio": 1.0603964960811434
  },
  {
    "FIPS": 19001,
    "County": "Adair",
    "Province_State": "Iowa",
    "Country_Region": "US",
    "Last_Update": "2020-07-01 04:33:52",
    "Latitude": 41.33075609,
    "Longitude": -94.47105874,
    "Confirmed": 15,
    "Deaths": 0,
    "Recovered": 0,
    "Active": 15,
    "Combined_Key": "Adair, Iowa, US",
    "Incidence_Rate": 209.73154362416108,
    "Case-Fatality_Ratio": 0
  },
  {
    "FIPS": 21001,
    "County": "Adair",
    "Province_State": "Kentucky",
    "Country_Region": "US",
    "Last_Update": "2020-07-01 04:33:52",
    "Latitude": 37.10459774,
    "Longitude": -85.28129668,
    "Confirmed": 117,
    "Deaths": 19,
    "Recovered": 0,
    "Active": 98,
    "Combined_Key": "Adair, Kentucky, US",
    "Incidence_Rate": 609.3115300489533,
    "Case-Fatality_Ratio": 16.23931623931624
  },
  {
    "FIPS": 29001,
    "County": "Adair",
    "Province_State": "Missouri",
    "Country_Region": "US",
    "Last_Update": "2020-07-01 04:33:52",
    "Latitude": 40.19058551,
    "Longitude": -92.60078167,
    "Confirmed": 90,
    "Deaths": 0,
    "Recovered": 0,
    "Active": 90,
    "Combined_Key": "Adair, Missouri, US",
    "Incidence_Rate": 355.1276486603796,
    "Case-Fatality_Ratio": 0
  },
  {
    "FIPS": 40001,
    "County": "Adair",
    "Province_State": "Oklahoma",
    "Country_Region": "US",
    "Last_Update": "2020-07-01 04:33:52",
    "Latitude": 35.88494195,
    "Longitude": -94.65859267,
    "Confirmed": 115,
    "Deaths": 4,
    "Recovered": 0,
    "Active": 111,
    "Combined_Key": "Adair, Oklahoma, US",
    "Incidence_Rate": 518.1580607371361,
    "Case-Fatality_Ratio": 3.4782608695652173
  },
  {
    "FIPS": 8001,
    "County": "Adams",
    "Province_State": "Colorado",
    "Country_Region": "US",
    "Last_Update": "2020-07-01 04:33:52",
    "Latitude": 39.87432092,
    "Longitude": -104.3362578,
    "Confirmed": 4185,
    "Deaths": 155,
    "Recovered": 0,
    "Active": 4030,
    "Combined_Key": "Adams, Colorado, US",
    "Incidence_Rate": 808.8191240788449,
    "Case-Fatality_Ratio": 3.7037037037037037
  },
  {
    "FIPS": 16003,
    "County": "Adams",
    "Province_State": "Idaho",
    "Country_Region": "US",
    "Last_Update": "2020-07-01 04:33:52",
    "Latitude": 44.89333571,
    "Longitude": -116.4545247,
    "Confirmed": 11,
    "Deaths": 0,
    "Recovered": 0,
    "Active": 11,
    "Combined_Key": "Adams, Idaho, US",
    "Incidence_Rate": 256.171401956218,
    "Case-Fatality_Ratio": 0
  },
  {
    "FIPS": 17001,
    "County": "Adams",
    "Province_State": "Illinois",
    "Country_Region": "US",
    "Last_Update": "2020-07-01 04:33:52",
    "Latitude": 39.98815591,
    "Longitude": -91.18786813,
    "Confirmed": 87,
    "Deaths": 1,
    "Recovered": 0,
    "Active": 86,
    "Combined_Key": "Adams, Illinois, US",
    "Incidence_Rate": 132.9563689157179,
    "Case-Fatality_Ratio": 1.1494252873563218
  },
  {
    "FIPS": 18001,
    "County": "Adams",
    "Province_State": "Indiana",
    "Country_Region": "US",
    "Last_Update": "2020-07-01 04:33:52",
    "Latitude": 40.7457653,
    "Longitude": -84.93671406,
    "Confirmed": 45,
    "Deaths": 1,
    "Recovered": 0,
    "Active": 44,
    "Combined_Key": "Adams, Indiana, US",
    "Incidence_Rate": 125.77913184448109,
    "Case-Fatality_Ratio": 2.2222222222222223
  },
  {
    "FIPS": 19003,
    "County": "Adams",
    "Province_State": "Iowa",
    "Country_Region": "US",
    "Last_Update": "2020-07-01 04:33:52",
    "Latitude": 41.02903567,
    "Longitude": -94.69932645,
    "Confirmed": 8,
    "Deaths": 0,
    "Recovered": 0,
    "Active": 8,
    "Combined_Key": "Adams, Iowa, US",
    "Incidence_Rate": 222.0988339811216,
    "Case-Fatality_Ratio": 0
  },
  {
    "FIPS": 28001,
    "County": "Adams",
    "Province_State": "Mississippi",
    "Country_Region": "US",
    "Last_Update": "2020-07-01 04:33:52",
    "Latitude": 31.47669768,
    "Longitude": -91.35326037,
    "Confirmed": 263,
    "Deaths": 18,
    "Recovered": 0,
    "Active": 245,
    "Combined_Key": "Adams, Mississippi, US",
    "Incidence_Rate": 856.8729026162317,
    "Case-Fatality_Ratio": 6.844106463878327
  },
  {
    "FIPS": 31001,
    "County": "Adams",
    "Province_State": "Nebraska",
    "Country_Region": "US",
    "Last_Update": "2020-07-01 04:33:52",
    "Latitude": 40.52449420000001,
    "Longitude": -98.50117804,
    "Confirmed": 294,
    "Deaths": 11,
    "Recovered": 0,
    "Active": 283,
    "Combined_Key": "Adams, Nebraska, US",
    "Incidence_Rate": 937.4103242674489,
    "Case-Fatality_Ratio": 3.741496598639456
  },
  {
    "FIPS": 39001,
    "County": "Adams",
    "Province_State": "Ohio",
    "Country_Region": "US",
    "Last_Update": "2020-07-01 04:33:52",
    "Latitude": 38.84541072,
    "Longitude": -83.4718964,
    "Confirmed": 21,
    "Deaths": 1,
    "Recovered": 0,
    "Active": 20,
    "Combined_Key": "Adams, Ohio, US",
    "Incidence_Rate": 75.81774857390425,
    "Case-Fatality_Ratio": 4.761904761904762
  },
  {
    "FIPS": 42001,
    "County": "Adams",
    "Province_State": "Pennsylvania",
    "Country_Region": "US",
    "Last_Update": "2020-07-01 04:33:52",
    "Latitude": 39.87140411,
    "Longitude": -77.21610347,
    "Confirmed": 339,
    "Deaths": 12,
    "Recovered": 0,
    "Active": 327,
    "Combined_Key": "Adams, Pennsylvania, US",
    "Incidence_Rate": 329.09745750371326,
    "Case-Fatality_Ratio": 3.5398230088495577
  },
  {
    "FIPS": 53001,
    "County": "Adams",
    "Province_State": "Washington",
    "Country_Region": "US",
    "Last_Update": "2020-07-01 04:33:52",
    "Latitude": 46.98299757,
    "Longitude": -118.5601734,
    "Confirmed": 134,
    "Deaths": 0,
    "Recovered": 0,
    "Active": 134,
    "Combined_Key": "Adams, Washington, US",
    "Incidence_Rate": 670.5699844868138,
    "Case-Fatality_Ratio": 0
  },
  {
    "FIPS": 55001,
    "County": "Adams",
    "Province_State": "Wisconsin",
    "Country_Region": "US",
    "Last_Update": "2020-07-01 04:33:52",
    "Latitude": 43.96974651,
    "Longitude": -89.76782777,
    "Confirmed": 19,
    "Deaths": 2,
    "Recovered": 0,
    "Active": 17,
    "Combined_Key": "Adams, Wisconsin, US",
    "Incidence_Rate": 93.96636993076162,
    "Case-Fatality_Ratio": 10.526315789473685
  },
  {
    "FIPS": 50001,
    "County": "Addison",
    "Province_State": "Vermont",
    "Country_Region": "US",
    "Last_Update": "2020-07-01 04:33:52",
    "Latitude": 44.03217337,
    "Longitude": -73.14130877,
    "Confirmed": 68,
    "Deaths": 2,
    "Recovered": 0,
    "Active": 66,
    "Combined_Key": "Addison, Vermont, US",
    "Incidence_Rate": 184.89817005193464,
    "Case-Fatality_Ratio": 2.9411764705882355
  },
  {
    "FIPS": 45003,
    "County": "Aiken",
    "Province_State": "South Carolina",
    "Country_Region": "US",
    "Last_Update": "2020-07-01 04:33:52",
    "Latitude": 33.54338026,
    "Longitude": -81.63645384,
    "Confirmed": 387,
    "Deaths": 10,
    "Recovered": 0,
    "Active": 377,
    "Combined_Key": "Aiken, South Carolina, US",
    "Incidence_Rate": 226.4853223465518,
    "Case-Fatality_Ratio": 2.5839793281653747
  },
  {
    "FIPS": 27001,
    "County": "Aitkin",
    "Province_State": "Minnesota",
    "Country_Region": "US",
    "Last_Update": "2020-07-01 04:33:52",
    "Latitude": 46.60962049,
    "Longitude": -93.4116826,
    "Confirmed": 14,
    "Deaths": 0,
    "Recovered": 0,
    "Active": 14,
    "Combined_Key": "Aitkin, Minnesota, US",
    "Incidence_Rate": 88.12791136850056,
    "Case-Fatality_Ratio": 0
  },
  {
    "FIPS": 12001,
    "County": "Alachua",
    "Province_State": "Florida",
    "Country_Region": "US",
    "Last_Update": "2020-07-01 04:33:52",
    "Latitude": 29.67866525,
    "Longitude": -82.35928158,
    "Confirmed": 1197,
    "Deaths": 12,
    "Recovered": 0,
    "Active": 1185,
    "Combined_Key": "Alachua, Florida, US",
    "Incidence_Rate": 444.9102931501656,
    "Case-Fatality_Ratio": 1.0025062656641603
  },
  {
    "FIPS": 37001,
    "County": "Alamance",
    "Province_State": "North Carolina",
    "Country_Region": "US",
    "Last_Update": "2020-07-01 04:33:52",
    "Latitude": 36.0434701,
    "Longitude": -79.39976137,
    "Confirmed": 1146,
    "Deaths": 37,
    "Recovered": 0,
    "Active": 1109,
    "Combined_Key": "Alamance, North Carolina, US",
    "Incidence_Rate": 676.0702971523635,
    "Case-Fatality_Ratio": 3.2286212914485164
  },
  {
    "FIPS": 6001,
    "County": "Alameda",
    "Province_State": "California",
    "Country_Region": "US",
    "Last_Update": "2020-07-01 04:33:52",
    "Latitude": 37.64629437,
    "Longitude": -121.8929271,
    "Confirmed": 5964,
    "Deaths": 135,
    "Recovered": 0,
    "Active": 5829,
    "Combined_Key": "Alameda, California, US",
    "Incidence_Rate": 356.84177083027936,
    "Case-Fatality_Ratio": 2.2635814889336014
  },
  {
    "FIPS": 8003,
    "County": "Alamosa",
    "Province_State": "Colorado",
    "Country_Region": "US",
    "Last_Update": "2020-07-01 04:33:52",
    "Latitude": 37.57250606,
    "Longitude": -105.7885451,
    "Confirmed": 191,
    "Deaths": 3,
    "Recovered": 0,
    "Active": 188,
    "Combined_Key": "Alamosa, Colorado, US",
    "Incidence_Rate": 1176.6155362533111,
    "Case-Fatality_Ratio": 1.5706806282722514
  },
  {
    "FIPS": 36001,
    "County": "Albany",
    "Province_State": "New York",
    "Country_Region": "US",
    "Last_Update": "2020-07-01 04:33:52",
    "Latitude": 42.60060306,
    "Longitude": -73.97723916,
    "Confirmed": 2102,
    "Deaths": 121,
    "Recovered": 0,
    "Active": 1981,
    "Combined_Key": "Albany, New York, US",
    "Incidence_Rate": 688.0388601205868,
    "Case-Fatality_Ratio": 5.756422454804948
  },
  {
    "FIPS": 56001,
    "County": "Albany",
    "Province_State": "Wyoming",
    "Country_Region": "US",
    "Last_Update": "2020-07-01 04:33:52",
    "Latitude": 41.65498705,
    "Longitude": -105.7235415,
    "Confirmed": 34,
    "Deaths": 0,
    "Recovered": 0,
    "Active": 34,
    "Combined_Key": "Albany, Wyoming, US",
    "Incidence_Rate": 87.44855967078189,
    "Case-Fatality_Ratio": 0
  },
  {
    "FIPS": 51003,
    "County": "Albemarle",
    "Province_State": "Virginia",
    "Country_Region": "US",
    "Last_Update": "2020-07-01 04:33:52",
    "Latitude": 38.02080697,
    "Longitude": -78.55481085,
    "Confirmed": 401,
    "Deaths": 8,
    "Recovered": 0,
    "Active": 393,
    "Combined_Key": "Albemarle, Virginia, US",
    "Incidence_Rate": 366.7794749839934,
    "Case-Fatality_Ratio": 1.9950124688279303
  },
  {
    "FIPS": 26001,
    "County": "Alcona",
    "Province_State": "Michigan",
    "Country_Region": "US",
    "Last_Update": "2020-07-01 04:33:52",
    "Latitude": 44.6846864,
    "Longitude": -83.59507875,
    "Confirmed": 22,
    "Deaths": 1,
    "Recovered": 0,
    "Active": 21,
    "Combined_Key": "Alcona, Michigan, US",
    "Incidence_Rate": 211.43680922633348,
    "Case-Fatality_Ratio": 4.545454545454546
  },
  {
    "FIPS": 28003,
    "County": "Alcorn",
    "Province_State": "Mississippi",
    "Country_Region": "US",
    "Last_Update": "2020-07-01 04:33:52",
    "Latitude": 34.88084463,
    "Longitude": -88.57996173,
    "Confirmed": 55,
    "Deaths": 1,
    "Recovered": 0,
    "Active": 54,
    "Combined_Key": "Alcorn, Mississippi, US",
    "Incidence_Rate": 148.83771277027574,
    "Case-Fatality_Ratio": 1.8181818181818181
  },
  {
    "FIPS": 17003,
    "County": "Alexander",
    "Province_State": "Illinois",
    "Country_Region": "US",
    "Last_Update": "2020-07-01 04:33:52",
    "Latitude": 37.18049267,
    "Longitude": -89.32910838,
    "Confirmed": 22,
    "Deaths": 0,
    "Recovered": 0,
    "Active": 22,
    "Combined_Key": "Alexander, Illinois, US",
    "Incidence_Rate": 381.8781461551814,
    "Case-Fatality_Ratio": 0
  },
  {
    "FIPS": 37003,
    "County": "Alexander",
    "Province_State": "North Carolina",
    "Country_Region": "US",
    "Last_Update": "2020-07-01 04:33:52",
    "Latitude": 35.922379600000006,
    "Longitude": -81.17751948,
    "Confirmed": 91,
    "Deaths": 1,
    "Recovered": 0,
    "Active": 90,
    "Combined_Key": "Alexander, North Carolina, US",
    "Incidence_Rate": 242.68608155319092,
    "Case-Fatality_Ratio": 1.098901098901099
  },
  {
    "FIPS": 51510,
    "County": "Alexandria",
    "Province_State": "Virginia",
    "Country_Region": "US",
    "Last_Update": "2020-07-01 04:33:52",
    "Latitude": 38.814003,
    "Longitude": -77.08183073,
    "Confirmed": 2325,
    "Deaths": 57,
    "Recovered": 0,
    "Active": 2268,
    "Combined_Key": "Alexandria, Virginia, US",
    "Incidence_Rate": 1458.338560353263,
    "Case-Fatality_Ratio": 2.4516129032258065
  },
  {
    "FIPS": 40003,
    "County": "Alfalfa",
    "Province_State": "Oklahoma",
    "Country_Region": "US",
    "Last_Update": "2020-07-01 04:33:52",
    "Latitude": 36.73090616,
    "Longitude": -98.32408495,
    "Confirmed": 1,
    "Deaths": 0,
    "Recovered": 0,
    "Active": 1,
    "Combined_Key": "Alfalfa, Oklahoma, US",
    "Incidence_Rate": 17.5377060680463,
    "Case-Fatality_Ratio": 0
  },
  {
    "FIPS": 26003,
    "County": "Alger",
    "Province_State": "Michigan",
    "Country_Region": "US",
    "Last_Update": "2020-07-01 04:33:52",
    "Latitude": 46.41292944,
    "Longitude": -86.60260122,
    "Confirmed": 3,
    "Deaths": 0,
    "Recovered": 0,
    "Active": 3,
    "Combined_Key": "Alger, Michigan, US",
    "Incidence_Rate": 32.93807641633729,
    "Case-Fatality_Ratio": 0
  },
  {
    "FIPS": 19005,
    "County": "Allamakee",
    "Province_State": "Iowa",
    "Country_Region": "US",
    "Last_Update": "2020-07-01 04:33:52",
    "Latitude": 43.28383218,
    "Longitude": -91.37860922,
    "Confirmed": 124,
    "Deaths": 4,
    "Recovered": 0,
    "Active": 120,
    "Combined_Key": "Allamakee, Iowa, US",
    "Incidence_Rate": 905.9691678234822,
    "Case-Fatality_Ratio": 3.225806451612903
  },
  {
    "FIPS": 26005,
    "County": "Allegan",
    "Province_State": "Michigan",
    "Country_Region": "US",
    "Last_Update": "2020-07-01 04:33:52",
    "Latitude": 42.59147037,
    "Longitude": -85.89102866,
    "Confirmed": 312,
    "Deaths": 7,
    "Recovered": 0,
    "Active": 305,
    "Combined_Key": "Allegan, Michigan, US",
    "Incidence_Rate": 264.2254045951508,
    "Case-Fatality_Ratio": 2.2435897435897436
  },
  {
    "FIPS": 24001,
    "County": "Allegany",
    "Province_State": "Maryland",
    "Country_Region": "US",
    "Last_Update": "2020-07-01 04:33:52",
    "Latitude": 39.62357628,
    "Longitude": -78.69280486,
    "Confirmed": 205,
    "Deaths": 17,
    "Recovered": 0,
    "Active": 188,
    "Combined_Key": "Allegany, Maryland, US",
    "Incidence_Rate": 291.1270165871393,
    "Case-Fatality_Ratio": 8.292682926829269
  },
  {
    "FIPS": 36003,
    "County": "Allegany",
    "Province_State": "New York",
    "Country_Region": "US",
    "Last_Update": "2020-07-01 04:33:52",
    "Latitude": 42.25748406,
    "Longitude": -78.02750466,
    "Confirmed": 59,
    "Deaths": 0,
    "Recovered": 0,
    "Active": 59,
    "Combined_Key": "Allegany, New York, US",
    "Incidence_Rate": 128.0076370658046,
    "Case-Fatality_Ratio": 0
  },
  {
    "FIPS": 37005,
    "County": "Alleghany",
    "Province_State": "North Carolina",
    "Country_Region": "US",
    "Last_Update": "2020-07-01 04:33:52",
    "Latitude": 36.49360862,
    "Longitude": -81.12857041,
    "Confirmed": 31,
    "Deaths": 0,
    "Recovered": 0,
    "Active": 31,
    "Combined_Key": "Alleghany, North Carolina, US",
    "Incidence_Rate": 278.3514411421388,
    "Case-Fatality_Ratio": 0
  },
  {
    "FIPS": 51005,
    "County": "Alleghany",
    "Province_State": "Virginia",
    "Country_Region": "US",
    "Last_Update": "2020-07-01 04:33:52",
    "Latitude": 37.78636074,
    "Longitude": -80.00222498,
    "Confirmed": 31,
    "Deaths": 2,
    "Recovered": 0,
    "Active": 29,
    "Combined_Key": "Alleghany, Virginia, US",
    "Incidence_Rate": 208.61372812920592,
    "Case-Fatality_Ratio": 6.451612903225806
  },
  {
    "FIPS": 42003,
    "County": "Allegheny",
    "Province_State": "Pennsylvania",
    "Country_Region": "US",
    "Last_Update": "2020-07-01 04:33:52",
    "Latitude": 40.46809875,
    "Longitude": -79.98167747,
    "Confirmed": 2760,
    "Deaths": 183,
    "Recovered": 0,
    "Active": 2577,
    "Combined_Key": "Allegheny, Pennsylvania, US",
    "Incidence_Rate": 226.96528500178857,
    "Case-Fatality_Ratio": 6.630434782608695
  },
  {
    "FIPS": 18003,
    "County": "Allen",
    "Province_State": "Indiana",
    "Country_Region": "US",
    "Last_Update": "2020-07-01 04:33:52",
    "Latitude": 41.09194313,
    "Longitude": -85.06800636,
    "Confirmed": 2649,
    "Deaths": 110,
    "Recovered": 0,
    "Active": 2539,
    "Combined_Key": "Allen, Indiana, US",
    "Incidence_Rate": 698.3936155908663,
    "Case-Fatality_Ratio": 4.152510381275953
  },
  {
    "FIPS": 20001,
    "County": "Allen",
    "Province_State": "Kansas",
    "Country_Region": "US",
    "Last_Update": "2020-07-01 04:33:52",
    "Latitude": 37.88582951,
    "Longitude": -95.30030847,
    "Confirmed": 4,
    "Deaths": 0,
    "Recovered": 0,
    "Active": 4,
    "Combined_Key": "Allen, Kansas, US",
    "Incidence_Rate": 32.338911795618074,
    "Case-Fatality_Ratio": 0
  },
  {
    "FIPS": 21003,
    "County": "Allen",
    "Province_State": "Kentucky",
    "Country_Region": "US",
    "Last_Update": "2020-07-01 04:33:52",
    "Latitude": 36.75197631,
    "Longitude": -86.19457544,
    "Confirmed": 166,
    "Deaths": 5,
    "Recovered": 0,
    "Active": 161,
    "Combined_Key": "Allen, Kentucky, US",
    "Incidence_Rate": 778.7942763312221,
    "Case-Fatality_Ratio": 3.0120481927710845
  },
  {
    "FIPS": 22003,
    "County": "Allen",
    "Province_State": "Louisiana",
    "Country_Region": "US",
    "Last_Update": "2020-07-01 04:33:52",
    "Latitude": 30.65385745,
    "Longitude": -92.82442028,
    "Confirmed": 304,
    "Deaths": 10,
    "Recovered": 0,
    "Active": 294,
    "Combined_Key": "Allen, Louisiana, US",
    "Incidence_Rate": 1186.2488781363406,
    "Case-Fatality_Ratio": 3.289473684210526
  },
  {
    "FIPS": 39003,
    "County": "Allen",
    "Province_State": "Ohio",
    "Country_Region": "US",
    "Last_Update": "2020-07-01 04:33:52",
    "Latitude": 40.77285242,
    "Longitude": -84.10802343,
    "Confirmed": 293,
    "Deaths": 38,
    "Recovered": 0,
    "Active": 255,
    "Combined_Key": "Allen, Ohio, US",
    "Incidence_Rate": 286.269797070864,
    "Case-Fatality_Ratio": 12.969283276450511
  },
  {
    "FIPS": 45005,
    "County": "Allendale",
    "Province_State": "South Carolina",
    "Country_Region": "US",
    "Last_Update": "2020-07-01 04:33:52",
    "Latitude": 32.98837386,
    "Longitude": -81.35321066,
    "Confirmed": 48,
    "Deaths": 3,
    "Recovered": 0,
    "Active": 45,
    "Combined_Key": "Allendale, South Carolina, US",
    "Incidence_Rate": 552.4861878453039,
    "Case-Fatality_Ratio": 6.25
  },
  {
    "FIPS": 26007,
    "County": "Alpena",
    "Province_State": "Michigan",
    "Country_Region": "US",
    "Last_Update": "2020-07-01 04:33:52",
    "Latitude": 45.03477666,
    "Longitude": -83.62212411,
    "Confirmed": 120,
    "Deaths": 11,
    "Recovered": 0,
    "Active": 109,
    "Combined_Key": "Alpena, Michigan, US",
    "Incidence_Rate": 422.4608343601479,
    "Case-Fatality_Ratio": 9.166666666666666
  },
  {
    "FIPS": 6003,
    "County": "Alpine",
    "Province_State": "California",
    "Country_Region": "US",
    "Last_Update": "2020-07-01 04:33:52",
    "Latitude": 38.59678594,
    "Longitude": -119.8223594,
    "Confirmed": 2,
    "Deaths": 0,
    "Recovered": 0,
    "Active": 2,
    "Combined_Key": "Alpine, California, US",
    "Incidence_Rate": 177.14791851195747,
    "Case-Fatality_Ratio": 0
  },
  {
    "FIPS": 6005,
    "County": "Amador",
    "Province_State": "California",
    "Country_Region": "US",
    "Last_Update": "2020-07-01 04:33:52",
    "Latitude": 38.44583082,
    "Longitude": -120.65696,
    "Confirmed": 22,
    "Deaths": 0,
    "Recovered": 0,
    "Active": 22,
    "Combined_Key": "Amador, California, US",
    "Incidence_Rate": 55.343127389816864,
    "Case-Fatality_Ratio": 0
  },
  {
    "FIPS": 51007,
    "County": "Amelia",
    "Province_State": "Virginia",
    "Country_Region": "US",
    "Last_Update": "2020-07-01 04:33:52",
    "Latitude": 37.34081025,
    "Longitude": -77.98584649,
    "Confirmed": 44,
    "Deaths": 1,
    "Recovered": 0,
    "Active": 43,
    "Combined_Key": "Amelia, Virginia, US",
    "Incidence_Rate": 334.72803347280336,
    "Case-Fatality_Ratio": 2.272727272727273
  },
  {
    "FIPS": 51009,
    "County": "Amherst",
    "Province_State": "Virginia",
    "Country_Region": "US",
    "Last_Update": "2020-07-01 04:33:52",
    "Latitude": 37.60308293,
    "Longitude": -79.14548696,
    "Confirmed": 36,
    "Deaths": 0,
    "Recovered": 0,
    "Active": 36,
    "Combined_Key": "Amherst, Virginia, US",
    "Incidence_Rate": 113.90602752728998,
    "Case-Fatality_Ratio": 0
  },
  {
    "FIPS": 28005,
    "County": "Amite",
    "Province_State": "Mississippi",
    "Country_Region": "US",
    "Last_Update": "2020-07-01 04:33:52",
    "Latitude": 31.17467303,
    "Longitude": -90.80501621,
    "Confirmed": 81,
    "Deaths": 2,
    "Recovered": 0,
    "Active": 79,
    "Combined_Key": "Amite, Mississippi, US",
    "Incidence_Rate": 658.6972432300561,
    "Case-Fatality_Ratio": 2.4691358024691357
  },
  {
    "FIPS": 2020,
    "County": "Anchorage",
    "Province_State": "Alaska",
    "Country_Region": "US",
    "Last_Update": "2020-07-01 04:33:52",
    "Latitude": 61.14998174,
    "Longitude": -149.14269860000005,
    "Confirmed": 440,
    "Deaths": 6,
    "Recovered": 0,
    "Active": 434,
    "Combined_Key": "Anchorage, Alaska, US",
    "Incidence_Rate": 152.77777777777777,
    "Case-Fatality_Ratio": 1.3636363636363635
  },
  {
    "FIPS": 20003,
    "County": "Anderson",
    "Province_State": "Kansas",
    "Country_Region": "US",
    "Last_Update": "2020-07-01 04:33:52",
    "Latitude": 38.21413251,
    "Longitude": -95.29272815,
    "Confirmed": 4,
    "Deaths": 0,
    "Recovered": 0,
    "Active": 4,
    "Combined_Key": "Anderson, Kansas, US",
    "Incidence_Rate": 50.903537795876815,
    "Case-Fatality_Ratio": 0
  },
  {
    "FIPS": 21005,
    "County": "Anderson",
    "Province_State": "Kentucky",
    "Country_Region": "US",
    "Last_Update": "2020-07-01 04:33:52",
    "Latitude": 38.00671029,
    "Longitude": -84.99171713,
    "Confirmed": 26,
    "Deaths": 1,
    "Recovered": 0,
    "Active": 25,
    "Combined_Key": "Anderson, Kentucky, US",
    "Incidence_Rate": 114.30078691695608,
    "Case-Fatality_Ratio": 3.8461538461538463
  },
  {
    "FIPS": 45007,
    "County": "Anderson",
    "Province_State": "South Carolina",
    "Country_Region": "US",
    "Last_Update": "2020-07-01 04:33:52",
    "Latitude": 34.51828081,
    "Longitude": -82.63959517,
    "Confirmed": 608,
    "Deaths": 11,
    "Recovered": 0,
    "Active": 597,
    "Combined_Key": "Anderson, South Carolina, US",
    "Incidence_Rate": 300.1609415574798,
    "Case-Fatality_Ratio": 1.8092105263157894
  },
  {
    "FIPS": 47001,
    "County": "Anderson",
    "Province_State": "Tennessee",
    "Country_Region": "US",
    "Last_Update": "2020-07-01 04:33:52",
    "Latitude": 36.12684348,
    "Longitude": -84.19965764,
    "Confirmed": 102,
    "Deaths": 2,
    "Recovered": 0,
    "Active": 100,
    "Combined_Key": "Anderson, Tennessee, US",
    "Incidence_Rate": 132.5053911507184,
    "Case-Fatality_Ratio": 1.9607843137254901
  },
  {
    "FIPS": 48001,
    "County": "Anderson",
    "Province_State": "Texas",
    "Country_Region": "US",
    "Last_Update": "2020-07-01 04:33:52",
    "Latitude": 31.81534745,
    "Longitude": -95.65354823,
    "Confirmed": 1032,
    "Deaths": 2,
    "Recovered": 0,
    "Active": 1030,
    "Combined_Key": "Anderson, Texas, US",
    "Incidence_Rate": 1787.4772668225512,
    "Case-Fatality_Ratio": 0.1937984496124031
  },
  {
    "FIPS": 29003,
    "County": "Andrew",
    "Province_State": "Missouri",
    "Country_Region": "US",
    "Last_Update": "2020-07-01 04:33:52",
    "Latitude": 39.98492163,
    "Longitude": -94.80163024,
    "Confirmed": 49,
    "Deaths": 0,
    "Recovered": 0,
    "Active": 49,
    "Combined_Key": "Andrew, Missouri, US",
    "Incidence_Rate": 276.64859981933154,
    "Case-Fatality_Ratio": 0
  },
  {
    "FIPS": 48003,
    "County": "Andrews",
    "Province_State": "Texas",
    "Country_Region": "US",
    "Last_Update": "2020-07-01 04:33:52",
    "Latitude": 32.30468633,
    "Longitude": -102.6376548,
    "Confirmed": 75,
    "Deaths": 0,
    "Recovered": 0,
    "Active": 75,
    "Combined_Key": "Andrews, Texas, US",
    "Incidence_Rate": 400.962309542903,
    "Case-Fatality_Ratio": 0
  },
  {
    "FIPS": 23001,
    "County": "Androscoggin",
    "Province_State": "Maine",
    "Country_Region": "US",
    "Last_Update": "2020-07-01 04:33:52",
    "Latitude": 44.1664747,
    "Longitude": -70.20380627,
    "Confirmed": 483,
    "Deaths": 4,
    "Recovered": 0,
    "Active": 479,
    "Combined_Key": "Androscoggin, Maine, US",
    "Incidence_Rate": 446.078114465676,
    "Case-Fatality_Ratio": 0.8281573498964804
  },
  {
    "FIPS": 48005,
    "County": "Angelina",
    "Province_State": "Texas",
    "Country_Region": "US",
    "Last_Update": "2020-07-01 04:33:52",
    "Latitude": 31.25457347,
    "Longitude": -94.60901487,
    "Confirmed": 476,
    "Deaths": 6,
    "Recovered": 0,
    "Active": 470,
    "Combined_Key": "Angelina, Texas, US",
    "Incidence_Rate": 548.924638182552,
    "Case-Fatality_Ratio": 1.2605042016806722
  },
  {
    "FIPS": 24003,
    "County": "Anne Arundel",
    "Province_State": "Maryland",
    "Country_Region": "US",
    "Last_Update": "2020-07-01 04:33:52",
    "Latitude": 39.00670238,
    "Longitude": -76.60329337,
    "Confirmed": 5109,
    "Deaths": 207,
    "Recovered": 0,
    "Active": 4902,
    "Combined_Key": "Anne Arundel, Maryland, US",
    "Incidence_Rate": 882.0269528377132,
    "Case-Fatality_Ratio": 4.051673517322373
  },
  {
    "FIPS": 27003,
    "County": "Anoka",
    "Province_State": "Minnesota",
    "Country_Region": "US",
    "Last_Update": "2020-07-01 04:33:52",
    "Latitude": 45.27476015,
    "Longitude": -93.24604565,
    "Confirmed": 2097,
    "Deaths": 107,
    "Recovered": 0,
    "Active": 1990,
    "Combined_Key": "Anoka, Minnesota, US",
    "Incidence_Rate": 587.5249705116819,
    "Case-Fatality_Ratio": 5.1025274201239865
  },
  {
    "FIPS": 37007,
    "County": "Anson",
    "Province_State": "North Carolina",
    "Country_Region": "US",
    "Last_Update": "2020-07-01 04:33:52",
    "Latitude": 34.97403241,
    "Longitude": -80.09953279,
    "Confirmed": 128,
    "Deaths": 2,
    "Recovered": 0,
    "Active": 126,
    "Combined_Key": "Anson, North Carolina, US",
    "Incidence_Rate": 523.60304344269,
    "Case-Fatality_Ratio": 1.5625
  },
  {
    "FIPS": 31003,
    "County": "Antelope",
    "Province_State": "Nebraska",
    "Country_Region": "US",
    "Last_Update": "2020-07-01 04:33:52",
    "Latitude": 42.17695516,
    "Longitude": -98.0666283,
    "Confirmed": 9,
    "Deaths": 1,
    "Recovered": 0,
    "Active": 8,
    "Combined_Key": "Antelope, Nebraska, US",
    "Incidence_Rate": 142.9025087329311,
    "Case-Fatality_Ratio": 11.11111111111111
  },
  {
    "FIPS": 26009,
    "County": "Antrim",
    "Province_State": "Michigan",
    "Country_Region": "US",
    "Last_Update": "2020-07-01 04:33:52",
    "Latitude": 44.99690221,
    "Longitude": -85.15503082,
    "Confirmed": 18,
    "Deaths": 0,
    "Recovered": 0,
    "Active": 18,
    "Combined_Key": "Antrim, Michigan, US",
    "Incidence_Rate": 77.17372663351054,
    "Case-Fatality_Ratio": 0
  },
  {
    "FIPS": 4001,
    "County": "Apache",
    "Province_State": "Arizona",
    "Country_Region": "US",
    "Last_Update": "2020-07-01 04:33:52",
    "Latitude": 35.39465006,
    "Longitude": -109.4892383,
    "Confirmed": 2337,
    "Deaths": 86,
    "Recovered": 0,
    "Active": 2251,
    "Combined_Key": "Apache, Arizona, US",
    "Incidence_Rate": 3250.935495986757,
    "Case-Fatality_Ratio": 3.6799315361574667
  },
  {
    "FIPS": 19007,
    "County": "Appanoose",
    "Province_State": "Iowa",
    "Country_Region": "US",
    "Last_Update": "2020-07-01 04:33:52",
    "Latitude": 40.74324454,
    "Longitude": -92.86865906,
    "Confirmed": 20,
    "Deaths": 3,
    "Recovered": 0,
    "Active": 17,
    "Combined_Key": "Appanoose, Iowa, US",
    "Incidence_Rate": 160.95284081764044,
    "Case-Fatality_Ratio": 15
  },
  {
    "FIPS": 13001,
    "County": "Appling",
    "Province_State": "Georgia",
    "Country_Region": "US",
    "Last_Update": "2020-07-01 04:33:52",
    "Latitude": 31.74847232,
    "Longitude": -82.28909114,
    "Confirmed": 258,
    "Deaths": 14,
    "Recovered": 0,
    "Active": 244,
    "Combined_Key": "Appling, Georgia, US",
    "Incidence_Rate": 1403.2415968671814,
    "Case-Fatality_Ratio": 5.426356589147287
  },
  {
    "FIPS": 51011,
    "County": "Appomattox",
    "Province_State": "Virginia",
    "Country_Region": "US",
    "Last_Update": "2020-07-01 04:33:52",
    "Latitude": 37.37569884,
    "Longitude": -78.81340003,
    "Confirmed": 40,
    "Deaths": 0,
    "Recovered": 0,
    "Active": 40,
    "Combined_Key": "Appomattox, Virginia, US",
    "Incidence_Rate": 251.398403620137,
    "Case-Fatality_Ratio": 0
  },
  {
    "FIPS": 48007,
    "County": "Aransas",
    "Province_State": "Texas",
    "Country_Region": "US",
    "Last_Update": "2020-07-01 04:33:52",
    "Latitude": 28.10556197,
    "Longitude": -96.9995047,
    "Confirmed": 23,
    "Deaths": 0,
    "Recovered": 0,
    "Active": 23,
    "Combined_Key": "Aransas, Texas, US",
    "Incidence_Rate": 97.83071033602722,
    "Case-Fatality_Ratio": 0
  },
  {
    "FIPS": 8005,
    "County": "Arapahoe",
    "Province_State": "Colorado",
    "Country_Region": "US",
    "Last_Update": "2020-07-01 04:33:52",
    "Latitude": 39.64977461,
    "Longitude": -104.3353617,
    "Confirmed": 5202,
    "Deaths": 344,
    "Recovered": 0,
    "Active": 4858,
    "Combined_Key": "Arapahoe, Colorado, US",
    "Incidence_Rate": 792.2752402564766,
    "Case-Fatality_Ratio": 6.6128412149173394
  },
  {
    "FIPS": 48009,
    "County": "Archer",
    "Province_State": "Texas",
    "Country_Region": "US",
    "Last_Update": "2020-07-01 04:33:52",
    "Latitude": 33.61569967,
    "Longitude": -98.68754589,
    "Confirmed": 7,
    "Deaths": 0,
    "Recovered": 0,
    "Active": 7,
    "Combined_Key": "Archer, Texas, US",
    "Incidence_Rate": 81.8426283175494,
    "Case-Fatality_Ratio": 0
  },
  {
    "FIPS": 8007,
    "County": "Archuleta",
    "Province_State": "Colorado",
    "Country_Region": "US",
    "Last_Update": "2020-07-01 04:33:52",
    "Latitude": 37.19474156,
    "Longitude": -107.04768670000001,
    "Confirmed": 8,
    "Deaths": 0,
    "Recovered": 0,
    "Active": 8,
    "Combined_Key": "Archuleta, Colorado, US",
    "Incidence_Rate": 57.024734478580086,
    "Case-Fatality_Ratio": 0
  },
  {
    "FIPS": 26011,
    "County": "Arenac",
    "Province_State": "Michigan",
    "Country_Region": "US",
    "Last_Update": "2020-07-01 04:33:52",
    "Latitude": 44.0636262,
    "Longitude": -83.89277559,
    "Confirmed": 38,
    "Deaths": 2,
    "Recovered": 0,
    "Active": 36,
    "Combined_Key": "Arenac, Michigan, US",
    "Incidence_Rate": 255.32486729825976,
    "Case-Fatality_Ratio": 5.2631578947368425
  },
  {
    "FIPS": 5001,
    "County": "Arkansas",
    "Province_State": "Arkansas",
    "Country_Region": "US",
    "Last_Update": "2020-07-01 04:33:52",
    "Latitude": 34.29145151,
    "Longitude": -91.37277296,
    "Confirmed": 28,
    "Deaths": 0,
    "Recovered": 0,
    "Active": 28,
    "Combined_Key": "Arkansas, Arkansas, US",
    "Incidence_Rate": 160.1281024819856,
    "Case-Fatality_Ratio": 0
  },
  {
    "FIPS": 51013,
    "County": "Arlington",
    "Province_State": "Virginia",
    "Country_Region": "US",
    "Last_Update": "2020-07-01 04:33:52",
    "Latitude": 38.8767675,
    "Longitude": -77.10139853,
    "Confirmed": 2479,
    "Deaths": 132,
    "Recovered": 0,
    "Active": 2347,
    "Combined_Key": "Arlington, Virginia, US",
    "Incidence_Rate": 1046.6893540841575,
    "Case-Fatality_Ratio": 5.324727712787414
  },
  {
    "FIPS": 42005,
    "County": "Armstrong",
    "Province_State": "Pennsylvania",
    "Country_Region": "US",
    "Last_Update": "2020-07-01 04:33:52",
    "Latitude": 40.81665618,
    "Longitude": -79.46290811,
    "Confirmed": 74,
    "Deaths": 6,
    "Recovered": 0,
    "Active": 68,
    "Combined_Key": "Armstrong, Pennsylvania, US",
    "Incidence_Rate": 114.31219587549239,
    "Case-Fatality_Ratio": 8.108108108108109
  },
  {
    "FIPS": 48011,
    "County": "Armstrong",
    "Province_State": "Texas",
    "Country_Region": "US",
    "Last_Update": "2020-07-01 04:33:52",
    "Latitude": 34.96507426,
    "Longitude": -101.3574874,
    "Confirmed": 3,
    "Deaths": 0,
    "Recovered": 0,
    "Active": 3,
    "Combined_Key": "Armstrong, Texas, US",
    "Incidence_Rate": 158.9825119236884,
    "Case-Fatality_Ratio": 0
  },
  {
    "FIPS": 23003,
    "County": "Aroostook",
    "Province_State": "Maine",
    "Country_Region": "US",
    "Last_Update": "2020-07-01 04:33:52",
    "Latitude": 46.65926321,
    "Longitude": -68.59841248,
    "Confirmed": 23,
    "Deaths": 1,
    "Recovered": 0,
    "Active": 22,
    "Combined_Key": "Aroostook, Maine, US",
    "Incidence_Rate": 34.30020132726866,
    "Case-Fatality_Ratio": 4.3478260869565215
  },
  {
    "FIPS": 31005,
    "County": "Arthur",
    "Province_State": "Nebraska",
    "Country_Region": "US",
    "Last_Update": "2020-07-01 04:33:52",
    "Latitude": 41.56896142,
    "Longitude": -101.6959559,
    "Confirmed": 0,
    "Deaths": 0,
    "Recovered": 0,
    "Active": 0,
    "Combined_Key": "Arthur, Nebraska, US",
    "Incidence_Rate": 0,
    "Case-Fatality_Ratio": null
  },
  {
    "FIPS": 22005,
    "County": "Ascension",
    "Province_State": "Louisiana",
    "Country_Region": "US",
    "Last_Update": "2020-07-01 04:33:52",
    "Latitude": 30.20406249,
    "Longitude": -90.91328409999998,
    "Confirmed": 1171,
    "Deaths": 58,
    "Recovered": 0,
    "Active": 1113,
    "Combined_Key": "Ascension, Louisiana, US",
    "Incidence_Rate": 924.9312817920445,
    "Case-Fatality_Ratio": 4.953031596925705
  },
  {
    "FIPS": 37009,
    "County": "Ashe",
    "Province_State": "North Carolina",
    "Country_Region": "US",
    "Last_Update": "2020-07-01 04:33:52",
    "Latitude": 36.43296207,
    "Longitude": -81.49862729,
    "Confirmed": 54,
    "Deaths": 1,
    "Recovered": 0,
    "Active": 53,
    "Combined_Key": "Ashe, North Carolina, US",
    "Incidence_Rate": 198.50751755321104,
    "Case-Fatality_Ratio": 1.8518518518518519
  },
  {
    "FIPS": 39005,
    "County": "Ashland",
    "Province_State": "Ohio",
    "Country_Region": "US",
    "Last_Update": "2020-07-01 04:33:52",
    "Latitude": 40.84772277,
    "Longitude": -82.27280781,
    "Confirmed": 53,
    "Deaths": 1,
    "Recovered": 0,
    "Active": 52,
    "Combined_Key": "Ashland, Ohio, US",
    "Incidence_Rate": 99.095056465485,
    "Case-Fatality_Ratio": 1.8867924528301887
  },
  {
    "FIPS": 55003,
    "County": "Ashland",
    "Province_State": "Wisconsin",
    "Country_Region": "US",
    "Last_Update": "2020-07-01 04:33:52",
    "Latitude": 46.31956891,
    "Longitude": -90.67837132,
    "Confirmed": 3,
    "Deaths": 0,
    "Recovered": 0,
    "Active": 3,
    "Combined_Key": "Ashland, Wisconsin, US",
    "Incidence_Rate": 19.277727798483486,
    "Case-Fatality_Ratio": 0
  },
  {
    "FIPS": 5003,
    "County": "Ashley",
    "Province_State": "Arkansas",
    "Country_Region": "US",
    "Last_Update": "2020-07-01 04:33:52",
    "Latitude": 33.19153461,
    "Longitude": -91.7698471,
    "Confirmed": 71,
    "Deaths": 1,
    "Recovered": 0,
    "Active": 70,
    "Combined_Key": "Ashley, Arkansas, US",
    "Incidence_Rate": 361.19448542503943,
    "Case-Fatality_Ratio": 1.408450704225352
  },
  {
    "FIPS": 39007,
    "County": "Ashtabula",
    "Province_State": "Ohio",
    "Country_Region": "US",
    "Last_Update": "2020-07-01 04:33:52",
    "Latitude": 41.70860332,
    "Longitude": -80.74830218,
    "Confirmed": 420,
    "Deaths": 43,
    "Recovered": 0,
    "Active": 377,
    "Combined_Key": "Ashtabula, Ohio, US",
    "Incidence_Rate": 431.91657839800087,
    "Case-Fatality_Ratio": 10.238095238095237
  },
  {
    "FIPS": 53003,
    "County": "Asotin",
    "Province_State": "Washington",
    "Country_Region": "US",
    "Last_Update": "2020-07-01 04:33:52",
    "Latitude": 46.18894415,
    "Longitude": -117.2022851,
    "Confirmed": 21,
    "Deaths": 2,
    "Recovered": 0,
    "Active": 19,
    "Combined_Key": "Asotin, Washington, US",
    "Incidence_Rate": 92.99442033477992,
    "Case-Fatality_Ratio": 9.523809523809524
  },
  {
    "FIPS": 22007,
    "County": "Assumption",
    "Province_State": "Louisiana",
    "Country_Region": "US",
    "Last_Update": "2020-07-01 04:33:52",
    "Latitude": 29.89946234,
    "Longitude": -91.06461642,
    "Confirmed": 352,
    "Deaths": 14,
    "Recovered": 0,
    "Active": 338,
    "Combined_Key": "Assumption, Louisiana, US",
    "Incidence_Rate": 1607.9667443241515,
    "Case-Fatality_Ratio": 3.977272727272727
  },
  {
    "FIPS": 48013,
    "County": "Atascosa",
    "Province_State": "Texas",
    "Country_Region": "US",
    "Last_Update": "2020-07-01 04:33:52",
    "Latitude": 28.89333001,
    "Longitude": -98.52730485,
    "Confirmed": 106,
    "Deaths": 2,
    "Recovered": 0,
    "Active": 104,
    "Combined_Key": "Atascosa, Texas, US",
    "Incidence_Rate": 207.2214728363928,
    "Case-Fatality_Ratio": 1.8867924528301887
  },
  {
    "FIPS": 20005,
    "County": "Atchison",
    "Province_State": "Kansas",
    "Country_Region": "US",
    "Last_Update": "2020-07-01 04:33:52",
    "Latitude": 39.53185661,
    "Longitude": -95.30870026,
    "Confirmed": 34,
    "Deaths": 0,
    "Recovered": 0,
    "Active": 34,
    "Combined_Key": "Atchison, Kansas, US",
    "Incidence_Rate": 211.53487214583464,
    "Case-Fatality_Ratio": 0
  },
  {
    "FIPS": 29005,
    "County": "Atchison",
    "Province_State": "Missouri",
    "Country_Region": "US",
    "Last_Update": "2020-07-01 04:33:52",
    "Latitude": 40.43238737,
    "Longitude": -95.42970639,
    "Confirmed": 3,
    "Deaths": 0,
    "Recovered": 0,
    "Active": 3,
    "Combined_Key": "Atchison, Missouri, US",
    "Incidence_Rate": 58.331713007972,
    "Case-Fatality_Ratio": 0
  },
  {
    "FIPS": 39009,
    "County": "Athens",
    "Province_State": "Ohio",
    "Country_Region": "US",
    "Last_Update": "2020-07-01 04:33:52",
    "Latitude": 39.33425634,
    "Longitude": -82.04278644,
    "Confirmed": 33,
    "Deaths": 1,
    "Recovered": 0,
    "Active": 32,
    "Combined_Key": "Athens, Ohio, US",
    "Incidence_Rate": 50.515100953663875,
    "Case-Fatality_Ratio": 3.0303030303030303
  },
  {
    "FIPS": 13003,
    "County": "Atkinson",
    "Province_State": "Georgia",
    "Country_Region": "US",
    "Last_Update": "2020-07-01 04:33:52",
    "Latitude": 31.29633502,
    "Longitude": -82.87545866,
    "Confirmed": 147,
    "Deaths": 2,
    "Recovered": 0,
    "Active": 145,
    "Combined_Key": "Atkinson, Georgia, US",
    "Incidence_Rate": 1800.3674219228415,
    "Case-Fatality_Ratio": 1.3605442176870748
  },
  {
    "FIPS": 34001,
    "County": "Atlantic",
    "Province_State": "New Jersey",
    "Country_Region": "US",
    "Last_Update": "2020-07-01 04:33:52",
    "Latitude": 39.47538693,
    "Longitude": -74.65848483,
    "Confirmed": 2863,
    "Deaths": 216,
    "Recovered": 0,
    "Active": 2647,
    "Combined_Key": "Atlantic, New Jersey, US",
    "Incidence_Rate": 1085.8269806955664,
    "Case-Fatality_Ratio": 7.544533705902899
  },
  {
    "FIPS": 40005,
    "County": "Atoka",
    "Province_State": "Oklahoma",
    "Country_Region": "US",
    "Last_Update": "2020-07-01 04:33:52",
    "Latitude": 34.37366573,
    "Longitude": -96.03802487,
    "Confirmed": 22,
    "Deaths": 0,
    "Recovered": 0,
    "Active": 22,
    "Combined_Key": "Atoka, Oklahoma, US",
    "Incidence_Rate": 159.90696322139846,
    "Case-Fatality_Ratio": 0
  },
  {
    "FIPS": 28007,
    "County": "Attala",
    "Province_State": "Mississippi",
    "Country_Region": "US",
    "Last_Update": "2020-07-01 04:33:52",
    "Latitude": 33.08658803,
    "Longitude": -89.57838564,
    "Confirmed": 350,
    "Deaths": 23,
    "Recovered": 0,
    "Active": 327,
    "Combined_Key": "Attala, Mississippi, US",
    "Incidence_Rate": 1925.8281060856168,
    "Case-Fatality_Ratio": 6.571428571428571
  },
  {
    "FIPS": 29007,
    "County": "Audrain",
    "Province_State": "Missouri",
    "Country_Region": "US",
    "Last_Update": "2020-07-01 04:33:52",
    "Latitude": 39.215877,
    "Longitude": -91.84242683,
    "Confirmed": 138,
    "Deaths": 1,
    "Recovered": 0,
    "Active": 137,
    "Combined_Key": "Audrain, Missouri, US",
    "Incidence_Rate": 543.5638884512368,
    "Case-Fatality_Ratio": 0.7246376811594203
  },
  {
    "FIPS": 19009,
    "County": "Audubon",
    "Province_State": "Iowa",
    "Country_Region": "US",
    "Last_Update": "2020-07-01 04:33:52",
    "Latitude": 41.6844628,
    "Longitude": -94.90581859,
    "Confirmed": 17,
    "Deaths": 1,
    "Recovered": 0,
    "Active": 16,
    "Combined_Key": "Audubon, Iowa, US",
    "Incidence_Rate": 309.315866084425,
    "Case-Fatality_Ratio": 5.882352941176471
  },
  {
    "FIPS": 39011,
    "County": "Auglaize",
    "Province_State": "Ohio",
    "Country_Region": "US",
    "Last_Update": "2020-07-01 04:33:52",
    "Latitude": 40.55998859,
    "Longitude": -84.22421429999999,
    "Confirmed": 99,
    "Deaths": 3,
    "Recovered": 0,
    "Active": 96,
    "Combined_Key": "Auglaize, Ohio, US",
    "Incidence_Rate": 216.83896968635008,
    "Case-Fatality_Ratio": 3.0303030303030303
  },
  {
    "FIPS": 51015,
    "County": "Augusta",
    "Province_State": "Virginia",
    "Country_Region": "US",
    "Last_Update": "2020-07-01 04:33:52",
    "Latitude": 38.16404586,
    "Longitude": -79.12461614,
    "Confirmed": 185,
    "Deaths": 2,
    "Recovered": 0,
    "Active": 183,
    "Combined_Key": "Augusta, Virginia, US",
    "Incidence_Rate": 244.84501971995024,
    "Case-Fatality_Ratio": 1.0810810810810811
  },
  {
    "FIPS": 46003,
    "County": "Aurora",
    "Province_State": "South Dakota",
    "Country_Region": "US",
    "Last_Update": "2020-07-01 04:33:52",
    "Latitude": 43.71757685,
    "Longitude": -98.56050467,
    "Confirmed": 34,
    "Deaths": 0,
    "Recovered": 0,
    "Active": 34,
    "Combined_Key": "Aurora, South Dakota, US",
    "Incidence_Rate": 1235.9142130134496,
    "Case-Fatality_Ratio": 0
  },
  {
    "FIPS": 48015,
    "County": "Austin",
    "Province_State": "Texas",
    "Country_Region": "US",
    "Last_Update": "2020-07-01 04:33:52",
    "Latitude": 29.88548725,
    "Longitude": -96.27736949,
    "Confirmed": 71,
    "Deaths": 0,
    "Recovered": 0,
    "Active": 71,
    "Combined_Key": "Austin, Texas, US",
    "Incidence_Rate": 236.41449120937668,
    "Case-Fatality_Ratio": 0
  },
  {
    "FIPS": 1001,
    "County": "Autauga",
    "Province_State": "Alabama",
    "Country_Region": "US",
    "Last_Update": "2020-07-01 04:33:52",
    "Latitude": 32.53952745,
    "Longitude": -86.64408227,
    "Confirmed": 530,
    "Deaths": 11,
    "Recovered": 0,
    "Active": 519,
    "Combined_Key": "Autauga, Alabama, US",
    "Incidence_Rate": 948.647729510104,
    "Case-Fatality_Ratio": 2.0754716981132075
  },
  {
    "FIPS": 37011,
    "County": "Avery",
    "Province_State": "North Carolina",
    "Country_Region": "US",
    "Last_Update": "2020-07-01 04:33:52",
    "Latitude": 36.07569796,
    "Longitude": -81.92308483,
    "Confirmed": 12,
    "Deaths": 0,
    "Recovered": 0,
    "Active": 12,
    "Combined_Key": "Avery, North Carolina, US",
    "Incidence_Rate": 68.34880674374894,
    "Case-Fatality_Ratio": 0
  },
  {
    "FIPS": 22009,
    "County": "Avoyelles",
    "Province_State": "Louisiana",
    "Country_Region": "US",
    "Last_Update": "2020-07-01 04:33:52",
    "Latitude": 31.07796211,
    "Longitude": -92.00079449,
    "Confirmed": 319,
    "Deaths": 13,
    "Recovered": 0,
    "Active": 306,
    "Combined_Key": "Avoyelles, Louisiana, US",
    "Incidence_Rate": 794.6392985253088,
    "Case-Fatality_Ratio": 4.075235109717869
  },
  {
    "FIPS": 8009,
    "County": "Baca",
    "Province_State": "Colorado",
    "Country_Region": "US",
    "Last_Update": "2020-07-01 04:33:52",
    "Latitude": 37.31940883,
    "Longitude": -102.5603223,
    "Confirmed": 14,
    "Deaths": 0,
    "Recovered": 0,
    "Active": 14,
    "Combined_Key": "Baca, Colorado, US",
    "Incidence_Rate": 390.95224797542585,
    "Case-Fatality_Ratio": 0
  },
  {
    "FIPS": 13005,
    "County": "Bacon",
    "Province_State": "Georgia",
    "Country_Region": "US",
    "Last_Update": "2020-07-01 04:33:52",
    "Latitude": 31.55456473,
    "Longitude": -82.45936528,
    "Confirmed": 236,
    "Deaths": 4,
    "Recovered": 0,
    "Active": 232,
    "Combined_Key": "Bacon, Georgia, US",
    "Incidence_Rate": 2113.9376567538516,
    "Case-Fatality_Ratio": 1.694915254237288
  },
  {
    "FIPS": 48017,
    "County": "Bailey",
    "Province_State": "Texas",
    "Country_Region": "US",
    "Last_Update": "2020-07-01 04:33:52",
    "Latitude": 34.06854817,
    "Longitude": -102.8299707,
    "Confirmed": 94,
    "Deaths": 1,
    "Recovered": 0,
    "Active": 93,
    "Combined_Key": "Bailey, Texas, US",
    "Incidence_Rate": 1342.857142857143,
    "Case-Fatality_Ratio": 1.0638297872340425
  },
  {
    "FIPS": 12003,
    "County": "Baker",
    "Province_State": "Florida",
    "Country_Region": "US",
    "Last_Update": "2020-07-01 04:33:52",
    "Latitude": 30.33060121,
    "Longitude": -82.28467476,
    "Confirmed": 63,
    "Deaths": 4,
    "Recovered": 0,
    "Active": 59,
    "Combined_Key": "Baker, Florida, US",
    "Incidence_Rate": 215.6795617939062,
    "Case-Fatality_Ratio": 6.349206349206349
  },
  {
    "FIPS": 13007,
    "County": "Baker",
    "Province_State": "Georgia",
    "Country_Region": "US",
    "Last_Update": "2020-07-01 04:33:52",
    "Latitude": 31.32669878,
    "Longitude": -84.44218806,
    "Confirmed": 43,
    "Deaths": 3,
    "Recovered": 0,
    "Active": 40,
    "Combined_Key": "Baker, Georgia, US",
    "Incidence_Rate": 1415.4048716260697,
    "Case-Fatality_Ratio": 6.976744186046512
  },
  {
    "FIPS": 41001,
    "County": "Baker",
    "Province_State": "Oregon",
    "Country_Region": "US",
    "Last_Update": "2020-07-01 04:33:52",
    "Latitude": 44.70915557,
    "Longitude": -117.6749883,
    "Confirmed": 1,
    "Deaths": 0,
    "Recovered": 0,
    "Active": 1,
    "Combined_Key": "Baker, Oregon, US",
    "Incidence_Rate": 6.201935003721161,
    "Case-Fatality_Ratio": 0
  },
  {
    "FIPS": 1003,
    "County": "Baldwin",
    "Province_State": "Alabama",
    "Country_Region": "US",
    "Last_Update": "2020-07-01 04:33:52",
    "Latitude": 30.72774991,
    "Longitude": -87.72207058,
    "Confirmed": 663,
    "Deaths": 9,
    "Recovered": 0,
    "Active": 654,
    "Combined_Key": "Baldwin, Alabama, US",
    "Incidence_Rate": 296.9977691570281,
    "Case-Fatality_Ratio": 1.3574660633484164
  },
  {
    "FIPS": 13009,
    "County": "Baldwin",
    "Province_State": "Georgia",
    "Country_Region": "US",
    "Last_Update": "2020-07-01 04:33:52",
    "Latitude": 33.06882326,
    "Longitude": -83.24701748,
    "Confirmed": 499,
    "Deaths": 34,
    "Recovered": 0,
    "Active": 465,
    "Combined_Key": "Baldwin, Georgia, US",
    "Incidence_Rate": 1111.6061483626643,
    "Case-Fatality_Ratio": 6.813627254509018
  },
  {
    "FIPS": 21007,
    "County": "Ballard",
    "Province_State": "Kentucky",
    "Country_Region": "US",
    "Last_Update": "2020-07-01 04:33:52",
    "Latitude": 37.05842757,
    "Longitude": -88.99427697,
    "Confirmed": 14,
    "Deaths": 0,
    "Recovered": 0,
    "Active": 14,
    "Combined_Key": "Ballard, Kentucky, US",
    "Incidence_Rate": 177.4847870182556,
    "Case-Fatality_Ratio": 0
  },
  {
    "FIPS": 24005,
    "County": "Baltimore",
    "Province_State": "Maryland",
    "Country_Region": "US",
    "Last_Update": "2020-07-01 04:33:52",
    "Latitude": 39.45784712,
    "Longitude": -76.62911955,
    "Confirmed": 7985,
    "Deaths": 473,
    "Recovered": 0,
    "Active": 7512,
    "Combined_Key": "Baltimore, Maryland, US",
    "Incidence_Rate": 965.1063006877214,
    "Case-Fatality_Ratio": 5.923606762680025
  },
  {
    "FIPS": 24510,
    "County": "Baltimore City",
    "Province_State": "Maryland",
    "Country_Region": "US",
    "Last_Update": "2020-07-01 04:33:52",
    "Latitude": 39.30211911,
    "Longitude": -76.61151012,
    "Confirmed": 7546,
    "Deaths": 337,
    "Recovered": 0,
    "Active": 7209,
    "Combined_Key": "Baltimore City, Maryland, US",
    "Incidence_Rate": 1271.46202968879,
    "Case-Fatality_Ratio": 4.465942221044262
  },
  {
    "FIPS": 45009,
    "County": "Bamberg",
    "Province_State": "South Carolina",
    "Country_Region": "US",
    "Last_Update": "2020-07-01 04:33:52",
    "Latitude": 33.21927586,
    "Longitude": -81.05659969,
    "Confirmed": 113,
    "Deaths": 1,
    "Recovered": 0,
    "Active": 112,
    "Combined_Key": "Bamberg, South Carolina, US",
    "Incidence_Rate": 803.3556092705816,
    "Case-Fatality_Ratio": 0.8849557522123894
  },
  {
    "FIPS": 48019,
    "County": "Bandera",
    "Province_State": "Texas",
    "Country_Region": "US",
    "Last_Update": "2020-07-01 04:33:52",
    "Latitude": 29.74619598,
    "Longitude": -99.24598147,
    "Confirmed": 16,
    "Deaths": 0,
    "Recovered": 0,
    "Active": 16,
    "Combined_Key": "Bandera, Texas, US",
    "Incidence_Rate": 69.22810661128418,
    "Case-Fatality_Ratio": 0
  },
  {
    "FIPS": 13011,
    "County": "Banks",
    "Province_State": "Georgia",
    "Country_Region": "US",
    "Last_Update": "2020-07-01 04:33:52",
    "Latitude": 34.35607081,
    "Longitude": -83.49644388,
    "Confirmed": 133,
    "Deaths": 0,
    "Recovered": 0,
    "Active": 133,
    "Combined_Key": "Banks, Georgia, US",
    "Incidence_Rate": 691.4838307164397,
    "Case-Fatality_Ratio": 0
  },
  {
    "FIPS": 31007,
    "County": "Banner",
    "Province_State": "Nebraska",
    "Country_Region": "US",
    "Last_Update": "2020-07-01 04:33:52",
    "Latitude": 41.54634427,
    "Longitude": -103.7114332,
    "Confirmed": 1,
    "Deaths": 0,
    "Recovered": 0,
    "Active": 1,
    "Combined_Key": "Banner, Nebraska, US",
    "Incidence_Rate": 134.2281879194631,
    "Case-Fatality_Ratio": 0
  },
  {
    "FIPS": 16005,
    "County": "Bannock",
    "Province_State": "Idaho",
    "Country_Region": "US",
    "Last_Update": "2020-07-01 04:33:52",
    "Latitude": 42.67002716,
    "Longitude": -112.2233311,
    "Confirmed": 102,
    "Deaths": 1,
    "Recovered": 0,
    "Active": 101,
    "Combined_Key": "Bannock, Idaho, US",
    "Incidence_Rate": 116.16253644314868,
    "Case-Fatality_Ratio": 0.9803921568627451
  },
  {
    "FIPS": 26013,
    "County": "Baraga",
    "Province_State": "Michigan",
    "Country_Region": "US",
    "Last_Update": "2020-07-01 04:33:52",
    "Latitude": 46.6720582,
    "Longitude": -88.36363591,
    "Confirmed": 5,
    "Deaths": 0,
    "Recovered": 0,
    "Active": 5,
    "Combined_Key": "Baraga, Michigan, US",
    "Incidence_Rate": 60.90875867949811,
    "Case-Fatality_Ratio": 0
  },
  {
    "FIPS": 20007,
    "County": "Barber",
    "Province_State": "Kansas",
    "Country_Region": "US",
    "Last_Update": "2020-07-01 04:33:52",
    "Latitude": 37.2288586,
    "Longitude": -98.68460053,
    "Confirmed": 1,
    "Deaths": 0,
    "Recovered": 0,
    "Active": 1,
    "Combined_Key": "Barber, Kansas, US",
    "Incidence_Rate": 22.588660492432798,
    "Case-Fatality_Ratio": 0
  },
  {
    "FIPS": 1005,
    "County": "Barbour",
    "Province_State": "Alabama",
    "Country_Region": "US",
    "Last_Update": "2020-07-01 04:33:52",
    "Latitude": 31.868263,
    "Longitude": -85.3871286,
    "Confirmed": 322,
    "Deaths": 1,
    "Recovered": 0,
    "Active": 321,
    "Combined_Key": "Barbour, Alabama, US",
    "Incidence_Rate": 1304.3830511220935,
    "Case-Fatality_Ratio": 0.3105590062111801
  },
  {
    "FIPS": 54001,
    "County": "Barbour",
    "Province_State": "West Virginia",
    "Country_Region": "US",
    "Last_Update": "2020-07-01 04:33:52",
    "Latitude": 39.1307219,
    "Longitude": -80.00350858,
    "Confirmed": 15,
    "Deaths": 1,
    "Recovered": 0,
    "Active": 14,
    "Combined_Key": "Barbour, West Virginia, US",
    "Incidence_Rate": 91.23532631835046,
    "Case-Fatality_Ratio": 6.666666666666667
  },
  {
    "FIPS": 38003,
    "County": "Barnes",
    "Province_State": "North Dakota",
    "Country_Region": "US",
    "Last_Update": "2020-07-01 04:33:52",
    "Latitude": 46.93579637,
    "Longitude": -98.06605978,
    "Confirmed": 19,
    "Deaths": 0,
    "Recovered": 0,
    "Active": 19,
    "Combined_Key": "Barnes, North Dakota, US",
    "Incidence_Rate": 182.42918867018722,
    "Case-Fatality_Ratio": 0
  },
  {
    "FIPS": 25001,
    "County": "Barnstable",
    "Province_State": "Massachusetts",
    "Country_Region": "US",
    "Last_Update": "2020-07-01 04:33:52",
    "Latitude": 41.72980578,
    "Longitude": -70.28854339,
    "Confirmed": 1538,
    "Deaths": 144,
    "Recovered": 0,
    "Active": 1394,
    "Combined_Key": "Barnstable, Massachusetts, US",
    "Incidence_Rate": 722.0996290905676,
    "Case-Fatality_Ratio": 9.362808842652797
  },
  {
    "FIPS": 45011,
    "County": "Barnwell",
    "Province_State": "South Carolina",
    "Country_Region": "US",
    "Last_Update": "2020-07-01 04:33:52",
    "Latitude": 33.26679302,
    "Longitude": -81.43584352,
    "Confirmed": 79,
    "Deaths": 1,
    "Recovered": 0,
    "Active": 78,
    "Combined_Key": "Barnwell, South Carolina, US",
    "Incidence_Rate": 378.606345250647,
    "Case-Fatality_Ratio": 1.2658227848101267
  },
  {
    "FIPS": 21009,
    "County": "Barren",
    "Province_State": "Kentucky",
    "Country_Region": "US",
    "Last_Update": "2020-07-01 04:33:52",
    "Latitude": 36.96469836,
    "Longitude": -85.93338945,
    "Confirmed": 86,
    "Deaths": 2,
    "Recovered": 0,
    "Active": 84,
    "Combined_Key": "Barren, Kentucky, US",
    "Incidence_Rate": 194.3546746819137,
    "Case-Fatality_Ratio": 2.3255813953488373
  },
  {
    "FIPS": 55005,
    "County": "Barron",
    "Province_State": "Wisconsin",
    "Country_Region": "US",
    "Last_Update": "2020-07-01 04:33:52",
    "Latitude": 45.42372701,
    "Longitude": -91.84833627,
    "Confirmed": 34,
    "Deaths": 1,
    "Recovered": 0,
    "Active": 33,
    "Combined_Key": "Barron, Wisconsin, US",
    "Incidence_Rate": 75.1480859340465,
    "Case-Fatality_Ratio": 2.9411764705882355
  },
  {
    "FIPS": 13013,
    "County": "Barrow",
    "Province_State": "Georgia",
    "Country_Region": "US",
    "Last_Update": "2020-07-01 04:33:52",
    "Latitude": 33.99148694,
    "Longitude": -83.71436292,
    "Confirmed": 523,
    "Deaths": 25,
    "Recovered": 0,
    "Active": 498,
    "Combined_Key": "Barrow, Georgia, US",
    "Incidence_Rate": 628.3037001441614,
    "Case-Fatality_Ratio": 4.780114722753346
  },
  {
    "FIPS": 26015,
    "County": "Barry",
    "Province_State": "Michigan",
    "Country_Region": "US",
    "Last_Update": "2020-07-01 04:33:52",
    "Latitude": 42.59513984,
    "Longitude": -85.30834519,
    "Confirmed": 102,
    "Deaths": 2,
    "Recovered": 0,
    "Active": 100,
    "Combined_Key": "Barry, Michigan, US",
    "Incidence_Rate": 165.71892770105606,
    "Case-Fatality_Ratio": 1.9607843137254901
  },
  {
    "FIPS": 29009,
    "County": "Barry",
    "Province_State": "Missouri",
    "Country_Region": "US",
    "Last_Update": "2020-07-01 04:33:52",
    "Latitude": 36.70978521,
    "Longitude": -93.82919888,
    "Confirmed": 43,
    "Deaths": 0,
    "Recovered": 0,
    "Active": 43,
    "Combined_Key": "Barry, Missouri, US",
    "Incidence_Rate": 120.14864902623711,
    "Case-Fatality_Ratio": 0
  },
  {
    "FIPS": 18005,
    "County": "Bartholomew",
    "Province_State": "Indiana",
    "Country_Region": "US",
    "Last_Update": "2020-07-01 04:33:52",
    "Latitude": 39.20744865,
    "Longitude": -85.89558181,
    "Confirmed": 578,
    "Deaths": 44,
    "Recovered": 0,
    "Active": 534,
    "Combined_Key": "Bartholomew, Indiana, US",
    "Incidence_Rate": 689.9103593979398,
    "Case-Fatality_Ratio": 7.612456747404845
  },
  {
    "FIPS": 20009,
    "County": "Barton",
    "Province_State": "Kansas",
    "Country_Region": "US",
    "Last_Update": "2020-07-01 04:33:52",
    "Latitude": 38.47889676,
    "Longitude": -98.75636726,
    "Confirmed": 56,
    "Deaths": 2,
    "Recovered": 0,
    "Active": 54,
    "Combined_Key": "Barton, Kansas, US",
    "Incidence_Rate": 217.23107956088288,
    "Case-Fatality_Ratio": 3.5714285714285716
  },
  {
    "FIPS": 29011,
    "County": "Barton",
    "Province_State": "Missouri",
    "Country_Region": "US",
    "Last_Update": "2020-07-01 04:33:52",
    "Latitude": 37.50207671,
    "Longitude": -94.34757022,
    "Confirmed": 21,
    "Deaths": 0,
    "Recovered": 0,
    "Active": 21,
    "Combined_Key": "Barton, Missouri, US",
    "Incidence_Rate": 178.66258295048493,
    "Case-Fatality_Ratio": 0
  },
  {
    "FIPS": 13015,
    "County": "Bartow",
    "Province_State": "Georgia",
    "Country_Region": "US",
    "Last_Update": "2020-07-01 04:33:52",
    "Latitude": 34.23732119,
    "Longitude": -84.83887523,
    "Confirmed": 688,
    "Deaths": 42,
    "Recovered": 0,
    "Active": 646,
    "Combined_Key": "Bartow, Georgia, US",
    "Incidence_Rate": 638.5861998552043,
    "Case-Fatality_Ratio": 6.104651162790698
  },
  {
    "FIPS": 48021,
    "County": "Bastrop",
    "Province_State": "Texas",
    "Country_Region": "US",
    "Last_Update": "2020-07-01 04:33:52",
    "Latitude": 30.10370699,
    "Longitude": -97.31206354,
    "Confirmed": 442,
    "Deaths": 6,
    "Recovered": 0,
    "Active": 436,
    "Combined_Key": "Bastrop, Texas, US",
    "Incidence_Rate": 498.17972791722553,
    "Case-Fatality_Ratio": 1.3574660633484164
  },
  {
    "FIPS": 29013,
    "County": "Bates",
    "Province_State": "Missouri",
    "Country_Region": "US",
    "Last_Update": "2020-07-01 04:33:52",
    "Latitude": 38.25271289,
    "Longitude": -94.34113157,
    "Confirmed": 12,
    "Deaths": 1,
    "Recovered": 0,
    "Active": 11,
    "Combined_Key": "Bates, Missouri, US",
    "Incidence_Rate": 74.20232500618353,
    "Case-Fatality_Ratio": 8.333333333333334
  },
  {
    "FIPS": 21011,
    "County": "Bath",
    "Province_State": "Kentucky",
    "Country_Region": "US",
    "Last_Update": "2020-07-01 04:33:52",
    "Latitude": 38.14735938,
    "Longitude": -83.74588932,
    "Confirmed": 15,
    "Deaths": 1,
    "Recovered": 0,
    "Active": 14,
    "Combined_Key": "Bath, Kentucky, US",
    "Incidence_Rate": 120,
    "Case-Fatality_Ratio": 6.666666666666667
  },
  {
    "FIPS": 51017,
    "County": "Bath",
    "Province_State": "Virginia",
    "Country_Region": "US",
    "Last_Update": "2020-07-01 04:33:52",
    "Latitude": 38.05852573,
    "Longitude": -79.73912095,
    "Confirmed": 0,
    "Deaths": 0,
    "Recovered": 0,
    "Active": 0,
    "Combined_Key": "Bath, Virginia, US",
    "Incidence_Rate": 0,
    "Case-Fatality_Ratio": null
  },
  {
    "FIPS": 5005,
    "County": "Baxter",
    "Province_State": "Arkansas",
    "Country_Region": "US",
    "Last_Update": "2020-07-01 04:33:52",
    "Latitude": 36.28784385,
    "Longitude": -92.33782872,
    "Confirmed": 20,
    "Deaths": 0,
    "Recovered": 0,
    "Active": 20,
    "Combined_Key": "Baxter, Arkansas, US",
    "Incidence_Rate": 47.69627015167414,
    "Case-Fatality_Ratio": 0
  },
  {
    "FIPS": 12005,
    "County": "Bay",
    "Province_State": "Florida",
    "Country_Region": "US",
    "Last_Update": "2020-07-01 04:33:52",
    "Latitude": 30.26548745,
    "Longitude": -85.62122584,
    "Confirmed": 384,
    "Deaths": 4,
    "Recovered": 0,
    "Active": 380,
    "Combined_Key": "Bay, Florida, US",
    "Incidence_Rate": 219.7990898943934,
    "Case-Fatality_Ratio": 1.0416666666666667
  },
  {
    "FIPS": 26017,
    "County": "Bay",
    "Province_State": "Michigan",
    "Country_Region": "US",
    "Last_Update": "2020-07-01 04:33:52",
    "Latitude": 43.70639106,
    "Longitude": -83.98731479,
    "Confirmed": 392,
    "Deaths": 30,
    "Recovered": 0,
    "Active": 362,
    "Combined_Key": "Bay, Michigan, US",
    "Incidence_Rate": 380.11752613307993,
    "Case-Fatality_Ratio": 7.653061224489796
  },
  {
    "FIPS": 55007,
    "County": "Bayfield",
    "Province_State": "Wisconsin",
    "Country_Region": "US",
    "Last_Update": "2020-07-01 04:33:52",
    "Latitude": 46.52868768,
    "Longitude": -91.19716729,
    "Confirmed": 3,
    "Deaths": 1,
    "Recovered": 0,
    "Active": 2,
    "Combined_Key": "Bayfield, Wisconsin, US",
    "Incidence_Rate": 19.952114924181963,
    "Case-Fatality_Ratio": 33.333333333333336
  },
  {
    "FIPS": 48023,
    "County": "Baylor",
    "Province_State": "Texas",
    "Country_Region": "US",
    "Last_Update": "2020-07-01 04:33:52",
    "Latitude": 33.61640794,
    "Longitude": -99.21352901,
    "Confirmed": 1,
    "Deaths": 0,
    "Recovered": 0,
    "Active": 1,
    "Combined_Key": "Baylor, Texas, US",
    "Incidence_Rate": 28.498147620404673,
    "Case-Fatality_Ratio": 0
  },
  {
    "FIPS": 46005,
    "County": "Beadle",
    "Province_State": "South Dakota",
    "Country_Region": "US",
    "Last_Update": "2020-07-01 04:33:52",
    "Latitude": 44.41464384,
    "Longitude": -98.27858469,
    "Confirmed": 524,
    "Deaths": 6,
    "Recovered": 0,
    "Active": 518,
    "Combined_Key": "Beadle, South Dakota, US",
    "Incidence_Rate": 2839.6466699181706,
    "Case-Fatality_Ratio": 1.1450381679389312
  },
  {
    "FIPS": 16007,
    "County": "Bear Lake",
    "Province_State": "Idaho",
    "Country_Region": "US",
    "Last_Update": "2020-07-01 04:33:52",
    "Latitude": 42.28269683,
    "Longitude": -111.32892379999998,
    "Confirmed": 1,
    "Deaths": 0,
    "Recovered": 0,
    "Active": 1,
    "Combined_Key": "Bear Lake, Idaho, US",
    "Incidence_Rate": 16.3265306122449,
    "Case-Fatality_Ratio": 0
  },
  {
    "FIPS": null,
    "County": "Bear River",
    "Province_State": "Utah",
    "Country_Region": "US",
    "Last_Update": "2020-07-01 04:33:52",
    "Latitude": 41.52106798,
    "Longitude": -113.0832816,
    "Confirmed": 1521,
    "Deaths": 2,
    "Recovered": 0,
    "Active": 1519,
    "Combined_Key": "Bear River, Utah, US",
    "Incidence_Rate": 814.161376312775,
    "Case-Fatality_Ratio": 0.13149243918474687
  },
  {
    "FIPS": 37013,
    "County": "Beaufort",
    "Province_State": "North Carolina",
    "Country_Region": "US",
    "Last_Update": "2020-07-01 04:33:52",
    "Latitude": 35.48531943,
    "Longitude": -76.84325809,
    "Confirmed": 83,
    "Deaths": 0,
    "Recovered": 0,
    "Active": 83,
    "Combined_Key": "Beaufort, North Carolina, US",
    "Incidence_Rate": 176.61829169681235,
    "Case-Fatality_Ratio": 0
  },
  {
    "FIPS": 45013,
    "County": "Beaufort",
    "Province_State": "South Carolina",
    "Country_Region": "US",
    "Last_Update": "2020-07-01 04:33:52",
    "Latitude": 32.39226291,
    "Longitude": -80.72619758,
    "Confirmed": 1223,
    "Deaths": 18,
    "Recovered": 0,
    "Active": 1205,
    "Combined_Key": "Beaufort, South Carolina, US",
    "Incidence_Rate": 636.5746765076358,
    "Case-Fatality_Ratio": 1.4717906786590351
  },
  {
    "FIPS": 22011,
    "County": "Beauregard",
    "Province_State": "Louisiana",
    "Country_Region": "US",
    "Last_Update": "2020-07-01 04:33:52",
    "Latitude": 30.64836518,
    "Longitude": -93.34173616,
    "Confirmed": 201,
    "Deaths": 8,
    "Recovered": 0,
    "Active": 193,
    "Combined_Key": "Beauregard, Louisiana, US",
    "Incidence_Rate": 536.0428834306745,
    "Case-Fatality_Ratio": 3.9800995024875623
  },
  {
    "FIPS": 40007,
    "County": "Beaver",
    "Province_State": "Oklahoma",
    "Country_Region": "US",
    "Last_Update": "2020-07-01 04:33:52",
    "Latitude": 36.7496847,
    "Longitude": -100.4758872,
    "Confirmed": 30,
    "Deaths": 0,
    "Recovered": 0,
    "Active": 30,
    "Combined_Key": "Beaver, Oklahoma, US",
    "Incidence_Rate": 564.865373752589,
    "Case-Fatality_Ratio": 0
  },
  {
    "FIPS": 42007,
    "County": "Beaver",
    "Province_State": "Pennsylvania",
    "Country_Region": "US",
    "Last_Update": "2020-07-01 04:33:52",
    "Latitude": 40.6825484,
    "Longitude": -80.34921611,
    "Confirmed": 669,
    "Deaths": 78,
    "Recovered": 0,
    "Active": 591,
    "Combined_Key": "Beaver, Pennsylvania, US",
    "Incidence_Rate": 408.1035082261223,
    "Case-Fatality_Ratio": 11.659192825112108
  },
  {
    "FIPS": 30001,
    "County": "Beaverhead",
    "Province_State": "Montana",
    "Country_Region": "US",
    "Last_Update": "2020-07-01 04:33:52",
    "Latitude": 45.13434354,
    "Longitude": -112.8984694,
    "Confirmed": 1,
    "Deaths": 0,
    "Recovered": 0,
    "Active": 1,
    "Combined_Key": "Beaverhead, Montana, US",
    "Incidence_Rate": 10.578652279699567,
    "Case-Fatality_Ratio": 0
  },
  {
    "FIPS": 27005,
    "County": "Becker",
    "Province_State": "Minnesota",
    "Country_Region": "US",
    "Last_Update": "2020-07-01 04:33:52",
    "Latitude": 46.93479392,
    "Longitude": -95.67158144,
    "Confirmed": 54,
    "Deaths": 0,
    "Recovered": 0,
    "Active": 54,
    "Combined_Key": "Becker, Minnesota, US",
    "Incidence_Rate": 156.87185893152835,
    "Case-Fatality_Ratio": 0
  },
  {
    "FIPS": 40009,
    "County": "Beckham",
    "Province_State": "Oklahoma",
    "Country_Region": "US",
    "Last_Update": "2020-07-01 04:33:52",
    "Latitude": 35.26862449,
    "Longitude": -99.68128023,
    "Confirmed": 11,
    "Deaths": 0,
    "Recovered": 0,
    "Active": 11,
    "Combined_Key": "Beckham, Oklahoma, US",
    "Incidence_Rate": 50.32252161581042,
    "Case-Fatality_Ratio": 0
  },
  {
    "FIPS": 42009,
    "County": "Bedford",
    "Province_State": "Pennsylvania",
    "Country_Region": "US",
    "Last_Update": "2020-07-01 04:33:52",
    "Latitude": 40.00522157,
    "Longitude": -78.48998442,
    "Confirmed": 82,
    "Deaths": 3,
    "Recovered": 0,
    "Active": 79,
    "Combined_Key": "Bedford, Pennsylvania, US",
    "Incidence_Rate": 171.23287671232876,
    "Case-Fatality_Ratio": 3.658536585365854
  },
  {
    "FIPS": 47003,
    "County": "Bedford",
    "Province_State": "Tennessee",
    "Country_Region": "US",
    "Last_Update": "2020-07-01 04:33:52",
    "Latitude": 35.51123746,
    "Longitude": -86.45549096,
    "Confirmed": 513,
    "Deaths": 5,
    "Recovered": 0,
    "Active": 508,
    "Combined_Key": "Bedford, Tennessee, US",
    "Incidence_Rate": 1031.9232393941222,
    "Case-Fatality_Ratio": 0.9746588693957114
  },
  {
    "FIPS": 51019,
    "County": "Bedford",
    "Province_State": "Virginia",
    "Country_Region": "US",
    "Last_Update": "2020-07-01 04:33:52",
    "Latitude": 37.3080028,
    "Longitude": -79.5281964,
    "Confirmed": 118,
    "Deaths": 3,
    "Recovered": 0,
    "Active": 115,
    "Combined_Key": "Bedford, Virginia, US",
    "Incidence_Rate": 149.3727609909237,
    "Case-Fatality_Ratio": 2.542372881355932
  },
  {
    "FIPS": 48025,
    "County": "Bee",
    "Province_State": "Texas",
    "Country_Region": "US",
    "Last_Update": "2020-07-01 04:33:52",
    "Latitude": 28.41761668,
    "Longitude": -97.74215593,
    "Confirmed": 46,
    "Deaths": 0,
    "Recovered": 0,
    "Active": 46,
    "Combined_Key": "Bee, Texas, US",
    "Incidence_Rate": 141.25594963918317,
    "Case-Fatality_Ratio": 0
  },
  {
    "FIPS": 33001,
    "County": "Belknap",
    "Province_State": "New Hampshire",
    "Country_Region": "US",
    "Last_Update": "2020-07-01 04:33:52",
    "Latitude": 43.51637314,
    "Longitude": -71.41684235,
    "Confirmed": 81,
    "Deaths": 1,
    "Recovered": 0,
    "Active": 80,
    "Combined_Key": "Belknap, New Hampshire, US",
    "Incidence_Rate": 132.13056457269627,
    "Case-Fatality_Ratio": 1.2345679012345678
  },
  {
    "FIPS": 21013,
    "County": "Bell",
    "Province_State": "Kentucky",
    "Country_Region": "US",
    "Last_Update": "2020-07-01 04:33:52",
    "Latitude": 36.73355174,
    "Longitude": -83.67766671,
    "Confirmed": 8,
    "Deaths": 0,
    "Recovered": 0,
    "Active": 8,
    "Combined_Key": "Bell, Kentucky, US",
    "Incidence_Rate": 30.73140749846343,
    "Case-Fatality_Ratio": 0
  },
  {
    "FIPS": 48027,
    "County": "Bell",
    "Province_State": "Texas",
    "Country_Region": "US",
    "Last_Update": "2020-07-01 04:33:52",
    "Latitude": 31.03736027,
    "Longitude": -97.4785025,
    "Confirmed": 1187,
    "Deaths": 13,
    "Recovered": 0,
    "Active": 1174,
    "Combined_Key": "Bell, Texas, US",
    "Incidence_Rate": 327.0657217489061,
    "Case-Fatality_Ratio": 1.0951979780960404
  },
  {
    "FIPS": 39013,
    "County": "Belmont",
    "Province_State": "Ohio",
    "Country_Region": "US",
    "Last_Update": "2020-07-01 04:33:52",
    "Latitude": 40.01625942,
    "Longitude": -80.9924051,
    "Confirmed": 528,
    "Deaths": 21,
    "Recovered": 0,
    "Active": 507,
    "Combined_Key": "Belmont, Ohio, US",
    "Incidence_Rate": 787.9891353013163,
    "Case-Fatality_Ratio": 3.977272727272727
  },
  {
    "FIPS": 27007,
    "County": "Beltrami",
    "Province_State": "Minnesota",
    "Country_Region": "US",
    "Last_Update": "2020-07-01 04:33:52",
    "Latitude": 47.97373527,
    "Longitude": -94.93732139,
    "Confirmed": 27,
    "Deaths": 0,
    "Recovered": 0,
    "Active": 27,
    "Combined_Key": "Beltrami, Minnesota, US",
    "Incidence_Rate": 57.217936763583964,
    "Case-Fatality_Ratio": 0
  },
  {
    "FIPS": 13017,
    "County": "Ben Hill",
    "Province_State": "Georgia",
    "Country_Region": "US",
    "Last_Update": "2020-07-01 04:33:52",
    "Latitude": 31.76095874,
    "Longitude": -83.22145359,
    "Confirmed": 165,
    "Deaths": 1,
    "Recovered": 0,
    "Active": 164,
    "Combined_Key": "Ben Hill, Georgia, US",
    "Incidence_Rate": 988.0239520958083,
    "Case-Fatality_Ratio": 0.6060606060606061
  },
  {
    "FIPS": 16009,
    "County": "Benewah",
    "Province_State": "Idaho",
    "Country_Region": "US",
    "Last_Update": "2020-07-01 04:33:52",
    "Latitude": 47.21754179,
    "Longitude": -116.6586851,
    "Confirmed": 21,
    "Deaths": 0,
    "Recovered": 0,
    "Active": 21,
    "Combined_Key": "Benewah, Idaho, US",
    "Incidence_Rate": 225.85502258550227,
    "Case-Fatality_Ratio": 0
  },
  {
    "FIPS": 46007,
    "County": "Bennett",
    "Province_State": "South Dakota",
    "Country_Region": "US",
    "Last_Update": "2020-07-01 04:33:52",
    "Latitude": 43.19486375,
    "Longitude": -101.6665572,
    "Confirmed": 4,
    "Deaths": 0,
    "Recovered": 0,
    "Active": 4,
    "Combined_Key": "Bennett, South Dakota, US",
    "Incidence_Rate": 118.87072808320951,
    "Case-Fatality_Ratio": 0
  },
  {
    "FIPS": 50003,
    "County": "Bennington",
    "Province_State": "Vermont",
    "Country_Region": "US",
    "Last_Update": "2020-07-01 04:33:52",
    "Latitude": 43.03519828,
    "Longitude": -73.09048868,
    "Confirmed": 72,
    "Deaths": 1,
    "Recovered": 0,
    "Active": 71,
    "Combined_Key": "Bennington, Vermont, US",
    "Incidence_Rate": 202.98844093600226,
    "Case-Fatality_Ratio": 1.3888888888888888
  },
  {
    "FIPS": 38005,
    "County": "Benson",
    "Province_State": "North Dakota",
    "Country_Region": "US",
    "Last_Update": "2020-07-01 04:33:52",
    "Latitude": 48.0683985,
    "Longitude": -99.35916363,
    "Confirmed": 4,
    "Deaths": 0,
    "Recovered": 0,
    "Active": 4,
    "Combined_Key": "Benson, North Dakota, US",
    "Incidence_Rate": 58.5480093676815,
    "Case-Fatality_Ratio": 0
  },
  {
    "FIPS": 8011,
    "County": "Bent",
    "Province_State": "Colorado",
    "Country_Region": "US",
    "Last_Update": "2020-07-01 04:33:52",
    "Latitude": 37.95474293,
    "Longitude": -103.0720195,
    "Confirmed": 4,
    "Deaths": 0,
    "Recovered": 0,
    "Active": 4,
    "Combined_Key": "Bent, Colorado, US",
    "Incidence_Rate": 71.72314864622557,
    "Case-Fatality_Ratio": 0
  },
  {
    "FIPS": 5007,
    "County": "Benton",
    "Province_State": "Arkansas",
    "Country_Region": "US",
    "Last_Update": "2020-07-01 04:33:52",
    "Latitude": 36.33644656,
    "Longitude": -94.25680817,
    "Confirmed": 2723,
    "Deaths": 18,
    "Recovered": 0,
    "Active": 2705,
    "Combined_Key": "Benton, Arkansas, US",
    "Incidence_Rate": 975.4926721620973,
    "Case-Fatality_Ratio": 0.6610356224752112
  },
  {
    "FIPS": 18007,
    "County": "Benton",
    "Province_State": "Indiana",
    "Country_Region": "US",
    "Last_Update": "2020-07-01 04:33:52",
    "Latitude": 40.60626947,
    "Longitude": -87.31093999,
    "Confirmed": 47,
    "Deaths": 0,
    "Recovered": 0,
    "Active": 47,
    "Combined_Key": "Benton, Indiana, US",
    "Incidence_Rate": 537.2656607224509,
    "Case-Fatality_Ratio": 0
  },
  {
    "FIPS": 19011,
    "County": "Benton",
    "Province_State": "Iowa",
    "Country_Region": "US",
    "Last_Update": "2020-07-01 04:33:52",
    "Latitude": 42.08011739,
    "Longitude": -92.06463573,
    "Confirmed": 58,
    "Deaths": 1,
    "Recovered": 0,
    "Active": 57,
    "Combined_Key": "Benton, Iowa, US",
    "Incidence_Rate": 226.1649444336128,
    "Case-Fatality_Ratio": 1.7241379310344827
  },
  {
    "FIPS": 27009,
    "County": "Benton",
    "Province_State": "Minnesota",
    "Country_Region": "US",
    "Last_Update": "2020-07-01 04:33:52",
    "Latitude": 45.69804958,
    "Longitude": -93.99514135,
    "Confirmed": 208,
    "Deaths": 3,
    "Recovered": 0,
    "Active": 205,
    "Combined_Key": "Benton, Minnesota, US",
    "Incidence_Rate": 508.69426985252755,
    "Case-Fatality_Ratio": 1.4423076923076923
  },
  {
    "FIPS": 28009,
    "County": "Benton",
    "Province_State": "Mississippi",
    "Country_Region": "US",
    "Last_Update": "2020-07-01 04:33:52",
    "Latitude": 34.81681228,
    "Longitude": -89.18945516,
    "Confirmed": 27,
    "Deaths": 0,
    "Recovered": 0,
    "Active": 27,
    "Combined_Key": "Benton, Mississippi, US",
    "Incidence_Rate": 326.91609153650563,
    "Case-Fatality_Ratio": 0
  },
  {
    "FIPS": 29015,
    "County": "Benton",
    "Province_State": "Missouri",
    "Country_Region": "US",
    "Last_Update": "2020-07-01 04:33:52",
    "Latitude": 38.29503305,
    "Longitude": -93.28756116,
    "Confirmed": 17,
    "Deaths": 0,
    "Recovered": 0,
    "Active": 17,
    "Combined_Key": "Benton, Missouri, US",
    "Incidence_Rate": 87.43506660494779,
    "Case-Fatality_Ratio": 0
  },
  {
    "FIPS": 41003,
    "County": "Benton",
    "Province_State": "Oregon",
    "Country_Region": "US",
    "Last_Update": "2020-07-01 04:33:52",
    "Latitude": 44.49167306,
    "Longitude": -123.4316987,
    "Confirmed": 82,
    "Deaths": 5,
    "Recovered": 0,
    "Active": 77,
    "Combined_Key": "Benton, Oregon, US",
    "Incidence_Rate": 88.1218230470807,
    "Case-Fatality_Ratio": 6.097560975609756
  },
  {
    "FIPS": 47005,
    "County": "Benton",
    "Province_State": "Tennessee",
    "Country_Region": "US",
    "Last_Update": "2020-07-01 04:33:52",
    "Latitude": 36.07110411,
    "Longitude": -88.06849355,
    "Confirmed": 12,
    "Deaths": 1,
    "Recovered": 0,
    "Active": 11,
    "Combined_Key": "Benton, Tennessee, US",
    "Incidence_Rate": 74.25742574257426,
    "Case-Fatality_Ratio": 8.333333333333334
  },
  {
    "FIPS": 53005,
    "County": "Benton",
    "Province_State": "Washington",
    "Country_Region": "US",
    "Last_Update": "2020-07-01 04:33:52",
    "Latitude": 46.23946995,
    "Longitude": -119.5120834,
    "Confirmed": 1731,
    "Deaths": 82,
    "Recovered": 0,
    "Active": 1649,
    "Combined_Key": "Benton, Washington, US",
    "Incidence_Rate": 846.9103185087333,
    "Case-Fatality_Ratio": 4.737146158290006
  },
  {
    "FIPS": 26019,
    "County": "Benzie",
    "Province_State": "Michigan",
    "Country_Region": "US",
    "Last_Update": "2020-07-01 04:33:52",
    "Latitude": 44.63899297,
    "Longitude": -86.01608482,
    "Confirmed": 12,
    "Deaths": 0,
    "Recovered": 0,
    "Active": 12,
    "Combined_Key": "Benzie, Michigan, US",
    "Incidence_Rate": 67.54474839581222,
    "Case-Fatality_Ratio": 0
  },
  {
    "FIPS": 34003,
    "County": "Bergen",
    "Province_State": "New Jersey",
    "Country_Region": "US",
    "Last_Update": "2020-07-01 04:33:52",
    "Latitude": 40.96010917,
    "Longitude": -74.07164325,
    "Confirmed": 19423,
    "Deaths": 1989,
    "Recovered": 0,
    "Active": 17434,
    "Combined_Key": "Bergen, New Jersey, US",
    "Incidence_Rate": 2083.561288218648,
    "Case-Fatality_Ratio": 10.240436595788498
  },
  {
    "FIPS": 45015,
    "County": "Berkeley",
    "Province_State": "South Carolina",
    "Country_Region": "US",
    "Last_Update": "2020-07-01 04:33:52",
    "Latitude": 33.20222596,
    "Longitude": -79.94654523,
    "Confirmed": 1069,
    "Deaths": 22,
    "Recovered": 0,
    "Active": 1047,
    "Combined_Key": "Berkeley, South Carolina, US",
    "Incidence_Rate": 469.05097254581915,
    "Case-Fatality_Ratio": 2.05799812909261
  },
  {
    "FIPS": 54003,
    "County": "Berkeley",
    "Province_State": "West Virginia",
    "Country_Region": "US",
    "Last_Update": "2020-07-01 04:33:52",
    "Latitude": 39.46704621,
    "Longitude": -78.02414609,
    "Confirmed": 458,
    "Deaths": 10,
    "Recovered": 0,
    "Active": 448,
    "Combined_Key": "Berkeley, West Virginia, US",
    "Incidence_Rate": 384.32168900151885,
    "Case-Fatality_Ratio": 2.183406113537118
  },
  {
    "FIPS": 42011,
    "County": "Berks",
    "Province_State": "Pennsylvania",
    "Country_Region": "US",
    "Last_Update": "2020-07-01 04:33:52",
    "Latitude": 40.41570541,
    "Longitude": -75.92457766,
    "Confirmed": 4527,
    "Deaths": 351,
    "Recovered": 0,
    "Active": 4176,
    "Combined_Key": "Berks, Pennsylvania, US",
    "Incidence_Rate": 1074.8781947174973,
    "Case-Fatality_Ratio": 7.753479125248509
  },
  {
    "FIPS": 25003,
    "County": "Berkshire",
    "Province_State": "Massachusetts",
    "Country_Region": "US",
    "Last_Update": "2020-07-01 04:33:52",
    "Latitude": 42.37428441,
    "Longitude": -73.20524838,
    "Confirmed": 594,
    "Deaths": 44,
    "Recovered": 0,
    "Active": 550,
    "Combined_Key": "Berkshire, Massachusetts, US",
    "Incidence_Rate": 475.4129850172877,
    "Case-Fatality_Ratio": 7.407407407407407
  },
  {
    "FIPS": 35001,
    "County": "Bernalillo",
    "Province_State": "New Mexico",
    "Country_Region": "US",
    "Last_Update": "2020-07-01 04:33:52",
    "Latitude": 35.05163625,
    "Longitude": -106.6703554,
    "Confirmed": 2143,
    "Deaths": 85,
    "Recovered": 0,
    "Active": 2058,
    "Combined_Key": "Bernalillo, New Mexico, US",
    "Incidence_Rate": 315.5549600144893,
    "Case-Fatality_Ratio": 3.9664022398506766
  },
  {
    "FIPS": 13019,
    "County": "Berrien",
    "Province_State": "Georgia",
    "Country_Region": "US",
    "Last_Update": "2020-07-01 04:33:52",
    "Latitude": 31.27590016,
    "Longitude": -83.22529920000002,
    "Confirmed": 116,
    "Deaths": 0,
    "Recovered": 0,
    "Active": 116,
    "Combined_Key": "Berrien, Georgia, US",
    "Incidence_Rate": 598.0306232922617,
    "Case-Fatality_Ratio": 0
  },
  {
    "FIPS": 26021,
    "County": "Berrien",
    "Province_State": "Michigan",
    "Country_Region": "US",
    "Last_Update": "2020-07-01 04:33:52",
    "Latitude": 41.95447397,
    "Longitude": -86.41313079999998,
    "Confirmed": 882,
    "Deaths": 60,
    "Recovered": 0,
    "Active": 822,
    "Combined_Key": "Berrien, Michigan, US",
    "Incidence_Rate": 574.9636573425206,
    "Case-Fatality_Ratio": 6.802721088435374
  },
  {
    "FIPS": 37015,
    "County": "Bertie",
    "Province_State": "North Carolina",
    "Country_Region": "US",
    "Last_Update": "2020-07-01 04:33:52",
    "Latitude": 36.0688473,
    "Longitude": -76.96545943,
    "Confirmed": 145,
    "Deaths": 4,
    "Recovered": 0,
    "Active": 141,
    "Combined_Key": "Bertie, North Carolina, US",
    "Incidence_Rate": 765.2926584683591,
    "Case-Fatality_Ratio": 2.7586206896551726
  },
  {
    "FIPS": 2050,
    "County": "Bethel",
    "Province_State": "Alaska",
    "Country_Region": "US",
    "Last_Update": "2020-07-01 04:33:52",
    "Latitude": 60.90980451,
    "Longitude": -159.8561831,
    "Confirmed": 9,
    "Deaths": 0,
    "Recovered": 0,
    "Active": 9,
    "Combined_Key": "Bethel, Alaska, US",
    "Incidence_Rate": 48.950288262808655,
    "Case-Fatality_Ratio": 0
  },
  {
    "FIPS": 48029,
    "County": "Bexar",
    "Province_State": "Texas",
    "Country_Region": "US",
    "Last_Update": "2020-07-01 04:33:52",
    "Latitude": 29.44928723,
    "Longitude": -98.52019748,
    "Confirmed": 10797,
    "Deaths": 109,
    "Recovered": 0,
    "Active": 10688,
    "Combined_Key": "Bexar, Texas, US",
    "Incidence_Rate": 538.8923882261222,
    "Case-Fatality_Ratio": 1.0095396869500788
  },
  {
    "FIPS": 1007,
    "County": "Bibb",
    "Province_State": "Alabama",
    "Country_Region": "US",
    "Last_Update": "2020-07-01 04:33:52",
    "Latitude": 32.99642064,
    "Longitude": -87.12511459999996,
    "Confirmed": 167,
    "Deaths": 1,
    "Recovered": 0,
    "Active": 166,
    "Combined_Key": "Bibb, Alabama, US",
    "Incidence_Rate": 745.735464856658,
    "Case-Fatality_Ratio": 0.5988023952095808
  },
  {
    "FIPS": 13021,
    "County": "Bibb",
    "Province_State": "Georgia",
    "Country_Region": "US",
    "Last_Update": "2020-07-01 04:33:52",
    "Latitude": 32.80904227,
    "Longitude": -83.70489165,
    "Confirmed": 848,
    "Deaths": 39,
    "Recovered": 0,
    "Active": 809,
    "Combined_Key": "Bibb, Georgia, US",
    "Incidence_Rate": 553.6729803668084,
    "Case-Fatality_Ratio": 4.599056603773585
  },
  {
    "FIPS": 22013,
    "County": "Bienville",
    "Province_State": "Louisiana",
    "Country_Region": "US",
    "Last_Update": "2020-07-01 04:33:52",
    "Latitude": 32.34569994,
    "Longitude": -93.05398492,
    "Confirmed": 227,
    "Deaths": 26,
    "Recovered": 0,
    "Active": 201,
    "Combined_Key": "Bienville, Louisiana, US",
    "Incidence_Rate": 1714.372026282003,
    "Case-Fatality_Ratio": 11.45374449339207
  },
  {
    "FIPS": 30003,
    "County": "Big Horn",
    "Province_State": "Montana",
    "Country_Region": "US",
    "Last_Update": "2020-07-01 04:33:52",
    "Latitude": 45.42335905,
    "Longitude": -107.492347,
    "Confirmed": 74,
    "Deaths": 3,
    "Recovered": 0,
    "Active": 71,
    "Combined_Key": "Big Horn, Montana, US",
    "Incidence_Rate": 555.5972670620918,
    "Case-Fatality_Ratio": 4.054054054054054
  },
  {
    "FIPS": 56003,
    "County": "Big Horn",
    "Province_State": "Wyoming",
    "Country_Region": "US",
    "Last_Update": "2020-07-01 04:33:52",
    "Latitude": 44.52405055,
    "Longitude": -107.9960365,
    "Confirmed": 20,
    "Deaths": 0,
    "Recovered": 0,
    "Active": 20,
    "Combined_Key": "Big Horn, Wyoming, US",
    "Incidence_Rate": 169.63528413910095,
    "Case-Fatality_Ratio": 0
  },
  {
    "FIPS": 27011,
    "County": "Big Stone",
    "Province_State": "Minnesota",
    "Country_Region": "US",
    "Last_Update": "2020-07-01 04:33:52",
    "Latitude": 45.42712824,
    "Longitude": -96.41403739,
    "Confirmed": 14,
    "Deaths": 0,
    "Recovered": 0,
    "Active": 14,
    "Combined_Key": "Big Stone, Minnesota, US",
    "Incidence_Rate": 280.50490883590464,
    "Case-Fatality_Ratio": 0
  },
  {
    "FIPS": 38007,
    "County": "Billings",
    "Province_State": "North Dakota",
    "Country_Region": "US",
    "Last_Update": "2020-07-01 04:33:52",
    "Latitude": 47.02366884,
    "Longitude": -103.3762965,
    "Confirmed": 1,
    "Deaths": 0,
    "Recovered": 0,
    "Active": 1,
    "Combined_Key": "Billings, North Dakota, US",
    "Incidence_Rate": 107.75862068965517,
    "Case-Fatality_Ratio": 0
  },
  {
    "FIPS": 16011,
    "County": "Bingham",
    "Province_State": "Idaho",
    "Country_Region": "US",
    "Last_Update": "2020-07-01 04:33:52",
    "Latitude": 43.21672879999999,
    "Longitude": -112.3978437,
    "Confirmed": 40,
    "Deaths": 0,
    "Recovered": 0,
    "Active": 40,
    "Combined_Key": "Bingham, Idaho, US",
    "Incidence_Rate": 85.45000106812502,
    "Case-Fatality_Ratio": 0
  },
  {
    "FIPS": 19013,
    "County": "Black Hawk",
    "Province_State": "Iowa",
    "Country_Region": "US",
    "Last_Update": "2020-07-01 04:33:52",
    "Latitude": 42.4704581,
    "Longitude": -92.30524729,
    "Confirmed": 2095,
    "Deaths": 57,
    "Recovered": 0,
    "Active": 2038,
    "Combined_Key": "Black Hawk, Iowa, US",
    "Incidence_Rate": 1596.4580729722315,
    "Case-Fatality_Ratio": 2.720763723150358
  },
  {
    "FIPS": 18009,
    "County": "Blackford",
    "Province_State": "Indiana",
    "Country_Region": "US",
    "Last_Update": "2020-07-01 04:33:52",
    "Latitude": 40.47388153,
    "Longitude": -85.32499702,
    "Confirmed": 35,
    "Deaths": 2,
    "Recovered": 0,
    "Active": 33,
    "Combined_Key": "Blackford, Indiana, US",
    "Incidence_Rate": 297.6696717128763,
    "Case-Fatality_Ratio": 5.714285714285714
  },
  {
    "FIPS": 37017,
    "County": "Bladen",
    "Province_State": "North Carolina",
    "Country_Region": "US",
    "Last_Update": "2020-07-01 04:33:52",
    "Latitude": 34.61296243,
    "Longitude": -78.56180059,
    "Confirmed": 371,
    "Deaths": 3,
    "Recovered": 0,
    "Active": 368,
    "Combined_Key": "Bladen, North Carolina, US",
    "Incidence_Rate": 1133.7937778864373,
    "Case-Fatality_Ratio": 0.8086253369272237
  },
  {
    "FIPS": 16013,
    "County": "Blaine",
    "Province_State": "Idaho",
    "Country_Region": "US",
    "Last_Update": "2020-07-01 04:33:52",
    "Latitude": 43.4085812,
    "Longitude": -113.9752658,
    "Confirmed": 535,
    "Deaths": 5,
    "Recovered": 0,
    "Active": 530,
    "Combined_Key": "Blaine, Idaho, US",
    "Incidence_Rate": 2323.9650753659703,
    "Case-Fatality_Ratio": 0.9345794392523364
  },
  {
    "FIPS": 31009,
    "County": "Blaine",
    "Province_State": "Nebraska",
    "Country_Region": "US",
    "Last_Update": "2020-07-01 04:33:52",
    "Latitude": 41.91311716,
    "Longitude": -99.97677845,
    "Confirmed": 0,
    "Deaths": 0,
    "Recovered": 0,
    "Active": 0,
    "Combined_Key": "Blaine, Nebraska, US",
    "Incidence_Rate": 0,
    "Case-Fatality_Ratio": null
  },
  {
    "FIPS": 40011,
    "County": "Blaine",
    "Province_State": "Oklahoma",
    "Country_Region": "US",
    "Last_Update": "2020-07-01 04:33:52",
    "Latitude": 35.87518314,
    "Longitude": -98.43307003,
    "Confirmed": 14,
    "Deaths": 0,
    "Recovered": 0,
    "Active": 14,
    "Combined_Key": "Blaine, Oklahoma, US",
    "Incidence_Rate": 148.47809948032665,
    "Case-Fatality_Ratio": 0
  },
  {
    "FIPS": 42013,
    "County": "Blair",
    "Province_State": "Pennsylvania",
    "Country_Region": "US",
    "Last_Update": "2020-07-01 04:33:52",
    "Latitude": 40.47961444,
    "Longitude": -78.34917412,
    "Confirmed": 71,
    "Deaths": 1,
    "Recovered": 0,
    "Active": 70,
    "Combined_Key": "Blair, Pennsylvania, US",
    "Incidence_Rate": 58.278406619113674,
    "Case-Fatality_Ratio": 1.408450704225352
  },
  {
    "FIPS": 48031,
    "County": "Blanco",
    "Province_State": "Texas",
    "Country_Region": "US",
    "Last_Update": "2020-07-01 04:33:52",
    "Latitude": 30.26640707,
    "Longitude": -98.3999852,
    "Confirmed": 27,
    "Deaths": 1,
    "Recovered": 0,
    "Active": 26,
    "Combined_Key": "Blanco, Texas, US",
    "Incidence_Rate": 226.3012320844858,
    "Case-Fatality_Ratio": 3.7037037037037037
  },
  {
    "FIPS": 51021,
    "County": "Bland",
    "Province_State": "Virginia",
    "Country_Region": "US",
    "Last_Update": "2020-07-01 04:33:52",
    "Latitude": 37.13128068,
    "Longitude": -81.13599391,
    "Confirmed": 2,
    "Deaths": 0,
    "Recovered": 0,
    "Active": 2,
    "Combined_Key": "Bland, Virginia, US",
    "Incidence_Rate": 31.84713375796178,
    "Case-Fatality_Ratio": 0
  },
  {
    "FIPS": 13023,
    "County": "Bleckley",
    "Province_State": "Georgia",
    "Country_Region": "US",
    "Last_Update": "2020-07-01 04:33:52",
    "Latitude": 32.43829035,
    "Longitude": -83.33035166,
    "Confirmed": 60,
    "Deaths": 1,
    "Recovered": 0,
    "Active": 59,
    "Combined_Key": "Bleckley, Georgia, US",
    "Incidence_Rate": 466.0918200885574,
    "Case-Fatality_Ratio": 1.6666666666666667
  },
  {
    "FIPS": 47007,
    "County": "Bledsoe",
    "Province_State": "Tennessee",
    "Country_Region": "US",
    "Last_Update": "2020-07-01 04:33:52",
    "Latitude": 35.59942968,
    "Longitude": -85.20611967,
    "Confirmed": 617,
    "Deaths": 1,
    "Recovered": 0,
    "Active": 616,
    "Combined_Key": "Bledsoe, Tennessee, US",
    "Incidence_Rate": 4095.857673924588,
    "Case-Fatality_Ratio": 0.1620745542949757
  },
  {
    "FIPS": 1009,
    "County": "Blount",
    "Province_State": "Alabama",
    "Country_Region": "US",
    "Last_Update": "2020-07-01 04:33:52",
    "Latitude": 33.98210918,
    "Longitude": -86.56790593,
    "Confirmed": 204,
    "Deaths": 1,
    "Recovered": 0,
    "Active": 203,
    "Combined_Key": "Blount, Alabama, US",
    "Incidence_Rate": 352.78248538719606,
    "Case-Fatality_Ratio": 0.49019607843137253
  },
  {
    "FIPS": 47009,
    "County": "Blount",
    "Province_State": "Tennessee",
    "Country_Region": "US",
    "Last_Update": "2020-07-01 04:33:52",
    "Latitude": 35.68938198,
    "Longitude": -83.92847788,
    "Confirmed": 173,
    "Deaths": 3,
    "Recovered": 0,
    "Active": 170,
    "Combined_Key": "Blount, Tennessee, US",
    "Incidence_Rate": 129.98918009136813,
    "Case-Fatality_Ratio": 1.7341040462427746
  },
  {
    "FIPS": 27013,
    "County": "Blue Earth",
    "Province_State": "Minnesota",
    "Country_Region": "US",
    "Last_Update": "2020-07-01 04:33:52",
    "Latitude": 44.03554215,
    "Longitude": -94.06699781,
    "Confirmed": 403,
    "Deaths": 2,
    "Recovered": 0,
    "Active": 401,
    "Combined_Key": "Blue Earth, Minnesota, US",
    "Incidence_Rate": 595.6868135928931,
    "Case-Fatality_Ratio": 0.49627791563275436
  },
  {
    "FIPS": 16015,
    "County": "Boise",
    "Province_State": "Idaho",
    "Country_Region": "US",
    "Last_Update": "2020-07-01 04:33:52",
    "Latitude": 43.98829931,
    "Longitude": -115.7309284,
    "Confirmed": 4,
    "Deaths": 0,
    "Recovered": 0,
    "Active": 4,
    "Combined_Key": "Boise, Idaho, US",
    "Incidence_Rate": 51.07904482186183,
    "Case-Fatality_Ratio": 0
  },
  {
    "FIPS": 28011,
    "County": "Bolivar",
    "Province_State": "Mississippi",
    "Country_Region": "US",
    "Last_Update": "2020-07-01 04:33:52",
    "Latitude": 33.79696941,
    "Longitude": -90.87372121,
    "Confirmed": 261,
    "Deaths": 13,
    "Recovered": 0,
    "Active": 248,
    "Combined_Key": "Bolivar, Mississippi, US",
    "Incidence_Rate": 852.1614209220321,
    "Case-Fatality_Ratio": 4.980842911877395
  },
  {
    "FIPS": 29017,
    "County": "Bollinger",
    "Province_State": "Missouri",
    "Country_Region": "US",
    "Last_Update": "2020-07-01 04:33:52",
    "Latitude": 37.32449052,
    "Longitude": -90.02725304,
    "Confirmed": 12,
    "Deaths": 0,
    "Recovered": 0,
    "Active": 12,
    "Combined_Key": "Bollinger, Missouri, US",
    "Incidence_Rate": 98.90381603890216,
    "Case-Fatality_Ratio": 0
  },
  {
    "FIPS": 46009,
    "County": "Bon Homme",
    "Province_State": "South Dakota",
    "Country_Region": "US",
    "Last_Update": "2020-07-01 04:33:52",
    "Latitude": 42.98914167,
    "Longitude": -97.88592746,
    "Confirmed": 11,
    "Deaths": 0,
    "Recovered": 0,
    "Active": 11,
    "Combined_Key": "Bon Homme, South Dakota, US",
    "Incidence_Rate": 159.39718881321548,
    "Case-Fatality_Ratio": 0
  },
  {
    "FIPS": 17005,
    "County": "Bond",
    "Province_State": "Illinois",
    "Country_Region": "US",
    "Last_Update": "2020-07-01 04:33:52",
    "Latitude": 38.88829622,
    "Longitude": -89.43534887,
    "Confirmed": 13,
    "Deaths": 1,
    "Recovered": 0,
    "Active": 12,
    "Combined_Key": "Bond, Illinois, US",
    "Incidence_Rate": 79.14282235480336,
    "Case-Fatality_Ratio": 7.6923076923076925
  },
  {
    "FIPS": 16017,
    "County": "Bonner",
    "Province_State": "Idaho",
    "Country_Region": "US",
    "Last_Update": "2020-07-01 04:33:52",
    "Latitude": 48.29996017,
    "Longitude": -116.6017932,
    "Confirmed": 32,
    "Deaths": 0,
    "Recovered": 0,
    "Active": 32,
    "Combined_Key": "Bonner, Idaho, US",
    "Incidence_Rate": 69.96217669822252,
    "Case-Fatality_Ratio": 0
  },
  {
    "FIPS": 16019,
    "County": "Bonneville",
    "Province_State": "Idaho",
    "Country_Region": "US",
    "Last_Update": "2020-07-01 04:33:52",
    "Latitude": 43.38713372,
    "Longitude": -111.6161537,
    "Confirmed": 115,
    "Deaths": 1,
    "Recovered": 0,
    "Active": 114,
    "Combined_Key": "Bonneville, Idaho, US",
    "Incidence_Rate": 96.58833212947876,
    "Case-Fatality_Ratio": 0.8695652173913043
  },
  {
    "FIPS": 5009,
    "County": "Boone",
    "Province_State": "Arkansas",
    "Country_Region": "US",
    "Last_Update": "2020-07-01 04:33:52",
    "Latitude": 36.3084504,
    "Longitude": -93.09374925,
    "Confirmed": 26,
    "Deaths": 1,
    "Recovered": 0,
    "Active": 25,
    "Combined_Key": "Boone, Arkansas, US",
    "Incidence_Rate": 69.45928617225903,
    "Case-Fatality_Ratio": 3.8461538461538463
  },
  {
    "FIPS": 17007,
    "County": "Boone",
    "Province_State": "Illinois",
    "Country_Region": "US",
    "Last_Update": "2020-07-01 04:33:52",
    "Latitude": 42.32359279,
    "Longitude": -88.82345779,
    "Confirmed": 586,
    "Deaths": 21,
    "Recovered": 0,
    "Active": 565,
    "Combined_Key": "Boone, Illinois, US",
    "Incidence_Rate": 1094.427013297475,
    "Case-Fatality_Ratio": 3.583617747440273
  },
  {
    "FIPS": 18011,
    "County": "Boone",
    "Province_State": "Indiana",
    "Country_Region": "US",
    "Last_Update": "2020-07-01 04:33:52",
    "Latitude": 40.0509304,
    "Longitude": -86.46841646,
    "Confirmed": 421,
    "Deaths": 42,
    "Recovered": 0,
    "Active": 379,
    "Combined_Key": "Boone, Indiana, US",
    "Incidence_Rate": 620.5503883967395,
    "Case-Fatality_Ratio": 9.97624703087886
  },
  {
    "FIPS": 19015,
    "County": "Boone",
    "Province_State": "Iowa",
    "Country_Region": "US",
    "Last_Update": "2020-07-01 04:33:52",
    "Latitude": 42.03657094,
    "Longitude": -93.9313999,
    "Confirmed": 136,
    "Deaths": 1,
    "Recovered": 0,
    "Active": 135,
    "Combined_Key": "Boone, Iowa, US",
    "Incidence_Rate": 518.4112220782191,
    "Case-Fatality_Ratio": 0.7352941176470589
  },
  {
    "FIPS": 21015,
    "County": "Boone",
    "Province_State": "Kentucky",
    "Country_Region": "US",
    "Last_Update": "2020-07-01 04:33:52",
    "Latitude": 38.97065142,
    "Longitude": -84.72615357,
    "Confirmed": 597,
    "Deaths": 23,
    "Recovered": 0,
    "Active": 574,
    "Combined_Key": "Boone, Kentucky, US",
    "Incidence_Rate": 446.9198463853392,
    "Case-Fatality_Ratio": 3.852596314907873
  },
  {
    "FIPS": 29019,
    "County": "Boone",
    "Province_State": "Missouri",
    "Country_Region": "US",
    "Last_Update": "2020-07-01 04:33:52",
    "Latitude": 38.99186229,
    "Longitude": -92.30723575,
    "Confirmed": 313,
    "Deaths": 2,
    "Recovered": 0,
    "Active": 311,
    "Combined_Key": "Boone, Missouri, US",
    "Incidence_Rate": 173.44275557870589,
    "Case-Fatality_Ratio": 0.6389776357827476
  },
  {
    "FIPS": 31011,
    "County": "Boone",
    "Province_State": "Nebraska",
    "Country_Region": "US",
    "Last_Update": "2020-07-01 04:33:52",
    "Latitude": 41.70759415,
    "Longitude": -98.06737183,
    "Confirmed": 7,
    "Deaths": 0,
    "Recovered": 0,
    "Active": 7,
    "Combined_Key": "Boone, Nebraska, US",
    "Incidence_Rate": 134.82280431432974,
    "Case-Fatality_Ratio": 0
  },
  {
    "FIPS": 54005,
    "County": "Boone",
    "Province_State": "West Virginia",
    "Country_Region": "US",
    "Last_Update": "2020-07-01 04:33:52",
    "Latitude": 38.01974191,
    "Longitude": -81.69888019,
    "Confirmed": 21,
    "Deaths": 0,
    "Recovered": 0,
    "Active": 21,
    "Combined_Key": "Boone, West Virginia, US",
    "Incidence_Rate": 97.87015892249616,
    "Case-Fatality_Ratio": 0
  },
  {
    "FIPS": 48035,
    "County": "Bosque",
    "Province_State": "Texas",
    "Country_Region": "US",
    "Last_Update": "2020-07-01 04:33:52",
    "Latitude": 31.89978581,
    "Longitude": -97.63613524,
    "Confirmed": 13,
    "Deaths": 0,
    "Recovered": 0,
    "Active": 13,
    "Combined_Key": "Bosque, Texas, US",
    "Incidence_Rate": 69.57452502006957,
    "Case-Fatality_Ratio": 0
  },
  {
    "FIPS": 22015,
    "County": "Bossier",
    "Province_State": "Louisiana",
    "Country_Region": "US",
    "Last_Update": "2020-07-01 04:33:52",
    "Latitude": 32.67932307,
    "Longitude": -93.60460152,
    "Confirmed": 875,
    "Deaths": 30,
    "Recovered": 0,
    "Active": 845,
    "Combined_Key": "Bossier, Louisiana, US",
    "Incidence_Rate": 688.7648674816395,
    "Case-Fatality_Ratio": 3.4285714285714284
  },
  {
    "FIPS": 51023,
    "County": "Botetourt",
    "Province_State": "Virginia",
    "Country_Region": "US",
    "Last_Update": "2020-07-01 04:33:52",
    "Latitude": 37.55531756,
    "Longitude": -79.80982182,
    "Confirmed": 121,
    "Deaths": 4,
    "Recovered": 0,
    "Active": 117,
    "Combined_Key": "Botetourt, Virginia, US",
    "Incidence_Rate": 362.0694814327179,
    "Case-Fatality_Ratio": 3.3057851239669422
  },