[
  {
    "FIPS": 45001,
    "County": "Abbeville",
    "Province_State": "South Carolina",
    "Country_Region": "US",
    "Last_Update": "2020-07-14 04:34:46",
    "Latitude": 34.22333378,
    "Longitude": -82.46170658,
    "Confirmed": 157,
    "Deaths": 1,
    "Recovered": 0,
    "Active": 156,
    "Combined_Key": "Abbeville, South Carolina, US",
    "Incidence_Rate": 640.1108981938273,
    "Case-Fatality_Ratio": 0.6369426751592356
  },
  {
    "FIPS": 22001,
    "County": "Acadia",
    "Province_State": "Louisiana",
    "Country_Region": "US",
    "Last_Update": "2020-07-14 04:34:46",
    "Latitude": 30.2950649,
    "Longitude": -92.41419698,
    "Confirmed": 1383,
    "Deaths": 45,
    "Recovered": 0,
    "Active": 1338,
    "Combined_Key": "Acadia, Louisiana, US",
    "Incidence_Rate": 2229.0273188814567,
    "Case-Fatality_Ratio": 3.2537960954446854
  },
  {
    "FIPS": 51001,
    "County": "Accomack",
    "Province_State": "Virginia",
    "Country_Region": "US",
    "Last_Update": "2020-07-14 04:34:46",
    "Latitude": 37.76707161,
    "Longitude": -75.63234615,
    "Confirmed": 1041,
    "Deaths": 14,
    "Recovered": 0,
    "Active": 1027,
    "Combined_Key": "Accomack, Virginia, US",
    "Incidence_Rate": 3221.314519123654,
    "Case-Fatality_Ratio": 1.344860710854947
  },
  {
    "FIPS": 16001,
    "County": "Ada",
    "Province_State": "Idaho",
    "Country_Region": "US",
    "Last_Update": "2020-07-14 04:34:46",
    "Latitude": 43.4526575,
    "Longitude": -116.24155159999998,
    "Confirmed": 4448,
    "Deaths": 25,
    "Recovered": 0,
    "Active": 4423,
    "Combined_Key": "Ada, Idaho, US",
    "Incidence_Rate": 923.612971280371,
    "Case-Fatality_Ratio": 0.5620503597122302
  },
  {
    "FIPS": 19001,
    "County": "Adair",
    "Province_State": "Iowa",
    "Country_Region": "US",
    "Last_Update": "2020-07-14 04:34:46",
    "Latitude": 41.33075609,
    "Longitude": -94.47105874,
    "Confirmed": 17,
    "Deaths": 0,
    "Recovered": 0,
    "Active": 17,
    "Combined_Key": "Adair, Iowa, US",
    "Incidence_Rate": 237.69574944071587,
    "Case-Fatality_Ratio": 0
  },
  {
    "FIPS": 21001,
    "County": "Adair",
    "Province_State": "Kentucky",
    "Country_Region": "US",
    "Last_Update": "2020-07-14 04:34:46",
    "Latitude": 37.10459774,
    "Longitude": -85.28129668,
    "Confirmed": 142,
    "Deaths": 19,
    "Recovered": 0,
    "Active": 123,
    "Combined_Key": "Adair, Kentucky, US",
    "Incidence_Rate": 739.5063014269348,
    "Case-Fatality_Ratio": 13.380281690140846
  },
  {
    "FIPS": 29001,
    "County": "Adair",
    "Province_State": "Missouri",
    "Country_Region": "US",
    "Last_Update": "2020-07-14 04:34:46",
    "Latitude": 40.19058551,
    "Longitude": -92.60078167,
    "Confirmed": 100,
    "Deaths": 0,
    "Recovered": 0,
    "Active": 100,
    "Combined_Key": "Adair, Missouri, US",
    "Incidence_Rate": 394.5862762893106,
    "Case-Fatality_Ratio": 0
  },
  {
    "FIPS": 40001,
    "County": "Adair",
    "Province_State": "Oklahoma",
    "Country_Region": "US",
    "Last_Update": "2020-07-14 04:34:46",
    "Latitude": 35.88494195,
    "Longitude": -94.65859267,
    "Confirmed": 137,
    "Deaths": 4,
    "Recovered": 0,
    "Active": 133,
    "Combined_Key": "Adair, Oklahoma, US",
    "Incidence_Rate": 617.2839506172841,
    "Case-Fatality_Ratio": 2.9197080291970803
  },
  {
    "FIPS": 8001,
    "County": "Adams",
    "Province_State": "Colorado",
    "Country_Region": "US",
    "Last_Update": "2020-07-14 04:34:46",
    "Latitude": 39.87432092,
    "Longitude": -104.3362578,
    "Confirmed": 4788,
    "Deaths": 158,
    "Recovered": 0,
    "Active": 4630,
    "Combined_Key": "Adams, Colorado, US",
    "Incidence_Rate": 925.3586537848288,
    "Case-Fatality_Ratio": 3.299916457811195
  },
  {
    "FIPS": 16003,
    "County": "Adams",
    "Province_State": "Idaho",
    "Country_Region": "US",
    "Last_Update": "2020-07-14 04:34:46",
    "Latitude": 44.89333571,
    "Longitude": -116.4545247,
    "Confirmed": 12,
    "Deaths": 0,
    "Recovered": 0,
    "Active": 12,
    "Combined_Key": "Adams, Idaho, US",
    "Incidence_Rate": 279.4597112249651,
    "Case-Fatality_Ratio": 0
  },
  {
    "FIPS": 17001,
    "County": "Adams",
    "Province_State": "Illinois",
    "Country_Region": "US",
    "Last_Update": "2020-07-14 04:34:46",
    "Latitude": 39.98815591,
    "Longitude": -91.18786813,
    "Confirmed": 189,
    "Deaths": 1,
    "Recovered": 0,
    "Active": 188,
    "Combined_Key": "Adams, Illinois, US",
    "Incidence_Rate": 288.83624971345614,
    "Case-Fatality_Ratio": 0.5291005291005291
  },
  {
    "FIPS": 18001,
    "County": "Adams",
    "Province_State": "Indiana",
    "Country_Region": "US",
    "Last_Update": "2020-07-14 04:34:46",
    "Latitude": 40.7457653,
    "Longitude": -84.93671406,
    "Confirmed": 49,
    "Deaths": 1,
    "Recovered": 0,
    "Active": 48,
    "Combined_Key": "Adams, Indiana, US",
    "Incidence_Rate": 136.95949911954608,
    "Case-Fatality_Ratio": 2.0408163265306123
  },
  {
    "FIPS": 19003,
    "County": "Adams",
    "Province_State": "Iowa",
    "Country_Region": "US",
    "Last_Update": "2020-07-14 04:34:46",
    "Latitude": 41.02903567,
    "Longitude": -94.69932645,
    "Confirmed": 8,
    "Deaths": 0,
    "Recovered": 0,
    "Active": 8,
    "Combined_Key": "Adams, Iowa, US",
    "Incidence_Rate": 222.0988339811216,
    "Case-Fatality_Ratio": 0
  },
  {
    "FIPS": 28001,
    "County": "Adams",
    "Province_State": "Mississippi",
    "Country_Region": "US",
    "Last_Update": "2020-07-14 04:34:46",
    "Latitude": 31.47669768,
    "Longitude": -91.35326037,
    "Confirmed": 367,
    "Deaths": 20,
    "Recovered": 0,
    "Active": 347,
    "Combined_Key": "Adams, Mississippi, US",
    "Incidence_Rate": 1195.7123774150455,
    "Case-Fatality_Ratio": 5.449591280653951
  },
  {
    "FIPS": 31001,
    "County": "Adams",
    "Province_State": "Nebraska",
    "Country_Region": "US",
    "Last_Update": "2020-07-14 04:34:46",
    "Latitude": 40.52449420000001,
    "Longitude": -98.50117804,
    "Confirmed": 314,
    "Deaths": 11,
    "Recovered": 0,
    "Active": 303,
    "Combined_Key": "Adams, Nebraska, US",
    "Incidence_Rate": 1001.1797340815608,
    "Case-Fatality_Ratio": 3.5031847133757963
  },
  {
    "FIPS": 39001,
    "County": "Adams",
    "Province_State": "Ohio",
    "Country_Region": "US",
    "Last_Update": "2020-07-14 04:34:46",
    "Latitude": 38.84541072,
    "Longitude": -83.4718964,
    "Confirmed": 28,
    "Deaths": 2,
    "Recovered": 0,
    "Active": 26,
    "Combined_Key": "Adams, Ohio, US",
    "Incidence_Rate": 101.09033143187234,
    "Case-Fatality_Ratio": 7.142857142857143
  },
  {
    "FIPS": 42001,
    "County": "Adams",
    "Province_State": "Pennsylvania",
    "Country_Region": "US",
    "Last_Update": "2020-07-14 04:34:46",
    "Latitude": 39.87140411,
    "Longitude": -77.21610347,
    "Confirmed": 398,
    "Deaths": 14,
    "Recovered": 0,
    "Active": 384,
    "Combined_Key": "Adams, Pennsylvania, US",
    "Incidence_Rate": 386.37400615480203,
    "Case-Fatality_Ratio": 3.5175879396984926
  },
  {
    "FIPS": 53001,
    "County": "Adams",
    "Province_State": "Washington",
    "Country_Region": "US",
    "Last_Update": "2020-07-14 04:34:46",
    "Latitude": 46.98299757,
    "Longitude": -118.5601734,
    "Confirmed": 244,
    "Deaths": 0,
    "Recovered": 0,
    "Active": 244,
    "Combined_Key": "Adams, Washington, US",
    "Incidence_Rate": 1191.0123605064305,
    "Case-Fatality_Ratio": 0
  },
  {
    "FIPS": 55001,
    "County": "Adams",
    "Province_State": "Wisconsin",
    "Country_Region": "US",
    "Last_Update": "2020-07-14 04:34:46",
    "Latitude": 43.96974651,
    "Longitude": -89.76782777,
    "Confirmed": 41,
    "Deaths": 2,
    "Recovered": 0,
    "Active": 39,
    "Combined_Key": "Adams, Wisconsin, US",
    "Incidence_Rate": 202.76953511374882,
    "Case-Fatality_Ratio": 4.878048780487805
  },
  {
    "FIPS": 50001,
    "County": "Addison",
    "Province_State": "Vermont",
    "Country_Region": "US",
    "Last_Update": "2020-07-14 04:34:46",
    "Latitude": 44.03217337,
    "Longitude": -73.14130877,
    "Confirmed": 68,
    "Deaths": 2,
    "Recovered": 0,
    "Active": 66,
    "Combined_Key": "Addison, Vermont, US",
    "Incidence_Rate": 184.89817005193458,
    "Case-Fatality_Ratio": 2.9411764705882355
  },
  {
    "FIPS": 45003,
    "County": "Aiken",
    "Province_State": "South Carolina",
    "Country_Region": "US",
    "Last_Update": "2020-07-14 04:34:46",
    "Latitude": 33.54338026,
    "Longitude": -81.63645384,
    "Confirmed": 735,
    "Deaths": 13,
    "Recovered": 0,
    "Active": 722,
    "Combined_Key": "Aiken, South Carolina, US",
    "Incidence_Rate": 430.14654244112546,
    "Case-Fatality_Ratio": 1.7687074829931972
  },
  {
    "FIPS": 27001,
    "County": "Aitkin",
    "Province_State": "Minnesota",
    "Country_Region": "US",
    "Last_Update": "2020-07-14 04:34:46",
    "Latitude": 46.60962049,
    "Longitude": -93.4116826,
    "Confirmed": 16,
    "Deaths": 0,
    "Recovered": 0,
    "Active": 16,
    "Combined_Key": "Aitkin, Minnesota, US",
    "Incidence_Rate": 100.71761299257209,
    "Case-Fatality_Ratio": 0
  },
  {
    "FIPS": 12001,
    "County": "Alachua",
    "Province_State": "Florida",
    "Country_Region": "US",
    "Last_Update": "2020-07-14 04:34:46",
    "Latitude": 29.67866525,
    "Longitude": -82.35928158,
    "Confirmed": 2173,
    "Deaths": 12,
    "Recovered": 0,
    "Active": 2161,
    "Combined_Key": "Alachua, Florida, US",
    "Incidence_Rate": 807.677583137268,
    "Case-Fatality_Ratio": 0.5522319374137138
  },
  {
    "FIPS": 37001,
    "County": "Alamance",
    "Province_State": "North Carolina",
    "Country_Region": "US",
    "Last_Update": "2020-07-14 04:34:46",
    "Latitude": 36.0434701,
    "Longitude": -79.39976137,
    "Confirmed": 1480,
    "Deaths": 37,
    "Recovered": 0,
    "Active": 1443,
    "Combined_Key": "Alamance, North Carolina, US",
    "Incidence_Rate": 873.1099823608183,
    "Case-Fatality_Ratio": 2.5
  },
  {
    "FIPS": 6001,
    "County": "Alameda",
    "Province_State": "California",
    "Country_Region": "US",
    "Last_Update": "2020-07-14 04:34:46",
    "Latitude": 37.64629437,
    "Longitude": -121.8929271,
    "Confirmed": 7976,
    "Deaths": 148,
    "Recovered": 0,
    "Active": 7828,
    "Combined_Key": "Alameda, California, US",
    "Incidence_Rate": 477.2250107549142,
    "Case-Fatality_Ratio": 1.855566700100301
  },
  {
    "FIPS": 8003,
    "County": "Alamosa",
    "Province_State": "Colorado",
    "Country_Region": "US",
    "Last_Update": "2020-07-14 04:34:46",
    "Latitude": 37.57250606,
    "Longitude": -105.7885451,
    "Confirmed": 204,
    "Deaths": 6,
    "Recovered": 0,
    "Active": 198,
    "Combined_Key": "Alamosa, Colorado, US",
    "Incidence_Rate": 1256.6993162077251,
    "Case-Fatality_Ratio": 2.9411764705882355
  },
  {
    "FIPS": 36001,
    "County": "Albany",
    "Province_State": "New York",
    "Country_Region": "US",
    "Last_Update": "2020-07-14 04:34:46",
    "Latitude": 42.60060306,
    "Longitude": -73.97723916,
    "Confirmed": 2225,
    "Deaths": 121,
    "Recovered": 0,
    "Active": 2104,
    "Combined_Key": "Albany, New York, US",
    "Incidence_Rate": 728.2999351894887,
    "Case-Fatality_Ratio": 5.438202247191011
  },
  {
    "FIPS": 56001,
    "County": "Albany",
    "Province_State": "Wyoming",
    "Country_Region": "US",
    "Last_Update": "2020-07-14 04:34:46",
    "Latitude": 41.65498705,
    "Longitude": -105.7235415,
    "Confirmed": 49,
    "Deaths": 0,
    "Recovered": 0,
    "Active": 49,
    "Combined_Key": "Albany, Wyoming, US",
    "Incidence_Rate": 126.02880658436214,
    "Case-Fatality_Ratio": 0
  },
  {
    "FIPS": 51003,
    "County": "Albemarle",
    "Province_State": "Virginia",
    "Country_Region": "US",
    "Last_Update": "2020-07-14 04:34:46",
    "Latitude": 38.02080697,
    "Longitude": -78.55481085,
    "Confirmed": 563,
    "Deaths": 10,
    "Recovered": 0,
    "Active": 553,
    "Combined_Key": "Albemarle, Virginia, US",
    "Incidence_Rate": 514.9547242293972,
    "Case-Fatality_Ratio": 1.7761989342806395
  },
  {
    "FIPS": 26001,
    "County": "Alcona",
    "Province_State": "Michigan",
    "Country_Region": "US",
    "Last_Update": "2020-07-14 04:34:46",
    "Latitude": 44.6846864,
    "Longitude": -83.59507875,
    "Confirmed": 24,
    "Deaths": 1,
    "Recovered": 0,
    "Active": 23,
    "Combined_Key": "Alcona, Michigan, US",
    "Incidence_Rate": 230.6583373378184,
    "Case-Fatality_Ratio": 4.166666666666667
  },
  {
    "FIPS": 28003,
    "County": "Alcorn",
    "Province_State": "Mississippi",
    "Country_Region": "US",
    "Last_Update": "2020-07-14 04:34:46",
    "Latitude": 34.88084463,
    "Longitude": -88.57996173,
    "Confirmed": 111,
    "Deaths": 2,
    "Recovered": 0,
    "Active": 109,
    "Combined_Key": "Alcorn, Mississippi, US",
    "Incidence_Rate": 300.3815657727383,
    "Case-Fatality_Ratio": 1.8018018018018018
  },
  {
    "FIPS": 2016,
    "County": "Aleutians West",
    "Province_State": "Alaska",
    "Country_Region": "US",
    "Last_Update": "2020-07-14 04:34:46",
    "Latitude": 52.3233,
    "Longitude": -174.1596,
    "Confirmed": 1,
    "Deaths": 0,
    "Recovered": 0,
    "Active": 1,
    "Combined_Key": "Aleutians West, Alaska, US",
    "Incidence_Rate": 17.749378771742986,
    "Case-Fatality_Ratio": 0
  },
  {
    "FIPS": 17003,
    "County": "Alexander",
    "Province_State": "Illinois",
    "Country_Region": "US",
    "Last_Update": "2020-07-14 04:34:46",
    "Latitude": 37.18049267,
    "Longitude": -89.32910838,
    "Confirmed": 25,
    "Deaths": 0,
    "Recovered": 0,
    "Active": 25,
    "Combined_Key": "Alexander, Illinois, US",
    "Incidence_Rate": 433.95243881270613,
    "Case-Fatality_Ratio": 0
  },
  {
    "FIPS": 37003,
    "County": "Alexander",
    "Province_State": "North Carolina",
    "Country_Region": "US",
    "Last_Update": "2020-07-14 04:34:46",
    "Latitude": 35.922379600000006,
    "Longitude": -81.17751948,
    "Confirmed": 174,
    "Deaths": 1,
    "Recovered": 0,
    "Active": 173,
    "Combined_Key": "Alexander, North Carolina, US",
    "Incidence_Rate": 464.03712296983764,
    "Case-Fatality_Ratio": 0.5747126436781609
  },
  {
    "FIPS": 51510,
    "County": "Alexandria",
    "Province_State": "Virginia",
    "Country_Region": "US",
    "Last_Update": "2020-07-14 04:34:46",
    "Latitude": 38.814003,
    "Longitude": -77.08183073,
    "Confirmed": 2456,
    "Deaths": 57,
    "Recovered": 0,
    "Active": 2399,
    "Combined_Key": "Alexandria, Virginia, US",
    "Incidence_Rate": 1540.5073136462854,
    "Case-Fatality_Ratio": 2.320846905537459
  },
  {
    "FIPS": 40003,
    "County": "Alfalfa",
    "Province_State": "Oklahoma",
    "Country_Region": "US",
    "Last_Update": "2020-07-14 04:34:46",
    "Latitude": 36.73090616,
    "Longitude": -98.32408495,
    "Confirmed": 1,
    "Deaths": 0,
    "Recovered": 0,
    "Active": 1,
    "Combined_Key": "Alfalfa, Oklahoma, US",
    "Incidence_Rate": 17.5377060680463,
    "Case-Fatality_Ratio": 0
  },
  {
    "FIPS": 26003,
    "County": "Alger",
    "Province_State": "Michigan",
    "Country_Region": "US",
    "Last_Update": "2020-07-14 04:34:46",
    "Latitude": 46.41292944,
    "Longitude": -86.60260122,
    "Confirmed": 4,
    "Deaths": 0,
    "Recovered": 0,
    "Active": 4,
    "Combined_Key": "Alger, Michigan, US",
    "Incidence_Rate": 43.917435221783045,
    "Case-Fatality_Ratio": 0
  },
  {
    "FIPS": 19005,
    "County": "Allamakee",
    "Province_State": "Iowa",
    "Country_Region": "US",
    "Last_Update": "2020-07-14 04:34:46",
    "Latitude": 43.28383218,
    "Longitude": -91.37860922,
    "Confirmed": 138,
    "Deaths": 4,
    "Recovered": 0,
    "Active": 134,
    "Combined_Key": "Allamakee, Iowa, US",
    "Incidence_Rate": 1008.2560093519397,
    "Case-Fatality_Ratio": 2.898550724637681
  },
  {
    "FIPS": 26005,
    "County": "Allegan",
    "Province_State": "Michigan",
    "Country_Region": "US",
    "Last_Update": "2020-07-14 04:34:46",
    "Latitude": 42.59147037,
    "Longitude": -85.89102866,
    "Confirmed": 378,
    "Deaths": 7,
    "Recovered": 0,
    "Active": 371,
    "Combined_Key": "Allegan, Michigan, US",
    "Incidence_Rate": 320.1192401825865,
    "Case-Fatality_Ratio": 1.8518518518518519
  },
  {
    "FIPS": 24001,
    "County": "Allegany",
    "Province_State": "Maryland",
    "Country_Region": "US",
    "Last_Update": "2020-07-14 04:34:46",
    "Latitude": 39.62357628,
    "Longitude": -78.69280486,
    "Confirmed": 218,
    "Deaths": 18,
    "Recovered": 0,
    "Active": 200,
    "Combined_Key": "Allegany, Maryland, US",
    "Incidence_Rate": 309.5887298341286,
    "Case-Fatality_Ratio": 8.256880733944953
  },
  {
    "FIPS": 36003,
    "County": "Allegany",
    "Province_State": "New York",
    "Country_Region": "US",
    "Last_Update": "2020-07-14 04:34:46",
    "Latitude": 42.25748406,
    "Longitude": -78.02750466,
    "Confirmed": 66,
    "Deaths": 1,
    "Recovered": 0,
    "Active": 65,
    "Combined_Key": "Allegany, New York, US",
    "Incidence_Rate": 143.19498383632381,
    "Case-Fatality_Ratio": 1.5151515151515151
  },
  {
    "FIPS": 37005,
    "County": "Alleghany",
    "Province_State": "North Carolina",
    "Country_Region": "US",
    "Last_Update": "2020-07-14 04:34:46",
    "Latitude": 36.49360862,
    "Longitude": -81.12857041,
    "Confirmed": 42,
    "Deaths": 0,
    "Recovered": 0,
    "Active": 42,
    "Combined_Key": "Alleghany, North Carolina, US",
    "Incidence_Rate": 377.1213073538655,
    "Case-Fatality_Ratio": 0
  },
  {
    "FIPS": 51005,
    "County": "Alleghany",
    "Province_State": "Virginia",
    "Country_Region": "US",
    "Last_Update": "2020-07-14 04:34:46",
    "Latitude": 37.78636074,
    "Longitude": -80.00222498,
    "Confirmed": 52,
    "Deaths": 2,
    "Recovered": 0,
    "Active": 50,
    "Combined_Key": "Alleghany, Virginia, US",
    "Incidence_Rate": 349.93270524899066,
    "Case-Fatality_Ratio": 3.8461538461538463
  },
  {
    "FIPS": 42003,
    "County": "Allegheny",
    "Province_State": "Pennsylvania",
    "Country_Region": "US",
    "Last_Update": "2020-07-14 04:34:46",
    "Latitude": 40.46809875,
    "Longitude": -79.98167747,
    "Confirmed": 5033,
    "Deaths": 197,
    "Recovered": 0,
    "Active": 4836,
    "Combined_Key": "Allegheny, Pennsylvania, US",
    "Incidence_Rate": 413.88270993260943,
    "Case-Fatality_Ratio": 3.9141665010927875
  },
  {
    "FIPS": 18003,
    "County": "Allen",
    "Province_State": "Indiana",
    "Country_Region": "US",
    "Last_Update": "2020-07-14 04:34:46",
    "Latitude": 41.09194313,
    "Longitude": -85.06800636,
    "Confirmed": 2971,
    "Deaths": 134,
    "Recovered": 0,
    "Active": 2837,
    "Combined_Key": "Allen, Indiana, US",
    "Incidence_Rate": 783.2870637676344,
    "Case-Fatality_Ratio": 4.510265903736116
  },
  {
    "FIPS": 20001,
    "County": "Allen",
    "Province_State": "Kansas",
    "Country_Region": "US",
    "Last_Update": "2020-07-14 04:34:46",
    "Latitude": 37.88582951,
    "Longitude": -95.30030847,
    "Confirmed": 8,
    "Deaths": 0,
    "Recovered": 0,
    "Active": 8,
    "Combined_Key": "Allen, Kansas, US",
    "Incidence_Rate": 64.67782359123615,
    "Case-Fatality_Ratio": 0
  },
  {
    "FIPS": 21003,
    "County": "Allen",
    "Province_State": "Kentucky",
    "Country_Region": "US",
    "Last_Update": "2020-07-14 04:34:46",
    "Latitude": 36.75197631,
    "Longitude": -86.19457544,
    "Confirmed": 191,
    "Deaths": 7,
    "Recovered": 0,
    "Active": 184,
    "Combined_Key": "Allen, Kentucky, US",
    "Incidence_Rate": 896.0825709594181,
    "Case-Fatality_Ratio": 3.6649214659685865
  },
  {
    "FIPS": 22003,
    "County": "Allen",
    "Province_State": "Louisiana",
    "Country_Region": "US",
    "Last_Update": "2020-07-14 04:34:46",
    "Latitude": 30.65385745,
    "Longitude": -92.82442028,
    "Confirmed": 480,
    "Deaths": 12,
    "Recovered": 0,
    "Active": 468,
    "Combined_Key": "Allen, Louisiana, US",
    "Incidence_Rate": 1873.0245444258007,
    "Case-Fatality_Ratio": 2.5
  },
  {
    "FIPS": 39003,
    "County": "Allen",
    "Province_State": "Ohio",
    "Country_Region": "US",
    "Last_Update": "2020-07-14 04:34:46",
    "Latitude": 40.77285242,
    "Longitude": -84.10802343,
    "Confirmed": 385,
    "Deaths": 41,
    "Recovered": 0,
    "Active": 344,
    "Combined_Key": "Allen, Ohio, US",
    "Incidence_Rate": 376.15655929106697,
    "Case-Fatality_Ratio": 10.64935064935065
  },
  {
    "FIPS": 45005,
    "County": "Allendale",
    "Province_State": "South Carolina",
    "Country_Region": "US",
    "Last_Update": "2020-07-14 04:34:46",
    "Latitude": 32.98837386,
    "Longitude": -81.35321066,
    "Confirmed": 88,
    "Deaths": 3,
    "Recovered": 0,
    "Active": 85,
    "Combined_Key": "Allendale, South Carolina, US",
    "Incidence_Rate": 1012.8913443830572,
    "Case-Fatality_Ratio": 3.409090909090909
  },
  {
    "FIPS": 26007,
    "County": "Alpena",
    "Province_State": "Michigan",
    "Country_Region": "US",
    "Last_Update": "2020-07-14 04:34:46",
    "Latitude": 45.03477666,
    "Longitude": -83.62212411,
    "Confirmed": 123,
    "Deaths": 12,
    "Recovered": 0,
    "Active": 111,
    "Combined_Key": "Alpena, Michigan, US",
    "Incidence_Rate": 433.0223552191516,
    "Case-Fatality_Ratio": 9.75609756097561
  },
  {
    "FIPS": 6003,
    "County": "Alpine",
    "Province_State": "California",
    "Country_Region": "US",
    "Last_Update": "2020-07-14 04:34:46",
    "Latitude": 38.59678594,
    "Longitude": -119.8223594,
    "Confirmed": 2,
    "Deaths": 0,
    "Recovered": 0,
    "Active": 2,
    "Combined_Key": "Alpine, California, US",
    "Incidence_Rate": 177.14791851195747,
    "Case-Fatality_Ratio": 0
  },
  {
    "FIPS": 6005,
    "County": "Amador",
    "Province_State": "California",
    "Country_Region": "US",
    "Last_Update": "2020-07-14 04:34:46",
    "Latitude": 38.44583082,
    "Longitude": -120.65696,
    "Confirmed": 40,
    "Deaths": 0,
    "Recovered": 0,
    "Active": 40,
    "Combined_Key": "Amador, California, US",
    "Incidence_Rate": 100.62386798148519,
    "Case-Fatality_Ratio": 0
  },
  {
    "FIPS": 51007,
    "County": "Amelia",
    "Province_State": "Virginia",
    "Country_Region": "US",
    "Last_Update": "2020-07-14 04:34:46",
    "Latitude": 37.34081025,
    "Longitude": -77.98584649,
    "Confirmed": 51,
    "Deaths": 1,
    "Recovered": 0,
    "Active": 50,
    "Combined_Key": "Amelia, Virginia, US",
    "Incidence_Rate": 387.98022061620384,
    "Case-Fatality_Ratio": 1.9607843137254901
  },
  {
    "FIPS": 51009,
    "County": "Amherst",
    "Province_State": "Virginia",
    "Country_Region": "US",
    "Last_Update": "2020-07-14 04:34:46",
    "Latitude": 37.60308293,
    "Longitude": -79.14548696,
    "Confirmed": 40,
    "Deaths": 0,
    "Recovered": 0,
    "Active": 40,
    "Combined_Key": "Amherst, Virginia, US",
    "Incidence_Rate": 126.56225280809996,
    "Case-Fatality_Ratio": 0
  },
  {
    "FIPS": 28005,
    "County": "Amite",
    "Province_State": "Mississippi",
    "Country_Region": "US",
    "Last_Update": "2020-07-14 04:34:46",
    "Latitude": 31.17467303,
    "Longitude": -90.80501621,
    "Confirmed": 111,
    "Deaths": 3,
    "Recovered": 0,
    "Active": 108,
    "Combined_Key": "Amite, Mississippi, US",
    "Incidence_Rate": 902.659185167114,
    "Case-Fatality_Ratio": 2.7027027027027026
  },
  {
    "FIPS": 2020,
    "County": "Anchorage",
    "Province_State": "Alaska",
    "Country_Region": "US",
    "Last_Update": "2020-07-14 04:34:46",
    "Latitude": 61.14998174,
    "Longitude": -149.14269860000005,
    "Confirmed": 740,
    "Deaths": 8,
    "Recovered": 0,
    "Active": 732,
    "Combined_Key": "Anchorage, Alaska, US",
    "Incidence_Rate": 256.94444444444446,
    "Case-Fatality_Ratio": 1.0810810810810811
  },
  {
    "FIPS": 20003,
    "County": "Anderson",
    "Province_State": "Kansas",
    "Country_Region": "US",
    "Last_Update": "2020-07-14 04:34:46",
    "Latitude": 38.21413251,
    "Longitude": -95.29272815,
    "Confirmed": 15,
    "Deaths": 0,
    "Recovered": 0,
    "Active": 15,
    "Combined_Key": "Anderson, Kansas, US",
    "Incidence_Rate": 190.8882667345381,
    "Case-Fatality_Ratio": 0
  },
  {
    "FIPS": 21005,
    "County": "Anderson",
    "Province_State": "Kentucky",
    "Country_Region": "US",
    "Last_Update": "2020-07-14 04:34:46",
    "Latitude": 38.00671029,
    "Longitude": -84.99171713,
    "Confirmed": 31,
    "Deaths": 1,
    "Recovered": 0,
    "Active": 30,
    "Combined_Key": "Anderson, Kentucky, US",
    "Incidence_Rate": 136.28170747790918,
    "Case-Fatality_Ratio": 3.225806451612903
  },
  {
    "FIPS": 45007,
    "County": "Anderson",
    "Province_State": "South Carolina",
    "Country_Region": "US",
    "Last_Update": "2020-07-14 04:34:46",
    "Latitude": 34.51828081,
    "Longitude": -82.63959517,
    "Confirmed": 1067,
    "Deaths": 20,
    "Recovered": 0,
    "Active": 1047,
    "Combined_Key": "Anderson, South Carolina, US",
    "Incidence_Rate": 526.7627050030114,
    "Case-Fatality_Ratio": 1.8744142455482662
  },
  {
    "FIPS": 47001,
    "County": "Anderson",
    "Province_State": "Tennessee",
    "Country_Region": "US",
    "Last_Update": "2020-07-14 04:34:46",
    "Latitude": 36.12684348,
    "Longitude": -84.19965764,
    "Confirmed": 211,
    "Deaths": 2,
    "Recovered": 0,
    "Active": 209,
    "Combined_Key": "Anderson, Tennessee, US",
    "Incidence_Rate": 274.1042895372704,
    "Case-Fatality_Ratio": 0.9478672985781991
  },
  {
    "FIPS": 48001,
    "County": "Anderson",
    "Province_State": "Texas",
    "Country_Region": "US",
    "Last_Update": "2020-07-14 04:34:46",
    "Latitude": 31.81534745,
    "Longitude": -95.65354823,
    "Confirmed": 1890,
    "Deaths": 3,
    "Recovered": 0,
    "Active": 1887,
    "Combined_Key": "Anderson, Texas, US",
    "Incidence_Rate": 3273.5775526110688,
    "Case-Fatality_Ratio": 0.15873015873015872
  },
  {
    "FIPS": 29003,
    "County": "Andrew",
    "Province_State": "Missouri",
    "Country_Region": "US",
    "Last_Update": "2020-07-14 04:34:46",
    "Latitude": 39.98492163,
    "Longitude": -94.80163024,
    "Confirmed": 55,
    "Deaths": 1,
    "Recovered": 0,
    "Active": 54,
    "Combined_Key": "Andrew, Missouri, US",
    "Incidence_Rate": 310.5239385727191,
    "Case-Fatality_Ratio": 1.8181818181818181
  },
  {
    "FIPS": 48003,
    "County": "Andrews",
    "Province_State": "Texas",
    "Country_Region": "US",
    "Last_Update": "2020-07-14 04:34:46",
    "Latitude": 32.30468633,
    "Longitude": -102.6376548,
    "Confirmed": 169,
    "Deaths": 2,
    "Recovered": 0,
    "Active": 167,
    "Combined_Key": "Andrews, Texas, US",
    "Incidence_Rate": 903.5017375033414,
    "Case-Fatality_Ratio": 1.183431952662722
  },
  {
    "FIPS": 23001,
    "County": "Androscoggin",
    "Province_State": "Maine",
    "Country_Region": "US",
    "Last_Update": "2020-07-14 04:34:46",
    "Latitude": 44.1664747,
    "Longitude": -70.20380627,
    "Confirmed": 502,
    "Deaths": 4,
    "Recovered": 0,
    "Active": 498,
    "Combined_Key": "Androscoggin, Maine, US",
    "Incidence_Rate": 463.6257007490049,
    "Case-Fatality_Ratio": 0.796812749003984
  },
  {
    "FIPS": 48005,
    "County": "Angelina",
    "Province_State": "Texas",
    "Country_Region": "US",
    "Last_Update": "2020-07-14 04:34:46",
    "Latitude": 31.25457347,
    "Longitude": -94.60901487,
    "Confirmed": 743,
    "Deaths": 9,
    "Recovered": 0,
    "Active": 734,
    "Combined_Key": "Angelina, Texas, US",
    "Incidence_Rate": 856.8298448941936,
    "Case-Fatality_Ratio": 1.2113055181695829
  },
  {
    "FIPS": 24003,
    "County": "Anne Arundel",
    "Province_State": "Maryland",
    "Country_Region": "US",
    "Last_Update": "2020-07-14 04:34:46",
    "Latitude": 39.00670238,
    "Longitude": -76.60329337,
    "Confirmed": 5562,
    "Deaths": 210,
    "Recovered": 0,
    "Active": 5352,
    "Combined_Key": "Anne Arundel, Maryland, US",
    "Incidence_Rate": 960.2336879395892,
    "Case-Fatality_Ratio": 3.7756202804746493
  },
  {
    "FIPS": 27003,
    "County": "Anoka",
    "Province_State": "Minnesota",
    "Country_Region": "US",
    "Last_Update": "2020-07-14 04:34:46",
    "Latitude": 45.27476015,
    "Longitude": -93.24604565,
    "Confirmed": 2458,
    "Deaths": 111,
    "Recovered": 0,
    "Active": 2347,
    "Combined_Key": "Anoka, Minnesota, US",
    "Incidence_Rate": 688.6678004376319,
    "Case-Fatality_Ratio": 4.51586655817738
  },
  {
    "FIPS": 37007,
    "County": "Anson",
    "Province_State": "North Carolina",
    "Country_Region": "US",
    "Last_Update": "2020-07-14 04:34:46",
    "Latitude": 34.97403241,
    "Longitude": -80.09953279,
    "Confirmed": 208,
    "Deaths": 2,
    "Recovered": 0,
    "Active": 206,
    "Combined_Key": "Anson, North Carolina, US",
    "Incidence_Rate": 850.8549455943712,
    "Case-Fatality_Ratio": 0.9615384615384616
  },
  {
    "FIPS": 31003,
    "County": "Antelope",
    "Province_State": "Nebraska",
    "Country_Region": "US",
    "Last_Update": "2020-07-14 04:34:46",
    "Latitude": 42.17695516,
    "Longitude": -98.0666283,
    "Confirmed": 16,
    "Deaths": 1,
    "Recovered": 0,
    "Active": 15,
    "Combined_Key": "Antelope, Nebraska, US",
    "Incidence_Rate": 254.0489044140997,
    "Case-Fatality_Ratio": 6.25
  },
  {
    "FIPS": 26009,
    "County": "Antrim",
    "Province_State": "Michigan",
    "Country_Region": "US",
    "Last_Update": "2020-07-14 04:34:46",
    "Latitude": 44.99690221,
    "Longitude": -85.15503082,
    "Confirmed": 27,
    "Deaths": 0,
    "Recovered": 0,
    "Active": 27,
    "Combined_Key": "Antrim, Michigan, US",
    "Incidence_Rate": 115.76058995026578,
    "Case-Fatality_Ratio": 0
  },
  {
    "FIPS": 4001,
    "County": "Apache",
    "Province_State": "Arizona",
    "Country_Region": "US",
    "Last_Update": "2020-07-14 04:34:46",
    "Latitude": 35.39465006,
    "Longitude": -109.4892383,
    "Confirmed": 2580,
    "Deaths": 104,
    "Recovered": 0,
    "Active": 2476,
    "Combined_Key": "Apache, Arizona, US",
    "Incidence_Rate": 3588.966016108615,
    "Case-Fatality_Ratio": 4.0310077519379846
  },
  {
    "FIPS": 19007,
    "County": "Appanoose",
    "Province_State": "Iowa",
    "Country_Region": "US",
    "Last_Update": "2020-07-14 04:34:46",
    "Latitude": 40.74324454,
    "Longitude": -92.86865906,
    "Confirmed": 24,
    "Deaths": 3,
    "Recovered": 0,
    "Active": 21,
    "Combined_Key": "Appanoose, Iowa, US",
    "Incidence_Rate": 193.1434089811685,
    "Case-Fatality_Ratio": 12.5
  },
  {
    "FIPS": 13001,
    "County": "Appling",
    "Province_State": "Georgia",
    "Country_Region": "US",
    "Last_Update": "2020-07-14 04:34:46",
    "Latitude": 31.74847232,
    "Longitude": -82.28909114,
    "Confirmed": 349,
    "Deaths": 14,
    "Recovered": 0,
    "Active": 335,
    "Combined_Key": "Appling, Georgia, US",
    "Incidence_Rate": 1898.183400413358,
    "Case-Fatality_Ratio": 4.011461318051576
  },
  {
    "FIPS": 51011,
    "County": "Appomattox",
    "Province_State": "Virginia",
    "Country_Region": "US",
    "Last_Update": "2020-07-14 04:34:46",
    "Latitude": 37.37569884,
    "Longitude": -78.81340003,
    "Confirmed": 48,
    "Deaths": 0,
    "Recovered": 0,
    "Active": 48,
    "Combined_Key": "Appomattox, Virginia, US",
    "Incidence_Rate": 301.6780843441644,
    "Case-Fatality_Ratio": 0
  },
  {
    "FIPS": 48007,
    "County": "Aransas",
    "Province_State": "Texas",
    "Country_Region": "US",
    "Last_Update": "2020-07-14 04:34:46",
    "Latitude": 28.10556197,
    "Longitude": -96.9995047,
    "Confirmed": 56,
    "Deaths": 0,
    "Recovered": 0,
    "Active": 56,
    "Combined_Key": "Aransas, Texas, US",
    "Incidence_Rate": 238.1965121225011,
    "Case-Fatality_Ratio": 0
  },
  {
    "FIPS": 8005,
    "County": "Arapahoe",
    "Province_State": "Colorado",
    "Country_Region": "US",
    "Last_Update": "2020-07-14 04:34:46",
    "Latitude": 39.64977461,
    "Longitude": -104.3353617,
    "Confirmed": 5682,
    "Deaths": 349,
    "Recovered": 0,
    "Active": 5333,
    "Combined_Key": "Arapahoe, Colorado, US",
    "Incidence_Rate": 865.3802220563823,
    "Case-Fatality_Ratio": 6.1422034494896165
  },
  {
    "FIPS": 48009,
    "County": "Archer",
    "Province_State": "Texas",
    "Country_Region": "US",
    "Last_Update": "2020-07-14 04:34:46",
    "Latitude": 33.61569967,
    "Longitude": -98.68754589,
    "Confirmed": 10,
    "Deaths": 0,
    "Recovered": 0,
    "Active": 10,
    "Combined_Key": "Archer, Texas, US",
    "Incidence_Rate": 116.918040453642,
    "Case-Fatality_Ratio": 0
  },
  {
    "FIPS": 8007,
    "County": "Archuleta",
    "Province_State": "Colorado",
    "Country_Region": "US",
    "Last_Update": "2020-07-14 04:34:46",
    "Latitude": 37.19474156,
    "Longitude": -107.04768670000001,
    "Confirmed": 12,
    "Deaths": 0,
    "Recovered": 0,
    "Active": 12,
    "Combined_Key": "Archuleta, Colorado, US",
    "Incidence_Rate": 85.53710171787012,
    "Case-Fatality_Ratio": 0
  },
  {
    "FIPS": 26011,
    "County": "Arenac",
    "Province_State": "Michigan",
    "Country_Region": "US",
    "Last_Update": "2020-07-14 04:34:46",
    "Latitude": 44.0636262,
    "Longitude": -83.89277559,
    "Confirmed": 38,
    "Deaths": 2,
    "Recovered": 0,
    "Active": 36,
    "Combined_Key": "Arenac, Michigan, US",
    "Incidence_Rate": 255.32486729825973,
    "Case-Fatality_Ratio": 5.2631578947368425
  },
  {
    "FIPS": 5001,
    "County": "Arkansas",
    "Province_State": "Arkansas",
    "Country_Region": "US",
    "Last_Update": "2020-07-14 04:34:46",
    "Latitude": 34.29145151,
    "Longitude": -91.37277296,
    "Confirmed": 60,
    "Deaths": 0,
    "Recovered": 0,
    "Active": 60,
    "Combined_Key": "Arkansas, Arkansas, US",
    "Incidence_Rate": 343.1316481756834,
    "Case-Fatality_Ratio": 0
  },
  {
    "FIPS": 51013,
    "County": "Arlington",
    "Province_State": "Virginia",
    "Country_Region": "US",
    "Last_Update": "2020-07-14 04:34:46",
    "Latitude": 38.8767675,
    "Longitude": -77.10139853,
    "Confirmed": 2626,
    "Deaths": 134,
    "Recovered": 0,
    "Active": 2492,
    "Combined_Key": "Arlington, Virginia, US",
    "Incidence_Rate": 1108.7560483360214,
    "Case-Fatality_Ratio": 5.102817974105103
  },
  {
    "FIPS": 42005,
    "County": "Armstrong",
    "Province_State": "Pennsylvania",
    "Country_Region": "US",
    "Last_Update": "2020-07-14 04:34:46",
    "Latitude": 40.81665618,
    "Longitude": -79.46290811,
    "Confirmed": 86,
    "Deaths": 6,
    "Recovered": 0,
    "Active": 80,
    "Combined_Key": "Armstrong, Pennsylvania, US",
    "Incidence_Rate": 132.84930872016685,
    "Case-Fatality_Ratio": 6.976744186046512
  },
  {
    "FIPS": 48011,
    "County": "Armstrong",
    "Province_State": "Texas",
    "Country_Region": "US",
    "Last_Update": "2020-07-14 04:34:46",
    "Latitude": 34.96507426,
    "Longitude": -101.3574874,
    "Confirmed": 3,
    "Deaths": 0,
    "Recovered": 0,
    "Active": 3,
    "Combined_Key": "Armstrong, Texas, US",
    "Incidence_Rate": 158.9825119236884,
    "Case-Fatality_Ratio": 0
  },
  {
    "FIPS": 23003,
    "County": "Aroostook",
    "Province_State": "Maine",
    "Country_Region": "US",
    "Last_Update": "2020-07-14 04:34:46",
    "Latitude": 46.65926321,
    "Longitude": -68.59841248,
    "Confirmed": 24,
    "Deaths": 1,
    "Recovered": 0,
    "Active": 23,
    "Combined_Key": "Aroostook, Maine, US",
    "Incidence_Rate": 35.791514428454256,
    "Case-Fatality_Ratio": 4.166666666666667
  },
  {
    "FIPS": 31005,
    "County": "Arthur",
    "Province_State": "Nebraska",
    "Country_Region": "US",
    "Last_Update": "2020-07-14 04:34:46",
    "Latitude": 41.56896142,
    "Longitude": -101.6959559,
    "Confirmed": 0,
    "Deaths": 0,
    "Recovered": 0,
    "Active": 0,
    "Combined_Key": "Arthur, Nebraska, US",
    "Incidence_Rate": 0,
    "Case-Fatality_Ratio": null
  },
  {
    "FIPS": 22005,
    "County": "Ascension",
    "Province_State": "Louisiana",
    "Country_Region": "US",
    "Last_Update": "2020-07-14 04:34:46",
    "Latitude": 30.20406249,
    "Longitude": -90.91328409999998,
    "Confirmed": 1622,
    "Deaths": 64,
    "Recovered": 0,
    "Active": 1558,
    "Combined_Key": "Ascension, Louisiana, US",
    "Incidence_Rate": 1281.1601529177592,
    "Case-Fatality_Ratio": 3.945745992601726
  },
  {
    "FIPS": 37009,
    "County": "Ashe",
    "Province_State": "North Carolina",
    "Country_Region": "US",
    "Last_Update": "2020-07-14 04:34:46",
    "Latitude": 36.43296207,
    "Longitude": -81.49862729,
    "Confirmed": 64,
    "Deaths": 1,
    "Recovered": 0,
    "Active": 63,
    "Combined_Key": "Ashe, North Carolina, US",
    "Incidence_Rate": 235.26816895195384,
    "Case-Fatality_Ratio": 1.5625
  },
  {
    "FIPS": 39005,
    "County": "Ashland",
    "Province_State": "Ohio",
    "Country_Region": "US",
    "Last_Update": "2020-07-14 04:34:46",
    "Latitude": 40.84772277,
    "Longitude": -82.27280781,
    "Confirmed": 69,
    "Deaths": 2,
    "Recovered": 0,
    "Active": 67,
    "Combined_Key": "Ashland, Ohio, US",
    "Incidence_Rate": 129.01054520978238,
    "Case-Fatality_Ratio": 2.898550724637681
  },
  {
    "FIPS": 55003,
    "County": "Ashland",
    "Province_State": "Wisconsin",
    "Country_Region": "US",
    "Last_Update": "2020-07-14 04:34:46",
    "Latitude": 46.31956891,
    "Longitude": -90.67837132,
    "Confirmed": 8,
    "Deaths": 0,
    "Recovered": 0,
    "Active": 8,
    "Combined_Key": "Ashland, Wisconsin, US",
    "Incidence_Rate": 51.40727412928929,
    "Case-Fatality_Ratio": 0
  },
  {
    "FIPS": 5003,
    "County": "Ashley",
    "Province_State": "Arkansas",
    "Country_Region": "US",
    "Last_Update": "2020-07-14 04:34:46",
    "Latitude": 33.19153461,
    "Longitude": -91.7698471,
    "Confirmed": 110,
    "Deaths": 3,
    "Recovered": 0,
    "Active": 107,
    "Combined_Key": "Ashley, Arkansas, US",
    "Incidence_Rate": 559.5970900951315,
    "Case-Fatality_Ratio": 2.727272727272727
  },
  {
    "FIPS": 39007,
    "County": "Ashtabula",
    "Province_State": "Ohio",
    "Country_Region": "US",
    "Last_Update": "2020-07-14 04:34:46",
    "Latitude": 41.70860332,
    "Longitude": -80.74830218,
    "Confirmed": 452,
    "Deaths": 44,
    "Recovered": 0,
    "Active": 408,
    "Combined_Key": "Ashtabula, Ohio, US",
    "Incidence_Rate": 464.8245081807057,
    "Case-Fatality_Ratio": 9.734513274336283
  },
  {
    "FIPS": 53003,
    "County": "Asotin",
    "Province_State": "Washington",
    "Country_Region": "US",
    "Last_Update": "2020-07-14 04:34:46",
    "Latitude": 46.18894415,
    "Longitude": -117.2022851,
    "Confirmed": 21,
    "Deaths": 2,
    "Recovered": 0,
    "Active": 19,
    "Combined_Key": "Asotin, Washington, US",
    "Incidence_Rate": 92.99442033477993,
    "Case-Fatality_Ratio": 9.523809523809524
  },
  {
    "FIPS": 22007,
    "County": "Assumption",
    "Province_State": "Louisiana",
    "Country_Region": "US",
    "Last_Update": "2020-07-14 04:34:46",
    "Latitude": 29.89946234,
    "Longitude": -91.06461642,
    "Confirmed": 430,
    "Deaths": 16,
    "Recovered": 0,
    "Active": 414,
    "Combined_Key": "Assumption, Louisiana, US",
    "Incidence_Rate": 1964.2775569868893,
    "Case-Fatality_Ratio": 3.7209302325581395
  },
  {
    "FIPS": 48013,
    "County": "Atascosa",
    "Province_State": "Texas",
    "Country_Region": "US",
    "Last_Update": "2020-07-14 04:34:46",
    "Latitude": 28.89333001,
    "Longitude": -98.52730485,
    "Confirmed": 275,
    "Deaths": 2,
    "Recovered": 0,
    "Active": 273,
    "Combined_Key": "Atascosa, Texas, US",
    "Incidence_Rate": 537.602877641585,
    "Case-Fatality_Ratio": 0.7272727272727273
  },
  {
    "FIPS": 20005,
    "County": "Atchison",
    "Province_State": "Kansas",
    "Country_Region": "US",
    "Last_Update": "2020-07-14 04:34:46",
    "Latitude": 39.53185661,
    "Longitude": -95.30870026,
    "Confirmed": 44,
    "Deaths": 0,
    "Recovered": 0,
    "Active": 44,
    "Combined_Key": "Atchison, Kansas, US",
    "Incidence_Rate": 273.7510110122566,
    "Case-Fatality_Ratio": 0
  },
  {
    "FIPS": 29005,
    "County": "Atchison",
    "Province_State": "Missouri",
    "Country_Region": "US",
    "Last_Update": "2020-07-14 04:34:46",
    "Latitude": 40.43238737,
    "Longitude": -95.42970639,
    "Confirmed": 6,
    "Deaths": 0,
    "Recovered": 0,
    "Active": 6,
    "Combined_Key": "Atchison, Missouri, US",
    "Incidence_Rate": 116.663426015944,
    "Case-Fatality_Ratio": 0
  },
  {
    "FIPS": 39009,
    "County": "Athens",
    "Province_State": "Ohio",
    "Country_Region": "US",
    "Last_Update": "2020-07-14 04:34:46",
    "Latitude": 39.33425634,
    "Longitude": -82.04278644,
    "Confirmed": 192,
    "Deaths": 1,
    "Recovered": 0,
    "Active": 191,
    "Combined_Key": "Athens, Ohio, US",
    "Incidence_Rate": 293.90604191222616,
    "Case-Fatality_Ratio": 0.5208333333333334
  },
  {
    "FIPS": 13003,
    "County": "Atkinson",
    "Province_State": "Georgia",
    "Country_Region": "US",
    "Last_Update": "2020-07-14 04:34:46",
    "Latitude": 31.29633502,
    "Longitude": -82.87545866,
    "Confirmed": 196,
    "Deaths": 2,
    "Recovered": 0,
    "Active": 194,
    "Combined_Key": "Atkinson, Georgia, US",
    "Incidence_Rate": 2400.4898958971216,
    "Case-Fatality_Ratio": 1.0204081632653061
  },
  {
    "FIPS": 34001,
    "County": "Atlantic",
    "Province_State": "New Jersey",
    "Country_Region": "US",
    "Last_Update": "2020-07-14 04:34:46",
    "Latitude": 39.47538693,
    "Longitude": -74.65848483,
    "Confirmed": 3023,
    "Deaths": 232,
    "Recovered": 0,
    "Active": 2791,
    "Combined_Key": "Atlantic, New Jersey, US",
    "Incidence_Rate": 1146.5088936928735,
    "Case-Fatality_Ratio": 7.674495534237512
  },
  {
    "FIPS": 40005,
    "County": "Atoka",
    "Province_State": "Oklahoma",
    "Country_Region": "US",
    "Last_Update": "2020-07-14 04:34:46",
    "Latitude": 34.37366573,
    "Longitude": -96.03802487,
    "Confirmed": 34,
    "Deaths": 0,
    "Recovered": 0,
    "Active": 34,
    "Combined_Key": "Atoka, Oklahoma, US",
    "Incidence_Rate": 247.12894316034308,
    "Case-Fatality_Ratio": 0
  },
  {
    "FIPS": 28007,
    "County": "Attala",
    "Province_State": "Mississippi",
    "Country_Region": "US",
    "Last_Update": "2020-07-14 04:34:46",
    "Latitude": 33.08658803,
    "Longitude": -89.57838564,
    "Confirmed": 386,
    "Deaths": 24,
    "Recovered": 0,
    "Active": 362,
    "Combined_Key": "Attala, Mississippi, US",
    "Incidence_Rate": 2123.913282711566,
    "Case-Fatality_Ratio": 6.217616580310881
  },
  {
    "FIPS": 29007,
    "County": "Audrain",
    "Province_State": "Missouri",
    "Country_Region": "US",
    "Last_Update": "2020-07-14 04:34:46",
    "Latitude": 39.215877,
    "Longitude": -91.84242683,
    "Confirmed": 142,
    "Deaths": 1,
    "Recovered": 0,
    "Active": 141,
    "Combined_Key": "Audrain, Missouri, US",
    "Incidence_Rate": 559.3193634788089,
    "Case-Fatality_Ratio": 0.704225352112676
  },
  {
    "FIPS": 19009,
    "County": "Audubon",
    "Province_State": "Iowa",
    "Country_Region": "US",
    "Last_Update": "2020-07-14 04:34:46",
    "Latitude": 41.6844628,
    "Longitude": -94.90581859,
    "Confirmed": 18,
    "Deaths": 1,
    "Recovered": 0,
    "Active": 17,
    "Combined_Key": "Audubon, Iowa, US",
    "Incidence_Rate": 327.5109170305677,
    "Case-Fatality_Ratio": 5.555555555555555
  },
  {
    "FIPS": 39011,
    "County": "Auglaize",
    "Province_State": "Ohio",
    "Country_Region": "US",
    "Last_Update": "2020-07-14 04:34:46",
    "Latitude": 40.55998859,
    "Longitude": -84.22421429999999,
    "Confirmed": 112,
    "Deaths": 4,
    "Recovered": 0,
    "Active": 108,
    "Combined_Key": "Auglaize, Ohio, US",
    "Incidence_Rate": 245.31277378657788,
    "Case-Fatality_Ratio": 3.5714285714285716
  },
  {
    "FIPS": 51015,
    "County": "Augusta",
    "Province_State": "Virginia",
    "Country_Region": "US",
    "Last_Update": "2020-07-14 04:34:46",
    "Latitude": 38.16404586,
    "Longitude": -79.12461614,
    "Confirmed": 213,
    "Deaths": 2,
    "Recovered": 0,
    "Active": 211,
    "Combined_Key": "Augusta, Virginia, US",
    "Incidence_Rate": 281.9026443262129,
    "Case-Fatality_Ratio": 0.9389671361502347
  },
  {
    "FIPS": 46003,
    "County": "Aurora",
    "Province_State": "South Dakota",
    "Country_Region": "US",
    "Last_Update": "2020-07-14 04:34:46",
    "Latitude": 43.71757685,
    "Longitude": -98.56050467,
    "Confirmed": 34,
    "Deaths": 0,
    "Recovered": 0,
    "Active": 34,
    "Combined_Key": "Aurora, South Dakota, US",
    "Incidence_Rate": 1235.9142130134496,
    "Case-Fatality_Ratio": 0
  },
  {
    "FIPS": 48015,
    "County": "Austin",
    "Province_State": "Texas",
    "Country_Region": "US",
    "Last_Update": "2020-07-14 04:34:46",
    "Latitude": 29.88548725,
    "Longitude": -96.27736949,
    "Confirmed": 134,
    "Deaths": 0,
    "Recovered": 0,
    "Active": 134,
    "Combined_Key": "Austin, Texas, US",
    "Incidence_Rate": 446.19072988811934,
    "Case-Fatality_Ratio": 0
  },
  {
    "FIPS": 1001,
    "County": "Autauga",
    "Province_State": "Alabama",
    "Country_Region": "US",
    "Last_Update": "2020-07-14 04:34:46",
    "Latitude": 32.53952745,
    "Longitude": -86.64408227,
    "Confirmed": 715,
    "Deaths": 15,
    "Recovered": 0,
    "Active": 700,
    "Combined_Key": "Autauga, Alabama, US",
    "Incidence_Rate": 1279.7794841504233,
    "Case-Fatality_Ratio": 2.097902097902098
  },
  {
    "FIPS": 37011,
    "County": "Avery",
    "Province_State": "North Carolina",
    "Country_Region": "US",
    "Last_Update": "2020-07-14 04:34:46",
    "Latitude": 36.07569796,
    "Longitude": -81.92308483,
    "Confirmed": 30,
    "Deaths": 0,
    "Recovered": 0,
    "Active": 30,
    "Combined_Key": "Avery, North Carolina, US",
    "Incidence_Rate": 170.87201685937234,
    "Case-Fatality_Ratio": 0
  },
  {
    "FIPS": 22009,
    "County": "Avoyelles",
    "Province_State": "Louisiana",
    "Country_Region": "US",
    "Last_Update": "2020-07-14 04:34:46",
    "Latitude": 31.07796211,
    "Longitude": -92.00079449,
    "Confirmed": 489,
    "Deaths": 17,
    "Recovered": 0,
    "Active": 472,
    "Combined_Key": "Avoyelles, Louisiana, US",
    "Incidence_Rate": 1218.1147867676366,
    "Case-Fatality_Ratio": 3.476482617586912
  },
  {
    "FIPS": 8009,
    "County": "Baca",
    "Province_State": "Colorado",
    "Country_Region": "US",
    "Last_Update": "2020-07-14 04:34:46",
    "Latitude": 37.31940883,
    "Longitude": -102.5603223,
    "Confirmed": 14,
    "Deaths": 0,
    "Recovered": 0,
    "Active": 14,
    "Combined_Key": "Baca, Colorado, US",
    "Incidence_Rate": 390.9522479754258,
    "Case-Fatality_Ratio": 0
  },
  {
    "FIPS": 13005,
    "County": "Bacon",
    "Province_State": "Georgia",
    "Country_Region": "US",
    "Last_Update": "2020-07-14 04:34:46",
    "Latitude": 31.55456473,
    "Longitude": -82.45936528,
    "Confirmed": 310,
    "Deaths": 5,
    "Recovered": 0,
    "Active": 305,
    "Combined_Key": "Bacon, Georgia, US",
    "Incidence_Rate": 2776.7825152275173,
    "Case-Fatality_Ratio": 1.6129032258064515
  },
  {
    "FIPS": 48017,
    "County": "Bailey",
    "Province_State": "Texas",
    "Country_Region": "US",
    "Last_Update": "2020-07-14 04:34:46",
    "Latitude": 34.06854817,
    "Longitude": -102.8299707,
    "Confirmed": 112,
    "Deaths": 1,
    "Recovered": 0,
    "Active": 111,
    "Combined_Key": "Bailey, Texas, US",
    "Incidence_Rate": 1600,
    "Case-Fatality_Ratio": 0.8928571428571429
  },
  {
    "FIPS": 12003,
    "County": "Baker",
    "Province_State": "Florida",
    "Country_Region": "US",
    "Last_Update": "2020-07-14 04:34:46",
    "Latitude": 30.33060121,
    "Longitude": -82.28467476,
    "Confirmed": 175,
    "Deaths": 4,
    "Recovered": 0,
    "Active": 171,
    "Combined_Key": "Baker, Florida, US",
    "Incidence_Rate": 599.1098938719616,
    "Case-Fatality_Ratio": 2.2857142857142856
  },
  {
    "FIPS": 13007,
    "County": "Baker",
    "Province_State": "Georgia",
    "Country_Region": "US",
    "Last_Update": "2020-07-14 04:34:46",
    "Latitude": 31.32669878,
    "Longitude": -84.44218806,
    "Confirmed": 44,
    "Deaths": 3,
    "Recovered": 0,
    "Active": 41,
    "Combined_Key": "Baker, Georgia, US",
    "Incidence_Rate": 1448.3212639894668,
    "Case-Fatality_Ratio": 6.818181818181818
  },
  {
    "FIPS": 41001,
    "County": "Baker",
    "Province_State": "Oregon",
    "Country_Region": "US",
    "Last_Update": "2020-07-14 04:34:46",
    "Latitude": 44.70915557,
    "Longitude": -117.6749883,
    "Confirmed": 12,
    "Deaths": 0,
    "Recovered": 0,
    "Active": 12,
    "Combined_Key": "Baker, Oregon, US",
    "Incidence_Rate": 74.42322004465395,
    "Case-Fatality_Ratio": 0
  },
  {
    "FIPS": 1003,
    "County": "Baldwin",
    "Province_State": "Alabama",
    "Country_Region": "US",
    "Last_Update": "2020-07-14 04:34:46",
    "Latitude": 30.72774991,
    "Longitude": -87.72207058,
    "Confirmed": 1341,
    "Deaths": 11,
    "Recovered": 0,
    "Active": 1330,
    "Combined_Key": "Baldwin, Alabama, US",
    "Incidence_Rate": 600.7149448560704,
    "Case-Fatality_Ratio": 0.8202833706189411
  },
  {
    "FIPS": 13009,
    "County": "Baldwin",
    "Province_State": "Georgia",
    "Country_Region": "US",
    "Last_Update": "2020-07-14 04:34:46",
    "Latitude": 33.06882326,
    "Longitude": -83.24701748,
    "Confirmed": 654,
    "Deaths": 35,
    "Recovered": 0,
    "Active": 619,
    "Combined_Key": "Baldwin, Georgia, US",
    "Incidence_Rate": 1456.8946313210074,
    "Case-Fatality_Ratio": 5.351681957186544
  },
  {
    "FIPS": 21007,
    "County": "Ballard",
    "Province_State": "Kentucky",
    "Country_Region": "US",
    "Last_Update": "2020-07-14 04:34:46",
    "Latitude": 37.05842757,
    "Longitude": -88.99427697,
    "Confirmed": 18,
    "Deaths": 0,
    "Recovered": 0,
    "Active": 18,
    "Combined_Key": "Ballard, Kentucky, US",
    "Incidence_Rate": 228.1947261663286,
    "Case-Fatality_Ratio": 0
  },
  {
    "FIPS": 24005,
    "County": "Baltimore",
    "Province_State": "Maryland",
    "Country_Region": "US",
    "Last_Update": "2020-07-14 04:34:46",
    "Latitude": 39.45784712,
    "Longitude": -76.62911955,
    "Confirmed": 8892,
    "Deaths": 496,
    "Recovered": 0,
    "Active": 8396,
    "Combined_Key": "Baltimore, Maryland, US",
    "Incidence_Rate": 1074.7307734145545,
    "Case-Fatality_Ratio": 5.578047683310841
  },
  {
    "FIPS": 24510,
    "County": "Baltimore City",
    "Province_State": "Maryland",
    "Country_Region": "US",
    "Last_Update": "2020-07-14 04:34:46",
    "Latitude": 39.30211911,
    "Longitude": -76.61151012,
    "Confirmed": 8566,
    "Deaths": 366,
    "Recovered": 0,
    "Active": 8200,
    "Combined_Key": "Baltimore City, Maryland, US",
    "Incidence_Rate": 1443.3267620347438,
    "Case-Fatality_Ratio": 4.2727060471632035
  },
  {
    "FIPS": 45009,
    "County": "Bamberg",
    "Province_State": "South Carolina",
    "Country_Region": "US",
    "Last_Update": "2020-07-14 04:34:46",
    "Latitude": 33.21927586,
    "Longitude": -81.05659969,
    "Confirmed": 199,
    "Deaths": 3,
    "Recovered": 0,
    "Active": 196,
    "Combined_Key": "Bamberg, South Carolina, US",
    "Incidence_Rate": 1414.758993317219,
    "Case-Fatality_Ratio": 1.5075376884422111
  },
  {
    "FIPS": 48019,
    "County": "Bandera",
    "Province_State": "Texas",
    "Country_Region": "US",
    "Last_Update": "2020-07-14 04:34:46",
    "Latitude": 29.74619598,
    "Longitude": -99.24598147,
    "Confirmed": 44,
    "Deaths": 0,
    "Recovered": 0,
    "Active": 44,
    "Combined_Key": "Bandera, Texas, US",
    "Incidence_Rate": 190.3772931810315,
    "Case-Fatality_Ratio": 0
  },
  {
    "FIPS": 13011,
    "County": "Banks",
    "Province_State": "Georgia",
    "Country_Region": "US",
    "Last_Update": "2020-07-14 04:34:46",
    "Latitude": 34.35607081,
    "Longitude": -83.49644388,
    "Confirmed": 158,
    "Deaths": 2,
    "Recovered": 0,
    "Active": 156,
    "Combined_Key": "Banks, Georgia, US",
    "Incidence_Rate": 821.4619943849432,
    "Case-Fatality_Ratio": 1.2658227848101267
  },
  {
    "FIPS": 31007,
    "County": "Banner",
    "Province_State": "Nebraska",
    "Country_Region": "US",
    "Last_Update": "2020-07-14 04:34:46",
    "Latitude": 41.54634427,
    "Longitude": -103.7114332,
    "Confirmed": 2,
    "Deaths": 0,
    "Recovered": 0,
    "Active": 2,
    "Combined_Key": "Banner, Nebraska, US",
    "Incidence_Rate": 268.4563758389262,
    "Case-Fatality_Ratio": 0
  },
  {
    "FIPS": 16005,
    "County": "Bannock",
    "Province_State": "Idaho",
    "Country_Region": "US",
    "Last_Update": "2020-07-14 04:34:46",
    "Latitude": 42.67002716,
    "Longitude": -112.2233311,
    "Confirmed": 146,
    "Deaths": 1,
    "Recovered": 0,
    "Active": 145,
    "Combined_Key": "Bannock, Idaho, US",
    "Incidence_Rate": 166.27186588921282,
    "Case-Fatality_Ratio": 0.684931506849315
  },
  {
    "FIPS": 26013,
    "County": "Baraga",
    "Province_State": "Michigan",
    "Country_Region": "US",
    "Last_Update": "2020-07-14 04:34:46",
    "Latitude": 46.6720582,
    "Longitude": -88.36363591,
    "Confirmed": 5,
    "Deaths": 0,
    "Recovered": 0,
    "Active": 5,
    "Combined_Key": "Baraga, Michigan, US",
    "Incidence_Rate": 60.9087586794981,
    "Case-Fatality_Ratio": 0
  },
  {
    "FIPS": 20007,
    "County": "Barber",
    "Province_State": "Kansas",
    "Country_Region": "US",
    "Last_Update": "2020-07-14 04:34:46",
    "Latitude": 37.2288586,
    "Longitude": -98.68460053,
    "Confirmed": 3,
    "Deaths": 0,
    "Recovered": 0,
    "Active": 3,
    "Combined_Key": "Barber, Kansas, US",
    "Incidence_Rate": 67.7659814772984,
    "Case-Fatality_Ratio": 0
  },
  {
    "FIPS": 1005,
    "County": "Barbour",
    "Province_State": "Alabama",
    "Country_Region": "US",
    "Last_Update": "2020-07-14 04:34:46",
    "Latitude": 31.868263,
    "Longitude": -85.3871286,
    "Confirmed": 402,
    "Deaths": 2,
    "Recovered": 0,
    "Active": 400,
    "Combined_Key": "Barbour, Alabama, US",
    "Incidence_Rate": 1628.453374382241,
    "Case-Fatality_Ratio": 0.4975124378109453
  },
  {
    "FIPS": 54001,
    "County": "Barbour",
    "Province_State": "West Virginia",
    "Country_Region": "US",
    "Last_Update": "2020-07-14 04:34:46",
    "Latitude": 39.1307219,
    "Longitude": -80.00350858,
    "Confirmed": 20,
    "Deaths": 1,
    "Recovered": 0,
    "Active": 19,
    "Combined_Key": "Barbour, West Virginia, US",
    "Incidence_Rate": 121.64710175780064,
    "Case-Fatality_Ratio": 5
  },
  {
    "FIPS": 38003,
    "County": "Barnes",
    "Province_State": "North Dakota",
    "Country_Region": "US",
    "Last_Update": "2020-07-14 04:34:46",
    "Latitude": 46.93579637,
    "Longitude": -98.06605978,
    "Confirmed": 24,
    "Deaths": 0,
    "Recovered": 0,
    "Active": 24,
    "Combined_Key": "Barnes, North Dakota, US",
    "Incidence_Rate": 230.43686989918388,
    "Case-Fatality_Ratio": 0
  },
  {
    "FIPS": 25001,
    "County": "Barnstable",
    "Province_State": "Massachusetts",
    "Country_Region": "US",
    "Last_Update": "2020-07-14 04:34:46",
    "Latitude": 41.72980578,
    "Longitude": -70.28854339,
    "Confirmed": 1582,
    "Deaths": 151,
    "Recovered": 0,
    "Active": 1431,
    "Combined_Key": "Barnstable, Massachusetts, US",
    "Incidence_Rate": 742.7578759566177,
    "Case-Fatality_Ratio": 9.5448798988622
  },
  {
    "FIPS": 45011,
    "County": "Barnwell",
    "Province_State": "South Carolina",
    "Country_Region": "US",
    "Last_Update": "2020-07-14 04:34:46",
    "Latitude": 33.26679302,
    "Longitude": -81.43584352,
    "Confirmed": 135,
    "Deaths": 1,
    "Recovered": 0,
    "Active": 134,
    "Combined_Key": "Barnwell, South Carolina, US",
    "Incidence_Rate": 646.9855266941436,
    "Case-Fatality_Ratio": 0.7407407407407407
  },
  {
    "FIPS": 21009,
    "County": "Barren",
    "Province_State": "Kentucky",
    "Country_Region": "US",
    "Last_Update": "2020-07-14 04:34:46",
    "Latitude": 36.96469836,
    "Longitude": -85.93338945,
    "Confirmed": 129,
    "Deaths": 2,
    "Recovered": 0,
    "Active": 127,
    "Combined_Key": "Barren, Kentucky, US",
    "Incidence_Rate": 291.53201202287056,
    "Case-Fatality_Ratio": 1.550387596899225
  },
  {
    "FIPS": 55005,
    "County": "Barron",
    "Province_State": "Wisconsin",
    "Country_Region": "US",
    "Last_Update": "2020-07-14 04:34:46",
    "Latitude": 45.42372701,
    "Longitude": -91.84833627,
    "Confirmed": 48,
    "Deaths": 1,
    "Recovered": 0,
    "Active": 47,
    "Combined_Key": "Barron, Wisconsin, US",
    "Incidence_Rate": 106.09141543630095,
    "Case-Fatality_Ratio": 2.0833333333333335
  },
  {
    "FIPS": 13013,
    "County": "Barrow",
    "Province_State": "Georgia",
    "Country_Region": "US",
    "Last_Update": "2020-07-14 04:34:46",
    "Latitude": 33.99148694,
    "Longitude": -83.71436292,
    "Confirmed": 645,
    "Deaths": 27,
    "Recovered": 0,
    "Active": 618,
    "Combined_Key": "Barrow, Georgia, US",
    "Incidence_Rate": 774.8678519942335,
    "Case-Fatality_Ratio": 4.186046511627907
  },
  {
    "FIPS": 26015,
    "County": "Barry",
    "Province_State": "Michigan",
    "Country_Region": "US",
    "Last_Update": "2020-07-14 04:34:46",
    "Latitude": 42.59513984,
    "Longitude": -85.30834519,
    "Confirmed": 139,
    "Deaths": 2,
    "Recovered": 0,
    "Active": 137,
    "Combined_Key": "Barry, Michigan, US",
    "Incidence_Rate": 225.83265637692932,
    "Case-Fatality_Ratio": 1.4388489208633093
  },
  {
    "FIPS": 29009,
    "County": "Barry",
    "Province_State": "Missouri",
    "Country_Region": "US",
    "Last_Update": "2020-07-14 04:34:46",
    "Latitude": 36.70978521,
    "Longitude": -93.82919888,
    "Confirmed": 97,
    "Deaths": 0,
    "Recovered": 0,
    "Active": 97,
    "Combined_Key": "Barry, Missouri, US",
    "Incidence_Rate": 271.0329989661628,
    "Case-Fatality_Ratio": 0
  },
  {
    "FIPS": 18005,
    "County": "Bartholomew",
    "Province_State": "Indiana",
    "Country_Region": "US",
    "Last_Update": "2020-07-14 04:34:46",
    "Latitude": 39.20744865,
    "Longitude": -85.89558181,
    "Confirmed": 605,
    "Deaths": 45,
    "Recovered": 0,
    "Active": 560,
    "Combined_Key": "Bartholomew, Indiana, US",
    "Incidence_Rate": 722.1380059442104,
    "Case-Fatality_Ratio": 7.43801652892562
  },
  {
    "FIPS": 20009,
    "County": "Barton",
    "Province_State": "Kansas",
    "Country_Region": "US",
    "Last_Update": "2020-07-14 04:34:46",
    "Latitude": 38.47889676,
    "Longitude": -98.75636726,
    "Confirmed": 63,
    "Deaths": 2,
    "Recovered": 0,
    "Active": 61,
    "Combined_Key": "Barton, Kansas, US",
    "Incidence_Rate": 244.3849645059932,
    "Case-Fatality_Ratio": 3.1746031746031744
  },
  {
    "FIPS": 29011,
    "County": "Barton",
    "Province_State": "Missouri",
    "Country_Region": "US",
    "Last_Update": "2020-07-14 04:34:46",
    "Latitude": 37.50207671,
    "Longitude": -94.34757022,
    "Confirmed": 34,
    "Deaths": 0,
    "Recovered": 0,
    "Active": 34,
    "Combined_Key": "Barton, Missouri, US",
    "Incidence_Rate": 289.2632295388804,
    "Case-Fatality_Ratio": 0
  },
  {
    "FIPS": 13015,
    "County": "Bartow",
    "Province_State": "Georgia",
    "Country_Region": "US",
    "Last_Update": "2020-07-14 04:34:46",
    "Latitude": 34.23732119,
    "Longitude": -84.83887523,
    "Confirmed": 1010,
    "Deaths": 44,
    "Recovered": 0,
    "Active": 966,
    "Combined_Key": "Bartow, Georgia, US",
    "Incidence_Rate": 937.459392229297,
    "Case-Fatality_Ratio": 4.356435643564357
  },
  {
    "FIPS": 48021,
    "County": "Bastrop",
    "Province_State": "Texas",
    "Country_Region": "US",
    "Last_Update": "2020-07-14 04:34:46",
    "Latitude": 30.10370699,
    "Longitude": -97.31206354,
    "Confirmed": 735,
    "Deaths": 11,
    "Recovered": 0,
    "Active": 724,
    "Combined_Key": "Bastrop, Texas, US",
    "Incidence_Rate": 828.421040767332,
    "Case-Fatality_Ratio": 1.4965986394557824
  },
  {
    "FIPS": 29013,
    "County": "Bates",
    "Province_State": "Missouri",
    "Country_Region": "US",
    "Last_Update": "2020-07-14 04:34:46",
    "Latitude": 38.25271289,
    "Longitude": -94.34113157,
    "Confirmed": 14,
    "Deaths": 1,
    "Recovered": 0,
    "Active": 13,
    "Combined_Key": "Bates, Missouri, US",
    "Incidence_Rate": 86.5693791738808,
    "Case-Fatality_Ratio": 7.142857142857143
  },
  {
    "FIPS": 21011,
    "County": "Bath",
    "Province_State": "Kentucky",
    "Country_Region": "US",
    "Last_Update": "2020-07-14 04:34:46",
    "Latitude": 38.14735938,
    "Longitude": -83.74588932,
    "Confirmed": 21,
    "Deaths": 1,
    "Recovered": 0,
    "Active": 20,
    "Combined_Key": "Bath, Kentucky, US",
    "Incidence_Rate": 168,
    "Case-Fatality_Ratio": 4.761904761904762
  },
  {
    "FIPS": 51017,
    "County": "Bath",
    "Province_State": "Virginia",
    "Country_Region": "US",
    "Last_Update": "2020-07-14 04:34:46",
    "Latitude": 38.05852573,
    "Longitude": -79.73912095,
    "Confirmed": 1,
    "Deaths": 0,
    "Recovered": 0,
    "Active": 1,
    "Combined_Key": "Bath, Virginia, US",
    "Incidence_Rate": 24.11381721726549,
    "Case-Fatality_Ratio": 0
  },
  {
    "FIPS": 5005,
    "County": "Baxter",
    "Province_State": "Arkansas",
    "Country_Region": "US",
    "Last_Update": "2020-07-14 04:34:46",
    "Latitude": 36.28784385,
    "Longitude": -92.33782872,
    "Confirmed": 31,
    "Deaths": 0,
    "Recovered": 0,
    "Active": 31,
    "Combined_Key": "Baxter, Arkansas, US",
    "Incidence_Rate": 73.92921873509492,
    "Case-Fatality_Ratio": 0
  },
  {
    "FIPS": 12005,
    "County": "Bay",
    "Province_State": "Florida",
    "Country_Region": "US",
    "Last_Update": "2020-07-14 04:34:46",
    "Latitude": 30.26548745,
    "Longitude": -85.62122584,
    "Confirmed": 1322,
    "Deaths": 8,
    "Recovered": 0,
    "Active": 1314,
    "Combined_Key": "Bay, Florida, US",
    "Incidence_Rate": 756.7041584385106,
    "Case-Fatality_Ratio": 0.6051437216338881
  },
  {
    "FIPS": 26017,
    "County": "Bay",
    "Province_State": "Michigan",
    "Country_Region": "US",
    "Last_Update": "2020-07-14 04:34:46",
    "Latitude": 43.70639106,
    "Longitude": -83.98731479,
    "Confirmed": 435,
    "Deaths": 31,
    "Recovered": 0,
    "Active": 404,
    "Combined_Key": "Bay, Michigan, US",
    "Incidence_Rate": 421.81409149971876,
    "Case-Fatality_Ratio": 7.126436781609195
  },
  {
    "FIPS": 55007,
    "County": "Bayfield",
    "Province_State": "Wisconsin",
    "Country_Region": "US",
    "Last_Update": "2020-07-14 04:34:46",
    "Latitude": 46.52868768,
    "Longitude": -91.19716729,
    "Confirmed": 7,
    "Deaths": 1,
    "Recovered": 0,
    "Active": 6,
    "Combined_Key": "Bayfield, Wisconsin, US",
    "Incidence_Rate": 46.55493482309125,
    "Case-Fatality_Ratio": 14.285714285714286
  },
  {
    "FIPS": 48023,
    "County": "Baylor",
    "Province_State": "Texas",
    "Country_Region": "US",
    "Last_Update": "2020-07-14 04:34:46",
    "Latitude": 33.61640794,
    "Longitude": -99.21352901,
    "Confirmed": 1,
    "Deaths": 0,
    "Recovered": 0,
    "Active": 1,
    "Combined_Key": "Baylor, Texas, US",
    "Incidence_Rate": 28.498147620404676,
    "Case-Fatality_Ratio": 0
  },
  {
    "FIPS": 46005,
    "County": "Beadle",
    "Province_State": "South Dakota",
    "Country_Region": "US",
    "Last_Update": "2020-07-14 04:34:46",
    "Latitude": 44.41464384,
    "Longitude": -98.27858469,
    "Confirmed": 553,
    "Deaths": 8,
    "Recovered": 0,
    "Active": 545,
    "Combined_Key": "Beadle, South Dakota, US",
    "Incidence_Rate": 2996.8026879098247,
    "Case-Fatality_Ratio": 1.4466546112115732
  },
  {
    "FIPS": 16007,
    "County": "Bear Lake",
    "Province_State": "Idaho",
    "Country_Region": "US",
    "Last_Update": "2020-07-14 04:34:46",
    "Latitude": 42.28269683,
    "Longitude": -111.32892379999998,
    "Confirmed": 2,
    "Deaths": 0,
    "Recovered": 0,
    "Active": 2,
    "Combined_Key": "Bear Lake, Idaho, US",
    "Incidence_Rate": 32.6530612244898,
    "Case-Fatality_Ratio": 0
  },
  {
    "FIPS": null,
    "County": "Bear River",
    "Province_State": "Utah",
    "Country_Region": "US",
    "Last_Update": "2020-07-14 04:34:46",
    "Latitude": 41.52106798,
    "Longitude": -113.08328159999999,
    "Confirmed": 1775,
    "Deaths": 3,
    "Recovered": 0,
    "Active": 1772,
    "Combined_Key": "Bear River, Utah, US",
    "Incidence_Rate": 950.1225791947244,
    "Case-Fatality_Ratio": 0.16901408450704225
  },
  {
    "FIPS": 37013,
    "County": "Beaufort",
    "Province_State": "North Carolina",
    "Country_Region": "US",
    "Last_Update": "2020-07-14 04:34:46",
    "Latitude": 35.48531943,
    "Longitude": -76.84325809,
    "Confirmed": 154,
    "Deaths": 0,
    "Recovered": 0,
    "Active": 154,
    "Combined_Key": "Beaufort, North Carolina, US",
    "Incidence_Rate": 327.7014086904711,
    "Case-Fatality_Ratio": 0
  },
  {
    "FIPS": 45013,
    "County": "Beaufort",
    "Province_State": "South Carolina",
    "Country_Region": "US",
    "Last_Update": "2020-07-14 04:34:46",
    "Latitude": 32.39226291,
    "Longitude": -80.72619758,
    "Confirmed": 2020,
    "Deaths": 23,
    "Recovered": 0,
    "Active": 1997,
    "Combined_Key": "Beaufort, South Carolina, US",
    "Incidence_Rate": 1051.4152465620805,
    "Case-Fatality_Ratio": 1.1386138613861385
  },
  {
    "FIPS": 22011,
    "County": "Beauregard",
    "Province_State": "Louisiana",
    "Country_Region": "US",
    "Last_Update": "2020-07-14 04:34:46",
    "Latitude": 30.64836518,
    "Longitude": -93.34173616,
    "Confirmed": 367,
    "Deaths": 9,
    "Recovered": 0,
    "Active": 358,
    "Combined_Key": "Beauregard, Louisiana, US",
    "Incidence_Rate": 978.7449662639676,
    "Case-Fatality_Ratio": 2.4523160762942777
  },
  {
    "FIPS": 40007,
    "County": "Beaver",
    "Province_State": "Oklahoma",
    "Country_Region": "US",
    "Last_Update": "2020-07-14 04:34:46",
    "Latitude": 36.7496847,
    "Longitude": -100.4758872,
    "Confirmed": 32,
    "Deaths": 0,
    "Recovered": 0,
    "Active": 32,
    "Combined_Key": "Beaver, Oklahoma, US",
    "Incidence_Rate": 602.5230653360949,
    "Case-Fatality_Ratio": 0
  },
  {
    "FIPS": 42007,
    "County": "Beaver",
    "Province_State": "Pennsylvania",
    "Country_Region": "US",
    "Last_Update": "2020-07-14 04:34:46",
    "Latitude": 40.6825484,
    "Longitude": -80.34921611,
    "Confirmed": 845,
    "Deaths": 79,
    "Recovered": 0,
    "Active": 766,
    "Combined_Key": "Beaver, Pennsylvania, US",
    "Incidence_Rate": 515.4670619597508,
    "Case-Fatality_Ratio": 9.349112426035504
  },
  {
    "FIPS": 30001,
    "County": "Beaverhead",
    "Province_State": "Montana",
    "Country_Region": "US",
    "Last_Update": "2020-07-14 04:34:46",
    "Latitude": 45.13434354,
    "Longitude": -112.8984694,
    "Confirmed": 5,
    "Deaths": 0,
    "Recovered": 0,
    "Active": 5,
    "Combined_Key": "Beaverhead, Montana, US",
    "Incidence_Rate": 52.89326139849785,
    "Case-Fatality_Ratio": 0
  },
  {
    "FIPS": 27005,
    "County": "Becker",
    "Province_State": "Minnesota",
    "Country_Region": "US",
    "Last_Update": "2020-07-14 04:34:46",
    "Latitude": 46.93479392,
    "Longitude": -95.67158144,
    "Confirmed": 68,
    "Deaths": 0,
    "Recovered": 0,
    "Active": 68,
    "Combined_Key": "Becker, Minnesota, US",
    "Incidence_Rate": 197.5423408767394,
    "Case-Fatality_Ratio": 0
  },
  {
    "FIPS": 40009,
    "County": "Beckham",
    "Province_State": "Oklahoma",
    "Country_Region": "US",
    "Last_Update": "2020-07-14 04:34:46",
    "Latitude": 35.26862449,
    "Longitude": -99.68128023,
    "Confirmed": 22,
    "Deaths": 0,
    "Recovered": 0,
    "Active": 22,
    "Combined_Key": "Beckham, Oklahoma, US",
    "Incidence_Rate": 100.64504323162085,
    "Case-Fatality_Ratio": 0
  },
  {
    "FIPS": 42009,
    "County": "Bedford",
    "Province_State": "Pennsylvania",
    "Country_Region": "US",
    "Last_Update": "2020-07-14 04:34:46",
    "Latitude": 40.00522157,
    "Longitude": -78.48998442,
    "Confirmed": 92,
    "Deaths": 4,
    "Recovered": 0,
    "Active": 88,
    "Combined_Key": "Bedford, Pennsylvania, US",
    "Incidence_Rate": 192.11493484797862,
    "Case-Fatality_Ratio": 4.3478260869565215
  },
  {
    "FIPS": 47003,
    "County": "Bedford",
    "Province_State": "Tennessee",
    "Country_Region": "US",
    "Last_Update": "2020-07-14 04:34:46",
    "Latitude": 35.51123746,
    "Longitude": -86.45549096,
    "Confirmed": 630,
    "Deaths": 9,
    "Recovered": 0,
    "Active": 621,
    "Combined_Key": "Bedford, Tennessee, US",
    "Incidence_Rate": 1267.2741536419044,
    "Case-Fatality_Ratio": 1.4285714285714286
  },
  {
    "FIPS": 51019,
    "County": "Bedford",
    "Province_State": "Virginia",
    "Country_Region": "US",
    "Last_Update": "2020-07-14 04:34:46",
    "Latitude": 37.3080028,
    "Longitude": -79.5281964,
    "Confirmed": 167,
    "Deaths": 4,
    "Recovered": 0,
    "Active": 163,
    "Combined_Key": "Bedford, Virginia, US",
    "Incidence_Rate": 211.40043292783267,
    "Case-Fatality_Ratio": 2.395209580838323
  },
  {
    "FIPS": 48025,
    "County": "Bee",
    "Province_State": "Texas",
    "Country_Region": "US",
    "Last_Update": "2020-07-14 04:34:46",
    "Latitude": 28.41761668,
    "Longitude": -97.74215593,
    "Confirmed": 146,
    "Deaths": 0,
    "Recovered": 0,
    "Active": 146,
    "Combined_Key": "Bee, Texas, US",
    "Incidence_Rate": 448.33410102871176,
    "Case-Fatality_Ratio": 0
  },
  {
    "FIPS": 33001,
    "County": "Belknap",
    "Province_State": "New Hampshire",
    "Country_Region": "US",
    "Last_Update": "2020-07-14 04:34:46",
    "Latitude": 43.51637314,
    "Longitude": -71.41684235,
    "Confirmed": 91,
    "Deaths": 3,
    "Recovered": 0,
    "Active": 88,
    "Combined_Key": "Belknap, New Hampshire, US",
    "Incidence_Rate": 148.4429799520415,
    "Case-Fatality_Ratio": 3.2967032967032965
  },
  {
    "FIPS": 21013,
    "County": "Bell",
    "Province_State": "Kentucky",
    "Country_Region": "US",
    "Last_Update": "2020-07-14 04:34:46",
    "Latitude": 36.73355174,
    "Longitude": -83.67766671,
    "Confirmed": 105,
    "Deaths": 0,
    "Recovered": 0,
    "Active": 105,
    "Combined_Key": "Bell, Kentucky, US",
    "Incidence_Rate": 403.34972341733254,
    "Case-Fatality_Ratio": 0
  },
  {
    "FIPS": 48027,
    "County": "Bell",
    "Province_State": "Texas",
    "Country_Region": "US",
    "Last_Update": "2020-07-14 04:34:46",
    "Latitude": 31.03736027,
    "Longitude": -97.4785025,
    "Confirmed": 2083,
    "Deaths": 14,
    "Recovered": 0,
    "Active": 2069,
    "Combined_Key": "Bell, Texas, US",
    "Incidence_Rate": 573.9493668095798,
    "Case-Fatality_Ratio": 0.672107537205953
  },
  {
    "FIPS": 39013,
    "County": "Belmont",
    "Province_State": "Ohio",
    "Country_Region": "US",
    "Last_Update": "2020-07-14 04:34:46",
    "Latitude": 40.01625942,
    "Longitude": -80.9924051,
    "Confirmed": 573,
    "Deaths": 24,
    "Recovered": 0,
    "Active": 549,
    "Combined_Key": "Belmont, Ohio, US",
    "Incidence_Rate": 855.1473002417694,
    "Case-Fatality_Ratio": 4.18848167539267
  },
  {
    "FIPS": 27007,
    "County": "Beltrami",
    "Province_State": "Minnesota",
    "Country_Region": "US",
    "Last_Update": "2020-07-14 04:34:46",
    "Latitude": 47.97373527,
    "Longitude": -94.93732139,
    "Confirmed": 55,
    "Deaths": 0,
    "Recovered": 0,
    "Active": 55,
    "Combined_Key": "Beltrami, Minnesota, US",
    "Incidence_Rate": 116.55505637026363,
    "Case-Fatality_Ratio": 0
  },
  {
    "FIPS": 13017,
    "County": "Ben Hill",
    "Province_State": "Georgia",
    "Country_Region": "US",
    "Last_Update": "2020-07-14 04:34:46",
    "Latitude": 31.76095874,
    "Longitude": -83.22145359,
    "Confirmed": 230,
    "Deaths": 1,
    "Recovered": 0,
    "Active": 229,
    "Combined_Key": "Ben Hill, Georgia, US",
    "Incidence_Rate": 1377.2455089820362,
    "Case-Fatality_Ratio": 0.43478260869565216
  },
  {
    "FIPS": 16009,
    "County": "Benewah",
    "Province_State": "Idaho",
    "Country_Region": "US",
    "Last_Update": "2020-07-14 04:34:46",
    "Latitude": 47.21754179,
    "Longitude": -116.6586851,
    "Confirmed": 29,
    "Deaths": 0,
    "Recovered": 0,
    "Active": 29,
    "Combined_Key": "Benewah, Idaho, US",
    "Incidence_Rate": 311.8950311895032,
    "Case-Fatality_Ratio": 0
  },
  {
    "FIPS": 46007,
    "County": "Bennett",
    "Province_State": "South Dakota",
    "Country_Region": "US",
    "Last_Update": "2020-07-14 04:34:46",
    "Latitude": 43.19486375,
    "Longitude": -101.6665572,
    "Confirmed": 4,
    "Deaths": 0,
    "Recovered": 0,
    "Active": 4,
    "Combined_Key": "Bennett, South Dakota, US",
    "Incidence_Rate": 118.87072808320951,
    "Case-Fatality_Ratio": 0
  },
  {
    "FIPS": 50003,
    "County": "Bennington",
    "Province_State": "Vermont",
    "Country_Region": "US",
    "Last_Update": "2020-07-14 04:34:46",
    "Latitude": 43.03519828,
    "Longitude": -73.09048868,
    "Confirmed": 74,
    "Deaths": 1,
    "Recovered": 0,
    "Active": 73,
    "Combined_Key": "Bennington, Vermont, US",
    "Incidence_Rate": 208.62700873978008,
    "Case-Fatality_Ratio": 1.3513513513513513
  },
  {
    "FIPS": 38005,
    "County": "Benson",
    "Province_State": "North Dakota",
    "Country_Region": "US",
    "Last_Update": "2020-07-14 04:34:46",
    "Latitude": 48.0683985,
    "Longitude": -99.35916363,
    "Confirmed": 16,
    "Deaths": 0,
    "Recovered": 0,
    "Active": 16,
    "Combined_Key": "Benson, North Dakota, US",
    "Incidence_Rate": 234.192037470726,
    "Case-Fatality_Ratio": 0
  },
  {
    "FIPS": 8011,
    "County": "Bent",
    "Province_State": "Colorado",
    "Country_Region": "US",
    "Last_Update": "2020-07-14 04:34:46",
    "Latitude": 37.95474293,
    "Longitude": -103.0720195,
    "Confirmed": 4,
    "Deaths": 0,
    "Recovered": 0,
    "Active": 4,
    "Combined_Key": "Bent, Colorado, US",
    "Incidence_Rate": 71.72314864622557,
    "Case-Fatality_Ratio": 0
  },
  {
    "FIPS": 5007,
    "County": "Benton",
    "Province_State": "Arkansas",
    "Country_Region": "US",
    "Last_Update": "2020-07-14 04:34:46",
    "Latitude": 36.33644656,
    "Longitude": -94.25680817,
    "Confirmed": 3496,
    "Deaths": 22,
    "Recovered": 0,
    "Active": 3474,
    "Combined_Key": "Benton, Arkansas, US",
    "Incidence_Rate": 1252.4136547479586,
    "Case-Fatality_Ratio": 0.6292906178489702
  },
  {
    "FIPS": 18007,
    "County": "Benton",
    "Province_State": "Indiana",
    "Country_Region": "US",
    "Last_Update": "2020-07-14 04:34:46",
    "Latitude": 40.60626947,
    "Longitude": -87.31093999,
    "Confirmed": 51,
    "Deaths": 0,
    "Recovered": 0,
    "Active": 51,
    "Combined_Key": "Benton, Indiana, US",
    "Incidence_Rate": 582.9903978052126,
    "Case-Fatality_Ratio": 0
  },
  {
    "FIPS": 19011,
    "County": "Benton",
    "Province_State": "Iowa",
    "Country_Region": "US",
    "Last_Update": "2020-07-14 04:34:46",
    "Latitude": 42.08011739,
    "Longitude": -92.06463573,
    "Confirmed": 78,
    "Deaths": 1,
    "Recovered": 0,
    "Active": 77,
    "Combined_Key": "Benton, Iowa, US",
    "Incidence_Rate": 304.1528563072724,
    "Case-Fatality_Ratio": 1.2820512820512822
  },
  {
    "FIPS": 27009,
    "County": "Benton",
    "Province_State": "Minnesota",
    "Country_Region": "US",
    "Last_Update": "2020-07-14 04:34:46",
    "Latitude": 45.69804958,
    "Longitude": -93.99514135,
    "Confirmed": 242,
    "Deaths": 3,
    "Recovered": 0,
    "Active": 239,
    "Combined_Key": "Benton, Minnesota, US",
    "Incidence_Rate": 591.8462178091908,
    "Case-Fatality_Ratio": 1.2396694214876034
  },
  {
    "FIPS": 28009,
    "County": "Benton",
    "Province_State": "Mississippi",
    "Country_Region": "US",
    "Last_Update": "2020-07-14 04:34:46",
    "Latitude": 34.81681228,
    "Longitude": -89.18945516,
    "Confirmed": 47,
    "Deaths": 0,
    "Recovered": 0,
    "Active": 47,
    "Combined_Key": "Benton, Mississippi, US",
    "Incidence_Rate": 569.0761593413246,
    "Case-Fatality_Ratio": 0
  },
  {
    "FIPS": 29015,
    "County": "Benton",
    "Province_State": "Missouri",
    "Country_Region": "US",
    "Last_Update": "2020-07-14 04:34:46",
    "Latitude": 38.29503305,
    "Longitude": -93.28756116,
    "Confirmed": 23,
    "Deaths": 0,
    "Recovered": 0,
    "Active": 23,
    "Combined_Key": "Benton, Missouri, US",
    "Incidence_Rate": 118.29450187728231,
    "Case-Fatality_Ratio": 0
  },
  {
    "FIPS": 41003,
    "County": "Benton",
    "Province_State": "Oregon",
    "Country_Region": "US",
    "Last_Update": "2020-07-14 04:34:46",
    "Latitude": 44.49167306,
    "Longitude": -123.4316987,
    "Confirmed": 115,
    "Deaths": 6,
    "Recovered": 0,
    "Active": 109,
    "Combined_Key": "Benton, Oregon, US",
    "Incidence_Rate": 123.58548354163756,
    "Case-Fatality_Ratio": 5.217391304347826
  },
  {
    "FIPS": 47005,
    "County": "Benton",
    "Province_State": "Tennessee",
    "Country_Region": "US",
    "Last_Update": "2020-07-14 04:34:46",
    "Latitude": 36.07110411,
    "Longitude": -88.06849355,
    "Confirmed": 16,
    "Deaths": 1,
    "Recovered": 0,
    "Active": 15,
    "Combined_Key": "Benton, Tennessee, US",
    "Incidence_Rate": 99.009900990099,
    "Case-Fatality_Ratio": 6.25
  },
  {
    "FIPS": 53005,
    "County": "Benton",
    "Province_State": "Washington",
    "Country_Region": "US",
    "Last_Update": "2020-07-14 04:34:46",
    "Latitude": 46.23946995,
    "Longitude": -119.5120834,
    "Confirmed": 2387,
    "Deaths": 92,
    "Recovered": 0,
    "Active": 2295,
    "Combined_Key": "Benton, Washington, US",
    "Incidence_Rate": 1145.359362004012,
    "Case-Fatality_Ratio": 4.015378043571124
  },
  {
    "FIPS": 26019,
    "County": "Benzie",
    "Province_State": "Michigan",
    "Country_Region": "US",
    "Last_Update": "2020-07-14 04:34:46",
    "Latitude": 44.63899297,
    "Longitude": -86.01608482,
    "Confirmed": 15,
    "Deaths": 0,
    "Recovered": 0,
    "Active": 15,
    "Combined_Key": "Benzie, Michigan, US",
    "Incidence_Rate": 84.43093549476528,
    "Case-Fatality_Ratio": 0
  },
  {
    "FIPS": 34003,
    "County": "Bergen",
    "Province_State": "New Jersey",
    "Country_Region": "US",
    "Last_Update": "2020-07-14 04:34:46",
    "Latitude": 40.96010917,
    "Longitude": -74.07164325,
    "Confirmed": 19891,
    "Deaths": 2030,
    "Recovered": 0,
    "Active": 17861,
    "Combined_Key": "Bergen, New Jersey, US",
    "Incidence_Rate": 2133.764999431454,
    "Case-Fatality_Ratio": 10.205620632446836
  },
  {
    "FIPS": 45015,
    "County": "Berkeley",
    "Province_State": "South Carolina",
    "Country_Region": "US",
    "Last_Update": "2020-07-14 04:34:46",
    "Latitude": 33.20222596,
    "Longitude": -79.94654523,
    "Confirmed": 2290,
    "Deaths": 25,
    "Recovered": 0,
    "Active": 2265,
    "Combined_Key": "Berkeley, South Carolina, US",
    "Incidence_Rate": 1004.7958158371615,
    "Case-Fatality_Ratio": 1.091703056768559
  },
  {
    "FIPS": 54003,
    "County": "Berkeley",
    "Province_State": "West Virginia",
    "Country_Region": "US",
    "Last_Update": "2020-07-14 04:34:46",
    "Latitude": 39.46704621,
    "Longitude": -78.02414609,
    "Confirmed": 537,
    "Deaths": 10,
    "Recovered": 0,
    "Active": 527,
    "Combined_Key": "Berkeley, West Virginia, US",
    "Incidence_Rate": 450.6129847026542,
    "Case-Fatality_Ratio": 1.86219739292365
  },
  {
    "FIPS": 42011,
    "County": "Berks",
    "Province_State": "Pennsylvania",
    "Country_Region": "US",
    "Last_Update": "2020-07-14 04:34:46",
    "Latitude": 40.41570541,
    "Longitude": -75.92457766,
    "Confirmed": 4700,
    "Deaths": 358,
    "Recovered": 0,
    "Active": 4342,
    "Combined_Key": "Berks, Pennsylvania, US",
    "Incidence_Rate": 1115.9548299474789,
    "Case-Fatality_Ratio": 7.617021276595745
  },
  {
    "FIPS": 25003,
    "County": "Berkshire",
    "Province_State": "Massachusetts",
    "Country_Region": "US",
    "Last_Update": "2020-07-14 04:34:46",
    "Latitude": 42.37428441,
    "Longitude": -73.20524838,
    "Confirmed": 615,
    "Deaths": 45,
    "Recovered": 0,
    "Active": 570,
    "Combined_Key": "Berkshire, Massachusetts, US",
    "Incidence_Rate": 492.2205147906262,
    "Case-Fatality_Ratio": 7.317073170731708
  },
  {
    "FIPS": 35001,
    "County": "Bernalillo",
    "Province_State": "New Mexico",
    "Country_Region": "US",
    "Last_Update": "2020-07-14 04:34:46",
    "Latitude": 35.05163625,
    "Longitude": -106.6703554,
    "Confirmed": 3134,
    "Deaths": 96,
    "Recovered": 0,
    "Active": 3038,
    "Combined_Key": "Bernalillo, New Mexico, US",
    "Incidence_Rate": 461.4788822610403,
    "Case-Fatality_Ratio": 3.063178047223995
  },
  {
    "FIPS": 13019,
    "County": "Berrien",
    "Province_State": "Georgia",
    "Country_Region": "US",
    "Last_Update": "2020-07-14 04:34:46",
    "Latitude": 31.27590016,
    "Longitude": -83.22529920000002,
    "Confirmed": 180,
    "Deaths": 0,
    "Recovered": 0,
    "Active": 180,
    "Combined_Key": "Berrien, Georgia, US",
    "Incidence_Rate": 927.978553384544,
    "Case-Fatality_Ratio": 0
  },
  {
    "FIPS": 26021,
    "County": "Berrien",
    "Province_State": "Michigan",
    "Country_Region": "US",
    "Last_Update": "2020-07-14 04:34:46",
    "Latitude": 41.95447397,
    "Longitude": -86.41313079999998,
    "Confirmed": 1019,
    "Deaths": 60,
    "Recovered": 0,
    "Active": 959,
    "Combined_Key": "Berrien, Michigan, US",
    "Incidence_Rate": 664.2720712381275,
    "Case-Fatality_Ratio": 5.888125613346418
  },
  {
    "FIPS": 37015,
    "County": "Bertie",
    "Province_State": "North Carolina",
    "Country_Region": "US",
    "Last_Update": "2020-07-14 04:34:46",
    "Latitude": 36.0688473,
    "Longitude": -76.96545943,
    "Confirmed": 157,
    "Deaths": 4,
    "Recovered": 0,
    "Active": 153,
    "Combined_Key": "Bertie, North Carolina, US",
    "Incidence_Rate": 828.6272233071197,
    "Case-Fatality_Ratio": 2.5477707006369426
  },
  {
    "FIPS": 2050,
    "County": "Bethel",
    "Province_State": "Alaska",
    "Country_Region": "US",
    "Last_Update": "2020-07-14 04:34:46",
    "Latitude": 60.90980451,
    "Longitude": -159.8561831,
    "Confirmed": 16,
    "Deaths": 0,
    "Recovered": 0,
    "Active": 16,
    "Combined_Key": "Bethel, Alaska, US",
    "Incidence_Rate": 87.02273468943761,
    "Case-Fatality_Ratio": 0
  },
  {
    "FIPS": 48029,
    "County": "Bexar",
    "Province_State": "Texas",
    "Country_Region": "US",
    "Last_Update": "2020-07-14 04:34:46",
    "Latitude": 29.44928723,
    "Longitude": -98.52019748,
    "Confirmed": 20213,
    "Deaths": 195,
    "Recovered": 0,
    "Active": 20018,
    "Combined_Key": "Bexar, Texas, US",
    "Incidence_Rate": 1008.8572606478286,
    "Case-Fatality_Ratio": 0.9647256715974868
  },
  {
    "FIPS": 1007,
    "County": "Bibb",
    "Province_State": "Alabama",
    "Country_Region": "US",
    "Last_Update": "2020-07-14 04:34:46",
    "Latitude": 32.99642064,
    "Longitude": -87.12511459999996,
    "Confirmed": 227,
    "Deaths": 1,
    "Recovered": 0,
    "Active": 226,
    "Combined_Key": "Bibb, Alabama, US",
    "Incidence_Rate": 1013.6643743859962,
    "Case-Fatality_Ratio": 0.44052863436123346
  },
  {
    "FIPS": 13021,
    "County": "Bibb",
    "Province_State": "Georgia",
    "Country_Region": "US",
    "Last_Update": "2020-07-14 04:34:46",
    "Latitude": 32.80904227,
    "Longitude": -83.70489165,
    "Confirmed": 1725,
    "Deaths": 43,
    "Recovered": 0,
    "Active": 1682,
    "Combined_Key": "Bibb, Georgia, US",
    "Incidence_Rate": 1126.2805319961608,
    "Case-Fatality_Ratio": 2.4927536231884058
  },
  {
    "FIPS": 22013,
    "County": "Bienville",
    "Province_State": "Louisiana",
    "Country_Region": "US",
    "Last_Update": "2020-07-14 04:34:46",
    "Latitude": 32.34569994,
    "Longitude": -93.05398492,
    "Confirmed": 266,
    "Deaths": 28,
    "Recovered": 0,
    "Active": 238,
    "Combined_Key": "Bienville, Louisiana, US",
    "Incidence_Rate": 2008.9117136167965,
    "Case-Fatality_Ratio": 10.526315789473685
  },
  {
    "FIPS": 30003,
    "County": "Big Horn",
    "Province_State": "Montana",
    "Country_Region": "US",
    "Last_Update": "2020-07-14 04:34:46",
    "Latitude": 45.42335905,
    "Longitude": -107.492347,
    "Confirmed": 119,
    "Deaths": 5,
    "Recovered": 0,
    "Active": 114,
    "Combined_Key": "Big Horn, Montana, US",
    "Incidence_Rate": 893.4604700052556,
    "Case-Fatality_Ratio": 4.201680672268908
  },
  {
    "FIPS": 56003,
    "County": "Big Horn",
    "Province_State": "Wyoming",
    "Country_Region": "US",
    "Last_Update": "2020-07-14 04:34:46",
    "Latitude": 44.52405055,
    "Longitude": -107.9960365,
    "Confirmed": 30,
    "Deaths": 0,
    "Recovered": 0,
    "Active": 30,
    "Combined_Key": "Big Horn, Wyoming, US",
    "Incidence_Rate": 254.45292620865138,
    "Case-Fatality_Ratio": 0
  },
  {
    "FIPS": 27011,
    "County": "Big Stone",
    "Province_State": "Minnesota",
    "Country_Region": "US",
    "Last_Update": "2020-07-14 04:34:46",
    "Latitude": 45.42712824,
    "Longitude": -96.41403739,
    "Confirmed": 18,
    "Deaths": 0,
    "Recovered": 0,
    "Active": 18,
    "Combined_Key": "Big Stone, Minnesota, US",
    "Incidence_Rate": 360.649168503306,
    "Case-Fatality_Ratio": 0
  },
  {
    "FIPS": 38007,
    "County": "Billings",
    "Province_State": "North Dakota",
    "Country_Region": "US",
    "Last_Update": "2020-07-14 04:34:46",
    "Latitude": 47.02366884,
    "Longitude": -103.3762965,
    "Confirmed": 1,
    "Deaths": 0,
    "Recovered": 0,
    "Active": 1,
    "Combined_Key": "Billings, North Dakota, US",
    "Incidence_Rate": 107.75862068965515,
    "Case-Fatality_Ratio": 0
  },
  {
    "FIPS": 16011,
    "County": "Bingham",
    "Province_State": "Idaho",
    "Country_Region": "US",
    "Last_Update": "2020-07-14 04:34:46",
    "Latitude": 43.21672879999999,
    "Longitude": -112.3978437,
    "Confirmed": 84,
    "Deaths": 1,
    "Recovered": 0,
    "Active": 83,
    "Combined_Key": "Bingham, Idaho, US",
    "Incidence_Rate": 179.4450022430625,
    "Case-Fatality_Ratio": 1.1904761904761905
  },
  {
    "FIPS": 19013,
    "County": "Black Hawk",
    "Province_State": "Iowa",
    "Country_Region": "US",
    "Last_Update": "2020-07-14 04:34:46",
    "Latitude": 42.4704581,
    "Longitude": -92.30524729,
    "Confirmed": 2534,
    "Deaths": 59,
    "Recovered": 0,
    "Active": 2475,
    "Combined_Key": "Black Hawk, Iowa, US",
    "Incidence_Rate": 1930.990337427988,
    "Case-Fatality_Ratio": 2.3283346487766376
  },
  {
    "FIPS": 18009,
    "County": "Blackford",
    "Province_State": "Indiana",
    "Country_Region": "US",
    "Last_Update": "2020-07-14 04:34:46",
    "Latitude": 40.47388153,
    "Longitude": -85.32499702,
    "Confirmed": 40,
    "Deaths": 2,
    "Recovered": 0,
    "Active": 38,
    "Combined_Key": "Blackford, Indiana, US",
    "Incidence_Rate": 340.1939105290015,
    "Case-Fatality_Ratio": 5
  },
  {
    "FIPS": 37017,
    "County": "Bladen",
    "Province_State": "North Carolina",
    "Country_Region": "US",
    "Last_Update": "2020-07-14 04:34:46",
    "Latitude": 34.61296243,
    "Longitude": -78.56180059,
    "Confirmed": 446,
    "Deaths": 5,
    "Recovered": 0,
    "Active": 441,
    "Combined_Key": "Bladen, North Carolina, US",
    "Incidence_Rate": 1362.9973717987898,
    "Case-Fatality_Ratio": 1.1210762331838564
  },
  {
    "FIPS": 16013,
    "County": "Blaine",
    "Province_State": "Idaho",
    "Country_Region": "US",
    "Last_Update": "2020-07-14 04:34:46",
    "Latitude": 43.4085812,
    "Longitude": -113.9752658,
    "Confirmed": 551,
    "Deaths": 5,
    "Recovered": 0,
    "Active": 546,
    "Combined_Key": "Blaine, Idaho, US",
    "Incidence_Rate": 2393.4668346292515,
    "Case-Fatality_Ratio": 0.9074410163339383
  },
  {
    "FIPS": 31009,
    "County": "Blaine",
    "Province_State": "Nebraska",
    "Country_Region": "US",
    "Last_Update": "2020-07-14 04:34:46",
    "Latitude": 41.91311716,
    "Longitude": -99.97677845,
    "Confirmed": 0,
    "Deaths": 0,
    "Recovered": 0,
    "Active": 0,
    "Combined_Key": "Blaine, Nebraska, US",
    "Incidence_Rate": 0,
    "Case-Fatality_Ratio": null
  },
  {
    "FIPS": 40011,
    "County": "Blaine",
    "Province_State": "Oklahoma",
    "Country_Region": "US",
    "Last_Update": "2020-07-14 04:34:46",
    "Latitude": 35.87518314,
    "Longitude": -98.43307003,
    "Confirmed": 22,
    "Deaths": 0,
    "Recovered": 0,
    "Active": 22,
    "Combined_Key": "Blaine, Oklahoma, US",
    "Incidence_Rate": 233.32272775479905,
    "Case-Fatality_Ratio": 0
  },
  {
    "FIPS": 42013,
    "County": "Blair",
    "Province_State": "Pennsylvania",
    "Country_Region": "US",
    "Last_Update": "2020-07-14 04:34:46",
    "Latitude": 40.47961444,
    "Longitude": -78.34917412,
    "Confirmed": 105,
    "Deaths": 1,
    "Recovered": 0,
    "Active": 104,
    "Combined_Key": "Blair, Pennsylvania, US",
    "Incidence_Rate": 86.18637598601319,
    "Case-Fatality_Ratio": 0.9523809523809523
  },
  {
    "FIPS": 48031,
    "County": "Blanco",
    "Province_State": "Texas",
    "Country_Region": "US",
    "Last_Update": "2020-07-14 04:34:46",
    "Latitude": 30.26640707,
    "Longitude": -98.3999852,
    "Confirmed": 49,
    "Deaths": 1,
    "Recovered": 0,
    "Active": 48,
    "Combined_Key": "Blanco, Texas, US",
    "Incidence_Rate": 410.69482859777054,
    "Case-Fatality_Ratio": 2.0408163265306123
  },
  {
    "FIPS": 51021,
    "County": "Bland",
    "Province_State": "Virginia",
    "Country_Region": "US",
    "Last_Update": "2020-07-14 04:34:46",
    "Latitude": 37.13128068,
    "Longitude": -81.13599391,
    "Confirmed": 3,
    "Deaths": 0,
    "Recovered": 0,
    "Active": 3,
    "Combined_Key": "Bland, Virginia, US",
    "Incidence_Rate": 47.77070063694269,
    "Case-Fatality_Ratio": 0
  },
  {
    "FIPS": 13023,
    "County": "Bleckley",
    "Province_State": "Georgia",
    "Country_Region": "US",
    "Last_Update": "2020-07-14 04:34:46",
    "Latitude": 32.43829035,
    "Longitude": -83.33035166,
    "Confirmed": 90,
    "Deaths": 1,
    "Recovered": 0,
    "Active": 89,
    "Combined_Key": "Bleckley, Georgia, US",
    "Incidence_Rate": 699.1377301328363,
    "Case-Fatality_Ratio": 1.1111111111111112
  },
  {
    "FIPS": 47007,
    "County": "Bledsoe",
    "Province_State": "Tennessee",
    "Country_Region": "US",
    "Last_Update": "2020-07-14 04:34:46",
    "Latitude": 35.59942968,
    "Longitude": -85.20611967,
    "Confirmed": 631,
    "Deaths": 1,
    "Recovered": 0,
    "Active": 630,
    "Combined_Key": "Bledsoe, Tennessee, US",
    "Incidence_Rate": 4188.794476898566,
    "Case-Fatality_Ratio": 0.15847860538827258
  },
  {
    "FIPS": 1009,
    "County": "Blount",
    "Province_State": "Alabama",
    "Country_Region": "US",
    "Last_Update": "2020-07-14 04:34:46",
    "Latitude": 33.98210918,
    "Longitude": -86.56790593,
    "Confirmed": 331,
    "Deaths": 1,
    "Recovered": 0,
    "Active": 330,
    "Combined_Key": "Blount, Alabama, US",
    "Incidence_Rate": 572.4068757998132,
    "Case-Fatality_Ratio": 0.3021148036253776
  },
  {
    "FIPS": 47009,
    "County": "Blount",
    "Province_State": "Tennessee",
    "Country_Region": "US",
    "Last_Update": "2020-07-14 04:34:46",
    "Latitude": 35.68938198,
    "Longitude": -83.92847788,
    "Confirmed": 348,
    "Deaths": 3,
    "Recovered": 0,
    "Active": 345,
    "Combined_Key": "Blount, Tennessee, US",
    "Incidence_Rate": 261.4811252704977,
    "Case-Fatality_Ratio": 0.8620689655172413
  },
  {
    "FIPS": 27013,
    "County": "Blue Earth",
    "Province_State": "Minnesota",
    "Country_Region": "US",
    "Last_Update": "2020-07-14 04:34:46",
    "Latitude": 44.03554215,
    "Longitude": -94.06699781,
    "Confirmed": 586,
    "Deaths": 2,
    "Recovered": 0,
    "Active": 584,
    "Combined_Key": "Blue Earth, Minnesota, US",
    "Incidence_Rate": 866.1847959440082,
    "Case-Fatality_Ratio": 0.3412969283276451
  },
  {
    "FIPS": 16015,
    "County": "Boise",
    "Province_State": "Idaho",
    "Country_Region": "US",
    "Last_Update": "2020-07-14 04:34:46",
    "Latitude": 43.98829931,
    "Longitude": -115.7309284,
    "Confirmed": 10,
    "Deaths": 0,
    "Recovered": 0,
    "Active": 10,
    "Combined_Key": "Boise, Idaho, US",
    "Incidence_Rate": 127.69761205465458,
    "Case-Fatality_Ratio": 0
  },
  {
    "FIPS": 28011,
    "County": "Bolivar",
    "Province_State": "Mississippi",
    "Country_Region": "US",
    "Last_Update": "2020-07-14 04:34:46",
    "Latitude": 33.79696941,
    "Longitude": -90.87372121,
    "Confirmed": 416,
    "Deaths": 18,
    "Recovered": 0,
    "Active": 398,
    "Combined_Key": "Bolivar, Mississippi, US",
    "Incidence_Rate": 1358.2342954159594,
    "Case-Fatality_Ratio": 4.326923076923077
  },
  {
    "FIPS": 29017,
    "County": "Bollinger",
    "Province_State": "Missouri",
    "Country_Region": "US",
    "Last_Update": "2020-07-14 04:34:46",
    "Latitude": 37.32449052,
    "Longitude": -90.02725304,
    "Confirmed": 23,
    "Deaths": 0,
    "Recovered": 0,
    "Active": 23,
    "Combined_Key": "Bollinger, Missouri, US",
    "Incidence_Rate": 189.56564740789585,
    "Case-Fatality_Ratio": 0
  },
  {
    "FIPS": 46009,
    "County": "Bon Homme",
    "Province_State": "South Dakota",
    "Country_Region": "US",
    "Last_Update": "2020-07-14 04:34:46",
    "Latitude": 42.98914167,
    "Longitude": -97.88592746,
    "Confirmed": 14,
    "Deaths": 0,
    "Recovered": 0,
    "Active": 14,
    "Combined_Key": "Bon Homme, South Dakota, US",
    "Incidence_Rate": 202.86914939863792,
    "Case-Fatality_Ratio": 0
  },
  {
    "FIPS": 17005,
    "County": "Bond",
    "Province_State": "Illinois",
    "Country_Region": "US",
    "Last_Update": "2020-07-14 04:34:46",
    "Latitude": 38.88829622,
    "Longitude": -89.43534887,
    "Confirmed": 22,
    "Deaths": 2,
    "Recovered": 0,
    "Active": 20,
    "Combined_Key": "Bond, Illinois, US",
    "Incidence_Rate": 133.9340070619749,
    "Case-Fatality_Ratio": 9.090909090909092
  },
  {
    "FIPS": 16017,
    "County": "Bonner",
    "Province_State": "Idaho",
    "Country_Region": "US",
    "Last_Update": "2020-07-14 04:34:46",
    "Latitude": 48.29996017,
    "Longitude": -116.6017932,
    "Confirmed": 75,
    "Deaths": 0,
    "Recovered": 0,
    "Active": 75,
    "Combined_Key": "Bonner, Idaho, US",
    "Incidence_Rate": 163.97385163645902,
    "Case-Fatality_Ratio": 0
  },
  {
    "FIPS": 16019,
    "County": "Bonneville",
    "Province_State": "Idaho",
    "Country_Region": "US",
    "Last_Update": "2020-07-14 04:34:46",
    "Latitude": 43.38713372,
    "Longitude": -111.6161537,
    "Confirmed": 208,
    "Deaths": 1,
    "Recovered": 0,
    "Active": 207,
    "Combined_Key": "Bonneville, Idaho, US",
    "Incidence_Rate": 174.6988963733181,
    "Case-Fatality_Ratio": 0.4807692307692308
  },
  {
    "FIPS": 5009,
    "County": "Boone",
    "Province_State": "Arkansas",
    "Country_Region": "US",
    "Last_Update": "2020-07-14 04:34:46",
    "Latitude": 36.3084504,
    "Longitude": -93.09374925,
    "Confirmed": 53,
    "Deaths": 1,
    "Recovered": 0,
    "Active": 52,
    "Combined_Key": "Boone, Arkansas, US",
    "Incidence_Rate": 141.5900833511434,
    "Case-Fatality_Ratio": 1.8867924528301887
  },
  {
    "FIPS": 17007,
    "County": "Boone",
    "Province_State": "Illinois",
    "Country_Region": "US",
    "Last_Update": "2020-07-14 04:34:46",
    "Latitude": 42.32359279,
    "Longitude": -88.82345779,
    "Confirmed": 639,
    "Deaths": 21,
    "Recovered": 0,
    "Active": 618,
    "Combined_Key": "Boone, Illinois, US",
    "Incidence_Rate": 1193.41102644554,
    "Case-Fatality_Ratio": 3.2863849765258215
  },
  {
    "FIPS": 18011,
    "County": "Boone",
    "Province_State": "Indiana",
    "Country_Region": "US",
    "Last_Update": "2020-07-14 04:34:46",
    "Latitude": 40.0509304,
    "Longitude": -86.46841646,
    "Confirmed": 492,
    "Deaths": 44,
    "Recovered": 0,
    "Active": 448,
    "Combined_Key": "Boone, Indiana, US",
    "Incidence_Rate": 725.2037793140044,
    "Case-Fatality_Ratio": 8.94308943089431
  },
  {
    "FIPS": 19015,
    "County": "Boone",
    "Province_State": "Iowa",
    "Country_Region": "US",
    "Last_Update": "2020-07-14 04:34:46",
    "Latitude": 42.03657094,
    "Longitude": -93.9313999,
    "Confirmed": 175,
    "Deaths": 1,
    "Recovered": 0,
    "Active": 174,
    "Combined_Key": "Boone, Iowa, US",
    "Incidence_Rate": 667.0732637035908,
    "Case-Fatality_Ratio": 0.5714285714285714
  },
  {
    "FIPS": 21015,
    "County": "Boone",
    "Province_State": "Kentucky",
    "Country_Region": "US",
    "Last_Update": "2020-07-14 04:34:46",
    "Latitude": 38.97065142,
    "Longitude": -84.72615357,
    "Confirmed": 733,
    "Deaths": 23,
    "Recovered": 0,
    "Active": 710,
    "Combined_Key": "Boone, Kentucky, US",
    "Incidence_Rate": 548.7307326640765,
    "Case-Fatality_Ratio": 3.1377899045020463
  },
  {
    "FIPS": 29019,
    "County": "Boone",
    "Province_State": "Missouri",
    "Country_Region": "US",
    "Last_Update": "2020-07-14 04:34:46",
    "Latitude": 38.99186229,
    "Longitude": -92.30723575,
    "Confirmed": 595,
    "Deaths": 2,
    "Recovered": 0,
    "Active": 593,
    "Combined_Key": "Boone, Missouri, US",
    "Incidence_Rate": 329.7074746623962,
    "Case-Fatality_Ratio": 0.33613445378151263
  },
  {
    "FIPS": 31011,
    "County": "Boone",
    "Province_State": "Nebraska",
    "Country_Region": "US",
    "Last_Update": "2020-07-14 04:34:46",
    "Latitude": 41.70759415,
    "Longitude": -98.06737183,
    "Confirmed": 7,
    "Deaths": 0,
    "Recovered": 0,
    "Active": 7,
    "Combined_Key": "Boone, Nebraska, US",
    "Incidence_Rate": 134.82280431432974,
    "Case-Fatality_Ratio": 0
  },
  {
    "FIPS": 54005,
    "County": "Boone",
    "Province_State": "West Virginia",
    "Country_Region": "US",
    "Last_Update": "2020-07-14 04:34:46",
    "Latitude": 38.01974191,
    "Longitude": -81.69888019,
    "Confirmed": 34,
    "Deaths": 0,
    "Recovered": 0,
    "Active": 34,
    "Combined_Key": "Boone, West Virginia, US",
    "Incidence_Rate": 158.4564477792795,
    "Case-Fatality_Ratio": 0
  },
  {
    "FIPS": 48035,
    "County": "Bosque",
    "Province_State": "Texas",
    "Country_Region": "US",
    "Last_Update": "2020-07-14 04:34:46",
    "Latitude": 31.89978581,
    "Longitude": -97.63613524,
    "Confirmed": 41,
    "Deaths": 0,
    "Recovered": 0,
    "Active": 41,
    "Combined_Key": "Bosque, Texas, US",
    "Incidence_Rate": 219.4273481402194,
    "Case-Fatality_Ratio": 0
  },