[
  {
    "FIPS": 45001,
    "County": "Abbeville",
    "Province_State": "South Carolina",
    "Country_Region": "US",
    "Last_Update": "2020-07-27 04:35:02",
    "Latitude": 34.22333378,
    "Longitude": -82.46170658,
    "Confirmed": 270,
    "Deaths": 4,
    "Recovered": 0,
    "Active": 266,
    "Combined_Key": "Abbeville, South Carolina, US",
    "Incidence_Rate": 1100.8276593142252,
    "Case-Fatality_Ratio": 1.4814814814814814
  },
  {
    "FIPS": 22001,
    "County": "Acadia",
    "Province_State": "Louisiana",
    "Country_Region": "US",
    "Last_Update": "2020-07-27 04:35:02",
    "Latitude": 30.295064899999996,
    "Longitude": -92.41419698,
    "Confirmed": 2173,
    "Deaths": 62,
    "Recovered": 0,
    "Active": 2111,
    "Combined_Key": "Acadia, Louisiana, US",
    "Incidence_Rate": 3502.296720122492,
    "Case-Fatality_Ratio": 2.8531983433041876
  },
  {
    "FIPS": 51001,
    "County": "Accomack",
    "Province_State": "Virginia",
    "Country_Region": "US",
    "Last_Update": "2020-07-27 04:35:02",
    "Latitude": 37.76707161,
    "Longitude": -75.63234615,
    "Confirmed": 1063,
    "Deaths": 15,
    "Recovered": 0,
    "Active": 1048,
    "Combined_Key": "Accomack, Virginia, US",
    "Incidence_Rate": 3289.3922515162767,
    "Case-Fatality_Ratio": 1.4111006585136407
  },
  {
    "FIPS": 16001,
    "County": "Ada",
    "Province_State": "Idaho",
    "Country_Region": "US",
    "Last_Update": "2020-07-27 04:35:02",
    "Latitude": 43.4526575,
    "Longitude": -116.24155159999998,
    "Confirmed": 7092,
    "Deaths": 45,
    "Recovered": 0,
    "Active": 7047,
    "Combined_Key": "Ada, Idaho, US",
    "Incidence_Rate": 1472.6311133813824,
    "Case-Fatality_Ratio": 0.6345177664974619
  },
  {
    "FIPS": 19001,
    "County": "Adair",
    "Province_State": "Iowa",
    "Country_Region": "US",
    "Last_Update": "2020-07-27 04:35:02",
    "Latitude": 41.33075609,
    "Longitude": -94.47105874,
    "Confirmed": 20,
    "Deaths": 0,
    "Recovered": 0,
    "Active": 20,
    "Combined_Key": "Adair, Iowa, US",
    "Incidence_Rate": 279.6420581655481,
    "Case-Fatality_Ratio": 0
  },
  {
    "FIPS": 21001,
    "County": "Adair",
    "Province_State": "Kentucky",
    "Country_Region": "US",
    "Last_Update": "2020-07-27 04:35:02",
    "Latitude": 37.10459774,
    "Longitude": -85.28129668,
    "Confirmed": 183,
    "Deaths": 19,
    "Recovered": 0,
    "Active": 164,
    "Combined_Key": "Adair, Kentucky, US",
    "Incidence_Rate": 953.0257264868244,
    "Case-Fatality_Ratio": 10.382513661202186
  },
  {
    "FIPS": 29001,
    "County": "Adair",
    "Province_State": "Missouri",
    "Country_Region": "US",
    "Last_Update": "2020-07-27 04:35:02",
    "Latitude": 40.19058551,
    "Longitude": -92.60078167,
    "Confirmed": 119,
    "Deaths": 0,
    "Recovered": 0,
    "Active": 119,
    "Combined_Key": "Adair, Missouri, US",
    "Incidence_Rate": 469.5576687842797,
    "Case-Fatality_Ratio": 0
  },
  {
    "FIPS": 40001,
    "County": "Adair",
    "Province_State": "Oklahoma",
    "Country_Region": "US",
    "Last_Update": "2020-07-27 04:35:02",
    "Latitude": 35.88494195,
    "Longitude": -94.65859267,
    "Confirmed": 241,
    "Deaths": 5,
    "Recovered": 0,
    "Active": 236,
    "Combined_Key": "Adair, Oklahoma, US",
    "Incidence_Rate": 1085.8790664143464,
    "Case-Fatality_Ratio": 2.074688796680498
  },
  {
    "FIPS": 8001,
    "County": "Adams",
    "Province_State": "Colorado",
    "Country_Region": "US",
    "Last_Update": "2020-07-27 04:35:02",
    "Latitude": 39.87432092,
    "Longitude": -104.3362578,
    "Confirmed": 5587,
    "Deaths": 167,
    "Recovered": 0,
    "Active": 5420,
    "Combined_Key": "Adams, Colorado, US",
    "Incidence_Rate": 1079.7783623007183,
    "Case-Fatality_Ratio": 2.989081797028817
  },
  {
    "FIPS": 16003,
    "County": "Adams",
    "Province_State": "Idaho",
    "Country_Region": "US",
    "Last_Update": "2020-07-27 04:35:02",
    "Latitude": 44.89333571,
    "Longitude": -116.4545247,
    "Confirmed": 16,
    "Deaths": 0,
    "Recovered": 0,
    "Active": 16,
    "Combined_Key": "Adams, Idaho, US",
    "Incidence_Rate": 372.61294829995336,
    "Case-Fatality_Ratio": 0
  },
  {
    "FIPS": 17001,
    "County": "Adams",
    "Province_State": "Illinois",
    "Country_Region": "US",
    "Last_Update": "2020-07-27 04:35:02",
    "Latitude": 39.98815591,
    "Longitude": -91.18786813,
    "Confirmed": 336,
    "Deaths": 1,
    "Recovered": 0,
    "Active": 335,
    "Combined_Key": "Adams, Illinois, US",
    "Incidence_Rate": 513.4866661572553,
    "Case-Fatality_Ratio": 0.2976190476190476
  },
  {
    "FIPS": 18001,
    "County": "Adams",
    "Province_State": "Indiana",
    "Country_Region": "US",
    "Last_Update": "2020-07-27 04:35:02",
    "Latitude": 40.7457653,
    "Longitude": -84.93671406,
    "Confirmed": 70,
    "Deaths": 1,
    "Recovered": 0,
    "Active": 69,
    "Combined_Key": "Adams, Indiana, US",
    "Incidence_Rate": 195.65642731363727,
    "Case-Fatality_Ratio": 1.4285714285714286
  },
  {
    "FIPS": 19003,
    "County": "Adams",
    "Province_State": "Iowa",
    "Country_Region": "US",
    "Last_Update": "2020-07-27 04:35:02",
    "Latitude": 41.02903567,
    "Longitude": -94.69932645,
    "Confirmed": 13,
    "Deaths": 0,
    "Recovered": 0,
    "Active": 13,
    "Combined_Key": "Adams, Iowa, US",
    "Incidence_Rate": 360.9106052193227,
    "Case-Fatality_Ratio": 0
  },
  {
    "FIPS": 28001,
    "County": "Adams",
    "Province_State": "Mississippi",
    "Country_Region": "US",
    "Last_Update": "2020-07-27 04:35:02",
    "Latitude": 31.47669768,
    "Longitude": -91.35326037,
    "Confirmed": 511,
    "Deaths": 22,
    "Recovered": 0,
    "Active": 489,
    "Combined_Key": "Adams, Mississippi, US",
    "Incidence_Rate": 1664.8747271364807,
    "Case-Fatality_Ratio": 4.305283757338552
  },
  {
    "FIPS": 31001,
    "County": "Adams",
    "Province_State": "Nebraska",
    "Country_Region": "US",
    "Last_Update": "2020-07-27 04:35:02",
    "Latitude": 40.52449420000001,
    "Longitude": -98.50117804,
    "Confirmed": 326,
    "Deaths": 11,
    "Recovered": 0,
    "Active": 315,
    "Combined_Key": "Adams, Nebraska, US",
    "Incidence_Rate": 1039.4413799700285,
    "Case-Fatality_Ratio": 3.374233128834356
  },
  {
    "FIPS": 38001,
    "County": "Adams",
    "Province_State": "North Dakota",
    "Country_Region": "US",
    "Last_Update": "2020-07-27 04:35:02",
    "Latitude": 46.09686891,
    "Longitude": -102.5285397,
    "Confirmed": 0,
    "Deaths": 0,
    "Recovered": 0,
    "Active": 0,
    "Combined_Key": "Adams, North Dakota, US",
    "Incidence_Rate": 0,
    "Case-Fatality_Ratio": null
  },
  {
    "FIPS": 39001,
    "County": "Adams",
    "Province_State": "Ohio",
    "Country_Region": "US",
    "Last_Update": "2020-07-27 04:35:02",
    "Latitude": 38.84541072,
    "Longitude": -83.4718964,
    "Confirmed": 42,
    "Deaths": 2,
    "Recovered": 0,
    "Active": 40,
    "Combined_Key": "Adams, Ohio, US",
    "Incidence_Rate": 151.6354971478085,
    "Case-Fatality_Ratio": 4.761904761904762
  },
  {
    "FIPS": 42001,
    "County": "Adams",
    "Province_State": "Pennsylvania",
    "Country_Region": "US",
    "Last_Update": "2020-07-27 04:35:02",
    "Latitude": 39.87140411,
    "Longitude": -77.21610347,
    "Confirmed": 442,
    "Deaths": 17,
    "Recovered": 0,
    "Active": 425,
    "Combined_Key": "Adams, Pennsylvania, US",
    "Incidence_Rate": 429.0887204030716,
    "Case-Fatality_Ratio": 3.8461538461538463
  },
  {
    "FIPS": 53001,
    "County": "Adams",
    "Province_State": "Washington",
    "Country_Region": "US",
    "Last_Update": "2020-07-27 04:35:02",
    "Latitude": 46.98299757,
    "Longitude": -118.5601734,
    "Confirmed": 360,
    "Deaths": 1,
    "Recovered": 0,
    "Active": 359,
    "Combined_Key": "Adams, Washington, US",
    "Incidence_Rate": 1801.5313016063653,
    "Case-Fatality_Ratio": 0.2777777777777778
  },
  {
    "FIPS": 55001,
    "County": "Adams",
    "Province_State": "Wisconsin",
    "Country_Region": "US",
    "Last_Update": "2020-07-27 04:35:02",
    "Latitude": 43.96974651,
    "Longitude": -89.76782777,
    "Confirmed": 61,
    "Deaths": 2,
    "Recovered": 0,
    "Active": 59,
    "Combined_Key": "Adams, Wisconsin, US",
    "Incidence_Rate": 301.68150346191885,
    "Case-Fatality_Ratio": 3.278688524590164
  },
  {
    "FIPS": 50001,
    "County": "Addison",
    "Province_State": "Vermont",
    "Country_Region": "US",
    "Last_Update": "2020-07-27 04:35:02",
    "Latitude": 44.03217337,
    "Longitude": -73.14130877,
    "Confirmed": 71,
    "Deaths": 2,
    "Recovered": 0,
    "Active": 69,
    "Combined_Key": "Addison, Vermont, US",
    "Incidence_Rate": 193.05544226010815,
    "Case-Fatality_Ratio": 2.816901408450704
  },
  {
    "FIPS": 72001,
    "County": "Adjuntas",
    "Province_State": "Puerto Rico",
    "Country_Region": "US",
    "Last_Update": "2020-07-27 04:35:02",
    "Latitude": 18.180117000000006,
    "Longitude": -66.754367,
    "Confirmed": 77,
    "Deaths": 0,
    "Recovered": 0,
    "Active": 77,
    "Combined_Key": "Adjuntas, Puerto Rico, US",
    "Incidence_Rate": 395.21634245239443,
    "Case-Fatality_Ratio": 0
  },
  {
    "FIPS": 72003,
    "County": "Aguada",
    "Province_State": "Puerto Rico",
    "Country_Region": "US",
    "Last_Update": "2020-07-27 04:35:02",
    "Latitude": 18.360255,
    "Longitude": -67.17513100000001,
    "Confirmed": 91,
    "Deaths": 0,
    "Recovered": 0,
    "Active": 91,
    "Combined_Key": "Aguada, Puerto Rico, US",
    "Incidence_Rate": 216.87838127696082,
    "Case-Fatality_Ratio": 0
  },
  {
    "FIPS": 72005,
    "County": "Aguadilla",
    "Province_State": "Puerto Rico",
    "Country_Region": "US",
    "Last_Update": "2020-07-27 04:35:02",
    "Latitude": 18.459681,
    "Longitude": -67.12081500000001,
    "Confirmed": 152,
    "Deaths": 0,
    "Recovered": 0,
    "Active": 152,
    "Combined_Key": "Aguadilla, Puerto Rico, US",
    "Incidence_Rate": 249.3888332868464,
    "Case-Fatality_Ratio": 0
  },
  {
    "FIPS": 72007,
    "County": "Aguas Buenas",
    "Province_State": "Puerto Rico",
    "Country_Region": "US",
    "Last_Update": "2020-07-27 04:35:02",
    "Latitude": 18.251619,
    "Longitude": -66.126806,
    "Confirmed": 94,
    "Deaths": 0,
    "Recovered": 0,
    "Active": 94,
    "Combined_Key": "Aguas Buenas, Puerto Rico, US",
    "Incidence_Rate": 327.99469625597544,
    "Case-Fatality_Ratio": 0
  },
  {
    "FIPS": 72009,
    "County": "Aibonito",
    "Province_State": "Puerto Rico",
    "Country_Region": "US",
    "Last_Update": "2020-07-27 04:35:02",
    "Latitude": 18.131361,
    "Longitude": -66.264131,
    "Confirmed": 70,
    "Deaths": 0,
    "Recovered": 0,
    "Active": 70,
    "Combined_Key": "Aibonito, Puerto Rico, US",
    "Incidence_Rate": 270.27027027027026,
    "Case-Fatality_Ratio": 0
  },
  {
    "FIPS": 45003,
    "County": "Aiken",
    "Province_State": "South Carolina",
    "Country_Region": "US",
    "Last_Update": "2020-07-27 04:35:02",
    "Latitude": 33.54338026,
    "Longitude": -81.63645384,
    "Confirmed": 1260,
    "Deaths": 23,
    "Recovered": 0,
    "Active": 1237,
    "Combined_Key": "Aiken, South Carolina, US",
    "Incidence_Rate": 737.3940727562152,
    "Case-Fatality_Ratio": 1.8253968253968254
  },
  {
    "FIPS": 27001,
    "County": "Aitkin",
    "Province_State": "Minnesota",
    "Country_Region": "US",
    "Last_Update": "2020-07-27 04:35:02",
    "Latitude": 46.60962049,
    "Longitude": -93.4116826,
    "Confirmed": 24,
    "Deaths": 0,
    "Recovered": 0,
    "Active": 24,
    "Combined_Key": "Aitkin, Minnesota, US",
    "Incidence_Rate": 151.07641948885808,
    "Case-Fatality_Ratio": 0
  },
  {
    "FIPS": 12001,
    "County": "Alachua",
    "Province_State": "Florida",
    "Country_Region": "US",
    "Last_Update": "2020-07-27 04:35:02",
    "Latitude": 29.67866525,
    "Longitude": -82.35928158,
    "Confirmed": 3144,
    "Deaths": 20,
    "Recovered": 0,
    "Active": 3124,
    "Combined_Key": "Alachua, Florida, US",
    "Incidence_Rate": 1168.5864341387808,
    "Case-Fatality_Ratio": 0.6361323155216285
  },
  {
    "FIPS": 37001,
    "County": "Alamance",
    "Province_State": "North Carolina",
    "Country_Region": "US",
    "Last_Update": "2020-07-27 04:35:02",
    "Latitude": 36.0434701,
    "Longitude": -79.39976137,
    "Confirmed": 1954,
    "Deaths": 41,
    "Recovered": 0,
    "Active": 1913,
    "Combined_Key": "Alamance, North Carolina, US",
    "Incidence_Rate": 1152.7411523871888,
    "Case-Fatality_Ratio": 2.0982599795291708
  },
  {
    "FIPS": 6001,
    "County": "Alameda",
    "Province_State": "California",
    "Country_Region": "US",
    "Last_Update": "2020-07-27 04:35:02",
    "Latitude": 37.64629437,
    "Longitude": -121.8929271,
    "Confirmed": 10330,
    "Deaths": 178,
    "Recovered": 0,
    "Active": 10152,
    "Combined_Key": "Alameda, California, US",
    "Incidence_Rate": 618.0710081617683,
    "Case-Fatality_Ratio": 1.723136495643756
  },
  {
    "FIPS": 8003,
    "County": "Alamosa",
    "Province_State": "Colorado",
    "Country_Region": "US",
    "Last_Update": "2020-07-27 04:35:02",
    "Latitude": 37.57250606,
    "Longitude": -105.7885451,
    "Confirmed": 219,
    "Deaths": 7,
    "Recovered": 0,
    "Active": 212,
    "Combined_Key": "Alamosa, Colorado, US",
    "Incidence_Rate": 1349.103677693587,
    "Case-Fatality_Ratio": 3.1963470319634704
  },
  {
    "FIPS": 36001,
    "County": "Albany",
    "Province_State": "New York",
    "Country_Region": "US",
    "Last_Update": "2020-07-27 04:35:02",
    "Latitude": 42.60060306,
    "Longitude": -73.97723916,
    "Confirmed": 2451,
    "Deaths": 124,
    "Recovered": 0,
    "Active": 2327,
    "Combined_Key": "Albany, New York, US",
    "Incidence_Rate": 802.2755690559268,
    "Case-Fatality_Ratio": 5.0591595267237865
  },
  {
    "FIPS": 56001,
    "County": "Albany",
    "Province_State": "Wyoming",
    "Country_Region": "US",
    "Last_Update": "2020-07-27 04:35:02",
    "Latitude": 41.65498705,
    "Longitude": -105.7235415,
    "Confirmed": 78,
    "Deaths": 0,
    "Recovered": 0,
    "Active": 78,
    "Combined_Key": "Albany, Wyoming, US",
    "Incidence_Rate": 200.6172839506173,
    "Case-Fatality_Ratio": 0
  },
  {
    "FIPS": 51003,
    "County": "Albemarle",
    "Province_State": "Virginia",
    "Country_Region": "US",
    "Last_Update": "2020-07-27 04:35:02",
    "Latitude": 38.02080697,
    "Longitude": -78.55481085,
    "Confirmed": 705,
    "Deaths": 10,
    "Recovered": 0,
    "Active": 695,
    "Combined_Key": "Albemarle, Virginia, US",
    "Incidence_Rate": 644.8367328272202,
    "Case-Fatality_Ratio": 1.4184397163120568
  },
  {
    "FIPS": 26001,
    "County": "Alcona",
    "Province_State": "Michigan",
    "Country_Region": "US",
    "Last_Update": "2020-07-27 04:35:02",
    "Latitude": 44.6846864,
    "Longitude": -83.59507875,
    "Confirmed": 28,
    "Deaths": 1,
    "Recovered": 0,
    "Active": 27,
    "Combined_Key": "Alcona, Michigan, US",
    "Incidence_Rate": 269.1013935607881,
    "Case-Fatality_Ratio": 3.5714285714285716
  },
  {
    "FIPS": 28003,
    "County": "Alcorn",
    "Province_State": "Mississippi",
    "Country_Region": "US",
    "Last_Update": "2020-07-27 04:35:02",
    "Latitude": 34.88084463,
    "Longitude": -88.57996173,
    "Confirmed": 274,
    "Deaths": 3,
    "Recovered": 0,
    "Active": 271,
    "Combined_Key": "Alcorn, Mississippi, US",
    "Incidence_Rate": 741.482423619192,
    "Case-Fatality_Ratio": 1.094890510948905
  },
  {
    "FIPS": 2013,
    "County": "Aleutians East",
    "Province_State": "Alaska",
    "Country_Region": "US",
    "Last_Update": "2020-07-27 04:35:02",
    "Latitude": 55.32222414,
    "Longitude": -161.9722021,
    "Confirmed": 1,
    "Deaths": 0,
    "Recovered": 0,
    "Active": 1,
    "Combined_Key": "Aleutians East, Alaska, US",
    "Incidence_Rate": 29.96703626011388,
    "Case-Fatality_Ratio": 0
  },
  {
    "FIPS": 2016,
    "County": "Aleutians West",
    "Province_State": "Alaska",
    "Country_Region": "US",
    "Last_Update": "2020-07-27 04:35:02",
    "Latitude": 52.3233,
    "Longitude": -174.1596,
    "Confirmed": 3,
    "Deaths": 0,
    "Recovered": 0,
    "Active": 3,
    "Combined_Key": "Aleutians West, Alaska, US",
    "Incidence_Rate": 53.24813631522897,
    "Case-Fatality_Ratio": 0
  },
  {
    "FIPS": 17003,
    "County": "Alexander",
    "Province_State": "Illinois",
    "Country_Region": "US",
    "Last_Update": "2020-07-27 04:35:02",
    "Latitude": 37.18049267,
    "Longitude": -89.32910838,
    "Confirmed": 35,
    "Deaths": 0,
    "Recovered": 0,
    "Active": 35,
    "Combined_Key": "Alexander, Illinois, US",
    "Incidence_Rate": 607.5334143377886,
    "Case-Fatality_Ratio": 0
  },
  {
    "FIPS": 37003,
    "County": "Alexander",
    "Province_State": "North Carolina",
    "Country_Region": "US",
    "Last_Update": "2020-07-27 04:35:02",
    "Latitude": 35.922379600000006,
    "Longitude": -81.17751948,
    "Confirmed": 253,
    "Deaths": 2,
    "Recovered": 0,
    "Active": 251,
    "Combined_Key": "Alexander, North Carolina, US",
    "Incidence_Rate": 674.7206443182123,
    "Case-Fatality_Ratio": 0.7905138339920948
  },
  {
    "FIPS": 51510,
    "County": "Alexandria",
    "Province_State": "Virginia",
    "Country_Region": "US",
    "Last_Update": "2020-07-27 04:35:02",
    "Latitude": 38.814003,
    "Longitude": -77.08183073,
    "Confirmed": 2695,
    "Deaths": 57,
    "Recovered": 0,
    "Active": 2638,
    "Combined_Key": "Alexandria, Virginia, US",
    "Incidence_Rate": 1690.4182452266855,
    "Case-Fatality_Ratio": 2.1150278293135436
  },
  {
    "FIPS": 40003,
    "County": "Alfalfa",
    "Province_State": "Oklahoma",
    "Country_Region": "US",
    "Last_Update": "2020-07-27 04:35:02",
    "Latitude": 36.73090616,
    "Longitude": -98.32408495,
    "Confirmed": 1,
    "Deaths": 0,
    "Recovered": 0,
    "Active": 1,
    "Combined_Key": "Alfalfa, Oklahoma, US",
    "Incidence_Rate": 17.5377060680463,
    "Case-Fatality_Ratio": 0
  },
  {
    "FIPS": 26003,
    "County": "Alger",
    "Province_State": "Michigan",
    "Country_Region": "US",
    "Last_Update": "2020-07-27 04:35:02",
    "Latitude": 46.41292944,
    "Longitude": -86.60260122,
    "Confirmed": 5,
    "Deaths": 0,
    "Recovered": 0,
    "Active": 5,
    "Combined_Key": "Alger, Michigan, US",
    "Incidence_Rate": 54.89679402722882,
    "Case-Fatality_Ratio": 0
  },
  {
    "FIPS": 19005,
    "County": "Allamakee",
    "Province_State": "Iowa",
    "Country_Region": "US",
    "Last_Update": "2020-07-27 04:35:02",
    "Latitude": 43.28383218,
    "Longitude": -91.37860922,
    "Confirmed": 145,
    "Deaths": 4,
    "Recovered": 0,
    "Active": 141,
    "Combined_Key": "Allamakee, Iowa, US",
    "Incidence_Rate": 1059.3994301161686,
    "Case-Fatality_Ratio": 2.7586206896551726
  },
  {
    "FIPS": 26005,
    "County": "Allegan",
    "Province_State": "Michigan",
    "Country_Region": "US",
    "Last_Update": "2020-07-27 04:35:02",
    "Latitude": 42.59147037,
    "Longitude": -85.89102866,
    "Confirmed": 470,
    "Deaths": 7,
    "Recovered": 0,
    "Active": 463,
    "Combined_Key": "Allegan, Michigan, US",
    "Incidence_Rate": 398.0318594862848,
    "Case-Fatality_Ratio": 1.4893617021276595
  },
  {
    "FIPS": 24001,
    "County": "Allegany",
    "Province_State": "Maryland",
    "Country_Region": "US",
    "Last_Update": "2020-07-27 04:35:02",
    "Latitude": 39.62357628,
    "Longitude": -78.69280486,
    "Confirmed": 256,
    "Deaths": 18,
    "Recovered": 0,
    "Active": 238,
    "Combined_Key": "Allegany, Maryland, US",
    "Incidence_Rate": 363.5537377868665,
    "Case-Fatality_Ratio": 7.03125
  },
  {
    "FIPS": 36003,
    "County": "Allegany",
    "Province_State": "New York",
    "Country_Region": "US",
    "Last_Update": "2020-07-27 04:35:02",
    "Latitude": 42.25748406,
    "Longitude": -78.02750466,
    "Confirmed": 74,
    "Deaths": 1,
    "Recovered": 0,
    "Active": 73,
    "Combined_Key": "Allegany, New York, US",
    "Incidence_Rate": 160.55195157406,
    "Case-Fatality_Ratio": 1.3513513513513513
  },
  {
    "FIPS": 37005,
    "County": "Alleghany",
    "Province_State": "North Carolina",
    "Country_Region": "US",
    "Last_Update": "2020-07-27 04:35:02",
    "Latitude": 36.49360862,
    "Longitude": -81.12857041,
    "Confirmed": 62,
    "Deaths": 0,
    "Recovered": 0,
    "Active": 62,
    "Combined_Key": "Alleghany, North Carolina, US",
    "Incidence_Rate": 556.7028822842776,
    "Case-Fatality_Ratio": 0
  },
  {
    "FIPS": 51005,
    "County": "Alleghany",
    "Province_State": "Virginia",
    "Country_Region": "US",
    "Last_Update": "2020-07-27 04:35:02",
    "Latitude": 37.78636074,
    "Longitude": -80.00222498,
    "Confirmed": 57,
    "Deaths": 2,
    "Recovered": 0,
    "Active": 55,
    "Combined_Key": "Alleghany, Virginia, US",
    "Incidence_Rate": 383.58008075370117,
    "Case-Fatality_Ratio": 3.508771929824561
  },
  {
    "FIPS": 42003,
    "County": "Allegheny",
    "Province_State": "Pennsylvania",
    "Country_Region": "US",
    "Last_Update": "2020-07-27 04:35:02",
    "Latitude": 40.46809875,
    "Longitude": -79.98167747,
    "Confirmed": 7294,
    "Deaths": 218,
    "Recovered": 0,
    "Active": 7076,
    "Combined_Key": "Allegheny, Pennsylvania, US",
    "Incidence_Rate": 599.8133292764659,
    "Case-Fatality_Ratio": 2.9887578831916644
  },
  {
    "FIPS": 18003,
    "County": "Allen",
    "Province_State": "Indiana",
    "Country_Region": "US",
    "Last_Update": "2020-07-27 04:35:02",
    "Latitude": 41.09194313,
    "Longitude": -85.06800636,
    "Confirmed": 3345,
    "Deaths": 152,
    "Recovered": 0,
    "Active": 3193,
    "Combined_Key": "Allen, Indiana, US",
    "Incidence_Rate": 881.8900128922037,
    "Case-Fatality_Ratio": 4.5440956651718984
  },
  {
    "FIPS": 20001,
    "County": "Allen",
    "Province_State": "Kansas",
    "Country_Region": "US",
    "Last_Update": "2020-07-27 04:35:02",
    "Latitude": 37.88582951,
    "Longitude": -95.30030847,
    "Confirmed": 11,
    "Deaths": 0,
    "Recovered": 0,
    "Active": 11,
    "Combined_Key": "Allen, Kansas, US",
    "Incidence_Rate": 88.9320074379497,
    "Case-Fatality_Ratio": 0
  },
  {
    "FIPS": 21003,
    "County": "Allen",
    "Province_State": "Kentucky",
    "Country_Region": "US",
    "Last_Update": "2020-07-27 04:35:02",
    "Latitude": 36.75197631,
    "Longitude": -86.19457544,
    "Confirmed": 211,
    "Deaths": 8,
    "Recovered": 0,
    "Active": 203,
    "Combined_Key": "Allen, Kentucky, US",
    "Incidence_Rate": 989.9132066619752,
    "Case-Fatality_Ratio": 3.7914691943127963
  },
  {
    "FIPS": 22003,
    "County": "Allen",
    "Province_State": "Louisiana",
    "Country_Region": "US",
    "Last_Update": "2020-07-27 04:35:02",
    "Latitude": 30.65385745,
    "Longitude": -92.82442028,
    "Confirmed": 986,
    "Deaths": 16,
    "Recovered": 0,
    "Active": 970,
    "Combined_Key": "Allen, Louisiana, US",
    "Incidence_Rate": 3847.504585008,
    "Case-Fatality_Ratio": 1.6227180527383367
  },
  {
    "FIPS": 39003,
    "County": "Allen",
    "Province_State": "Ohio",
    "Country_Region": "US",
    "Last_Update": "2020-07-27 04:35:02",
    "Latitude": 40.77285242,
    "Longitude": -84.10802343,
    "Confirmed": 532,
    "Deaths": 41,
    "Recovered": 0,
    "Active": 491,
    "Combined_Key": "Allen, Ohio, US",
    "Incidence_Rate": 519.7799728385653,
    "Case-Fatality_Ratio": 7.706766917293233
  },
  {
    "FIPS": 45005,
    "County": "Allendale",
    "Province_State": "South Carolina",
    "Country_Region": "US",
    "Last_Update": "2020-07-27 04:35:02",
    "Latitude": 32.98837386,
    "Longitude": -81.35321066,
    "Confirmed": 146,
    "Deaths": 3,
    "Recovered": 0,
    "Active": 143,
    "Combined_Key": "Allendale, South Carolina, US",
    "Incidence_Rate": 1680.4788213627994,
    "Case-Fatality_Ratio": 2.0547945205479454
  },
  {
    "FIPS": 26007,
    "County": "Alpena",
    "Province_State": "Michigan",
    "Country_Region": "US",
    "Last_Update": "2020-07-27 04:35:02",
    "Latitude": 45.03477666,
    "Longitude": -83.62212411,
    "Confirmed": 125,
    "Deaths": 13,
    "Recovered": 0,
    "Active": 112,
    "Combined_Key": "Alpena, Michigan, US",
    "Incidence_Rate": 440.06336912515405,
    "Case-Fatality_Ratio": 10.4
  },
  {
    "FIPS": 6003,
    "County": "Alpine",
    "Province_State": "California",
    "Country_Region": "US",
    "Last_Update": "2020-07-27 04:35:02",
    "Latitude": 38.59678594,
    "Longitude": -119.8223594,
    "Confirmed": 2,
    "Deaths": 0,
    "Recovered": 0,
    "Active": 2,
    "Combined_Key": "Alpine, California, US",
    "Incidence_Rate": 177.14791851195747,
    "Case-Fatality_Ratio": 0
  },
  {
    "FIPS": 6005,
    "County": "Amador",
    "Province_State": "California",
    "Country_Region": "US",
    "Last_Update": "2020-07-27 04:35:02",
    "Latitude": 38.44583082,
    "Longitude": -120.65696,
    "Confirmed": 76,
    "Deaths": 0,
    "Recovered": 0,
    "Active": 76,
    "Combined_Key": "Amador, California, US",
    "Incidence_Rate": 191.1853491648219,
    "Case-Fatality_Ratio": 0
  },
  {
    "FIPS": 51007,
    "County": "Amelia",
    "Province_State": "Virginia",
    "Country_Region": "US",
    "Last_Update": "2020-07-27 04:35:02",
    "Latitude": 37.34081025,
    "Longitude": -77.98584649,
    "Confirmed": 66,
    "Deaths": 1,
    "Recovered": 0,
    "Active": 65,
    "Combined_Key": "Amelia, Virginia, US",
    "Incidence_Rate": 502.092050209205,
    "Case-Fatality_Ratio": 1.5151515151515151
  },
  {
    "FIPS": 51009,
    "County": "Amherst",
    "Province_State": "Virginia",
    "Country_Region": "US",
    "Last_Update": "2020-07-27 04:35:02",
    "Latitude": 37.60308293,
    "Longitude": -79.14548696,
    "Confirmed": 81,
    "Deaths": 0,
    "Recovered": 0,
    "Active": 81,
    "Combined_Key": "Amherst, Virginia, US",
    "Incidence_Rate": 256.28856193640246,
    "Case-Fatality_Ratio": 0
  },
  {
    "FIPS": 28005,
    "County": "Amite",
    "Province_State": "Mississippi",
    "Country_Region": "US",
    "Last_Update": "2020-07-27 04:35:02",
    "Latitude": 31.17467303,
    "Longitude": -90.80501621,
    "Confirmed": 179,
    "Deaths": 4,
    "Recovered": 0,
    "Active": 175,
    "Combined_Key": "Amite, Mississippi, US",
    "Incidence_Rate": 1455.6395868911115,
    "Case-Fatality_Ratio": 2.2346368715083798
  },
  {
    "FIPS": 72011,
    "County": "Anasco",
    "Province_State": "Puerto Rico",
    "Country_Region": "US",
    "Last_Update": "2020-07-27 04:35:02",
    "Latitude": 18.287985,
    "Longitude": -67.120611,
    "Confirmed": 101,
    "Deaths": 0,
    "Recovered": 0,
    "Active": 101,
    "Combined_Key": "Anasco, Puerto Rico, US",
    "Incidence_Rate": 345.1693380267251,
    "Case-Fatality_Ratio": 0
  },
  {
    "FIPS": 2020,
    "County": "Anchorage",
    "Province_State": "Alaska",
    "Country_Region": "US",
    "Last_Update": "2020-07-27 04:35:02",
    "Latitude": 61.14998174,
    "Longitude": -149.14269860000005,
    "Confirmed": 1338,
    "Deaths": 9,
    "Recovered": 0,
    "Active": 1329,
    "Combined_Key": "Anchorage, Alaska, US",
    "Incidence_Rate": 464.58333333333326,
    "Case-Fatality_Ratio": 0.672645739910314
  },
  {
    "FIPS": 20003,
    "County": "Anderson",
    "Province_State": "Kansas",
    "Country_Region": "US",
    "Last_Update": "2020-07-27 04:35:02",
    "Latitude": 38.21413251,
    "Longitude": -95.29272815,
    "Confirmed": 25,
    "Deaths": 0,
    "Recovered": 0,
    "Active": 25,
    "Combined_Key": "Anderson, Kansas, US",
    "Incidence_Rate": 318.14711122423006,
    "Case-Fatality_Ratio": 0
  },
  {
    "FIPS": 21005,
    "County": "Anderson",
    "Province_State": "Kentucky",
    "Country_Region": "US",
    "Last_Update": "2020-07-27 04:35:02",
    "Latitude": 38.00671029,
    "Longitude": -84.99171713,
    "Confirmed": 49,
    "Deaths": 1,
    "Recovered": 0,
    "Active": 48,
    "Combined_Key": "Anderson, Kentucky, US",
    "Incidence_Rate": 215.4130214973403,
    "Case-Fatality_Ratio": 2.0408163265306123
  },
  {
    "FIPS": 45007,
    "County": "Anderson",
    "Province_State": "South Carolina",
    "Country_Region": "US",
    "Last_Update": "2020-07-27 04:35:02",
    "Latitude": 34.51828081,
    "Longitude": -82.63959517,
    "Confirmed": 1678,
    "Deaths": 36,
    "Recovered": 0,
    "Active": 1642,
    "Combined_Key": "Anderson, South Carolina, US",
    "Incidence_Rate": 828.4047038379131,
    "Case-Fatality_Ratio": 2.1454112038140645
  },
  {
    "FIPS": 47001,
    "County": "Anderson",
    "Province_State": "Tennessee",
    "Country_Region": "US",
    "Last_Update": "2020-07-27 04:35:02",
    "Latitude": 36.12684348,
    "Longitude": -84.19965764,
    "Confirmed": 430,
    "Deaths": 4,
    "Recovered": 0,
    "Active": 426,
    "Combined_Key": "Anderson, Tennessee, US",
    "Incidence_Rate": 558.6011587726364,
    "Case-Fatality_Ratio": 0.9302325581395349
  },
  {
    "FIPS": 48001,
    "County": "Anderson",
    "Province_State": "Texas",
    "Country_Region": "US",
    "Last_Update": "2020-07-27 04:35:02",
    "Latitude": 31.81534745,
    "Longitude": -95.65354823,
    "Confirmed": 2140,
    "Deaths": 4,
    "Recovered": 0,
    "Active": 2136,
    "Combined_Key": "Anderson, Texas, US",
    "Incidence_Rate": 3706.590456395601,
    "Case-Fatality_Ratio": 0.18691588785046728
  },
  {
    "FIPS": 29003,
    "County": "Andrew",
    "Province_State": "Missouri",
    "Country_Region": "US",
    "Last_Update": "2020-07-27 04:35:02",
    "Latitude": 39.98492163,
    "Longitude": -94.80163024,
    "Confirmed": 74,
    "Deaths": 1,
    "Recovered": 0,
    "Active": 73,
    "Combined_Key": "Andrew, Missouri, US",
    "Incidence_Rate": 417.79584462511286,
    "Case-Fatality_Ratio": 1.3513513513513513
  },
  {
    "FIPS": 48003,
    "County": "Andrews",
    "Province_State": "Texas",
    "Country_Region": "US",
    "Last_Update": "2020-07-27 04:35:02",
    "Latitude": 32.30468633,
    "Longitude": -102.6376548,
    "Confirmed": 225,
    "Deaths": 4,
    "Recovered": 0,
    "Active": 221,
    "Combined_Key": "Andrews, Texas, US",
    "Incidence_Rate": 1202.8869286287088,
    "Case-Fatality_Ratio": 1.7777777777777777
  },
  {
    "FIPS": 23001,
    "County": "Androscoggin",
    "Province_State": "Maine",
    "Country_Region": "US",
    "Last_Update": "2020-07-27 04:35:02",
    "Latitude": 44.1664747,
    "Longitude": -70.20380627,
    "Confirmed": 534,
    "Deaths": 5,
    "Recovered": 0,
    "Active": 529,
    "Combined_Key": "Androscoggin, Maine, US",
    "Incidence_Rate": 493.1795302788218,
    "Case-Fatality_Ratio": 0.9363295880149812
  },
  {
    "FIPS": 48005,
    "County": "Angelina",
    "Province_State": "Texas",
    "Country_Region": "US",
    "Last_Update": "2020-07-27 04:35:02",
    "Latitude": 31.25457347,
    "Longitude": -94.60901487,
    "Confirmed": 1405,
    "Deaths": 14,
    "Recovered": 0,
    "Active": 1391,
    "Combined_Key": "Angelina, Texas, US",
    "Incidence_Rate": 1620.2502450556424,
    "Case-Fatality_Ratio": 0.99644128113879
  },
  {
    "FIPS": 24003,
    "County": "Anne Arundel",
    "Province_State": "Maryland",
    "Country_Region": "US",
    "Last_Update": "2020-07-27 04:35:02",
    "Latitude": 39.00670238,
    "Longitude": -76.60329337,
    "Confirmed": 6380,
    "Deaths": 214,
    "Recovered": 0,
    "Active": 6166,
    "Combined_Key": "Anne Arundel, Maryland, US",
    "Incidence_Rate": 1101.4546798012548,
    "Case-Fatality_Ratio": 3.35423197492163
  },
  {
    "FIPS": 27003,
    "County": "Anoka",
    "Province_State": "Minnesota",
    "Country_Region": "US",
    "Last_Update": "2020-07-27 04:35:02",
    "Latitude": 45.27476015,
    "Longitude": -93.24604565,
    "Confirmed": 3010,
    "Deaths": 111,
    "Recovered": 0,
    "Active": 2899,
    "Combined_Key": "Anoka, Minnesota, US",
    "Incidence_Rate": 843.323872789777,
    "Case-Fatality_Ratio": 3.6877076411960132
  },
  {
    "FIPS": 37007,
    "County": "Anson",
    "Province_State": "North Carolina",
    "Country_Region": "US",
    "Last_Update": "2020-07-27 04:35:02",
    "Latitude": 34.97403241,
    "Longitude": -80.09953279,
    "Confirmed": 280,
    "Deaths": 2,
    "Recovered": 0,
    "Active": 278,
    "Combined_Key": "Anson, North Carolina, US",
    "Incidence_Rate": 1145.3816575308845,
    "Case-Fatality_Ratio": 0.7142857142857143
  },
  {
    "FIPS": 31003,
    "County": "Antelope",
    "Province_State": "Nebraska",
    "Country_Region": "US",
    "Last_Update": "2020-07-27 04:35:02",
    "Latitude": 42.17695516,
    "Longitude": -98.0666283,
    "Confirmed": 17,
    "Deaths": 1,
    "Recovered": 0,
    "Active": 16,
    "Combined_Key": "Antelope, Nebraska, US",
    "Incidence_Rate": 269.92696093998103,
    "Case-Fatality_Ratio": 5.882352941176471
  },
  {
    "FIPS": 26009,
    "County": "Antrim",
    "Province_State": "Michigan",
    "Country_Region": "US",
    "Last_Update": "2020-07-27 04:35:02",
    "Latitude": 44.99690221,
    "Longitude": -85.15503082,
    "Confirmed": 34,
    "Deaths": 0,
    "Recovered": 0,
    "Active": 34,
    "Combined_Key": "Antrim, Michigan, US",
    "Incidence_Rate": 145.7725947521866,
    "Case-Fatality_Ratio": 0
  },
  {
    "FIPS": 4001,
    "County": "Apache",
    "Province_State": "Arizona",
    "Country_Region": "US",
    "Last_Update": "2020-07-27 04:35:02",
    "Latitude": 35.39465006,
    "Longitude": -109.4892383,
    "Confirmed": 2920,
    "Deaths": 128,
    "Recovered": 0,
    "Active": 2792,
    "Combined_Key": "Apache, Arizona, US",
    "Incidence_Rate": 4061.9305298593627,
    "Case-Fatality_Ratio": 4.383561643835616
  },
  {
    "FIPS": 19007,
    "County": "Appanoose",
    "Province_State": "Iowa",
    "Country_Region": "US",
    "Last_Update": "2020-07-27 04:35:02",
    "Latitude": 40.74324454,
    "Longitude": -92.86865906,
    "Confirmed": 36,
    "Deaths": 3,
    "Recovered": 0,
    "Active": 33,
    "Combined_Key": "Appanoose, Iowa, US",
    "Incidence_Rate": 289.71511347175283,
    "Case-Fatality_Ratio": 8.333333333333334
  },
  {
    "FIPS": 13001,
    "County": "Appling",
    "Province_State": "Georgia",
    "Country_Region": "US",
    "Last_Update": "2020-07-27 04:35:02",
    "Latitude": 31.74847232,
    "Longitude": -82.28909114,
    "Confirmed": 491,
    "Deaths": 16,
    "Recovered": 0,
    "Active": 475,
    "Combined_Key": "Appling, Georgia, US",
    "Incidence_Rate": 2670.510170782117,
    "Case-Fatality_Ratio": 3.258655804480652
  },
  {
    "FIPS": 51011,
    "County": "Appomattox",
    "Province_State": "Virginia",
    "Country_Region": "US",
    "Last_Update": "2020-07-27 04:35:02",
    "Latitude": 37.37569884,
    "Longitude": -78.81340003,
    "Confirmed": 59,
    "Deaths": 0,
    "Recovered": 0,
    "Active": 59,
    "Combined_Key": "Appomattox, Virginia, US",
    "Incidence_Rate": 370.8126453397022,
    "Case-Fatality_Ratio": 0
  },
  {
    "FIPS": 48007,
    "County": "Aransas",
    "Province_State": "Texas",
    "Country_Region": "US",
    "Last_Update": "2020-07-27 04:35:02",
    "Latitude": 28.10556197,
    "Longitude": -96.9995047,
    "Confirmed": 126,
    "Deaths": 0,
    "Recovered": 0,
    "Active": 126,
    "Combined_Key": "Aransas, Texas, US",
    "Incidence_Rate": 535.9421522756273,
    "Case-Fatality_Ratio": 0
  },
  {
    "FIPS": 8005,
    "County": "Arapahoe",
    "Province_State": "Colorado",
    "Country_Region": "US",
    "Last_Update": "2020-07-27 04:35:02",
    "Latitude": 39.64977461,
    "Longitude": -104.3353617,
    "Confirmed": 6541,
    "Deaths": 360,
    "Recovered": 0,
    "Active": 6181,
    "Combined_Key": "Arapahoe, Colorado, US",
    "Incidence_Rate": 996.2076790691301,
    "Case-Fatality_Ratio": 5.503745604647607
  },
  {
    "FIPS": 48009,
    "County": "Archer",
    "Province_State": "Texas",
    "Country_Region": "US",
    "Last_Update": "2020-07-27 04:35:02",
    "Latitude": 33.61569967,
    "Longitude": -98.68754589,
    "Confirmed": 15,
    "Deaths": 0,
    "Recovered": 0,
    "Active": 15,
    "Combined_Key": "Archer, Texas, US",
    "Incidence_Rate": 175.377060680463,
    "Case-Fatality_Ratio": 0
  },
  {
    "FIPS": 8007,
    "County": "Archuleta",
    "Province_State": "Colorado",
    "Country_Region": "US",
    "Last_Update": "2020-07-27 04:35:02",
    "Latitude": 37.19474156,
    "Longitude": -107.04768670000001,
    "Confirmed": 27,
    "Deaths": 0,
    "Recovered": 0,
    "Active": 27,
    "Combined_Key": "Archuleta, Colorado, US",
    "Incidence_Rate": 192.45847886520772,
    "Case-Fatality_Ratio": 0
  },
  {
    "FIPS": 72013,
    "County": "Arecibo",
    "Province_State": "Puerto Rico",
    "Country_Region": "US",
    "Last_Update": "2020-07-27 04:35:02",
    "Latitude": 18.406631,
    "Longitude": -66.675077,
    "Confirmed": 227,
    "Deaths": 0,
    "Recovered": 0,
    "Active": 227,
    "Combined_Key": "Arecibo, Puerto Rico, US",
    "Incidence_Rate": 235.37951057652427,
    "Case-Fatality_Ratio": 0
  },
  {
    "FIPS": 26011,
    "County": "Arenac",
    "Province_State": "Michigan",
    "Country_Region": "US",
    "Last_Update": "2020-07-27 04:35:02",
    "Latitude": 44.0636262,
    "Longitude": -83.89277559,
    "Confirmed": 41,
    "Deaths": 2,
    "Recovered": 0,
    "Active": 39,
    "Combined_Key": "Arenac, Michigan, US",
    "Incidence_Rate": 275.4820936639118,
    "Case-Fatality_Ratio": 4.878048780487805
  },
  {
    "FIPS": 5001,
    "County": "Arkansas",
    "Province_State": "Arkansas",
    "Country_Region": "US",
    "Last_Update": "2020-07-27 04:35:02",
    "Latitude": 34.29145151,
    "Longitude": -91.37277296,
    "Confirmed": 168,
    "Deaths": 1,
    "Recovered": 0,
    "Active": 167,
    "Combined_Key": "Arkansas, Arkansas, US",
    "Incidence_Rate": 960.7686148919136,
    "Case-Fatality_Ratio": 0.5952380952380952
  },
  {
    "FIPS": 51013,
    "County": "Arlington",
    "Province_State": "Virginia",
    "Country_Region": "US",
    "Last_Update": "2020-07-27 04:35:02",
    "Latitude": 38.8767675,
    "Longitude": -77.10139853,
    "Confirmed": 2807,
    "Deaths": 135,
    "Recovered": 0,
    "Active": 2672,
    "Combined_Key": "Arlington, Virginia, US",
    "Incidence_Rate": 1185.178304523691,
    "Case-Fatality_Ratio": 4.809405058781618
  },
  {
    "FIPS": 42005,
    "County": "Armstrong",
    "Province_State": "Pennsylvania",
    "Country_Region": "US",
    "Last_Update": "2020-07-27 04:35:02",
    "Latitude": 40.81665618,
    "Longitude": -79.46290811,
    "Confirmed": 163,
    "Deaths": 6,
    "Recovered": 0,
    "Active": 157,
    "Combined_Key": "Armstrong, Pennsylvania, US",
    "Incidence_Rate": 251.79578280682784,
    "Case-Fatality_Ratio": 3.6809815950920246
  },
  {
    "FIPS": 48011,
    "County": "Armstrong",
    "Province_State": "Texas",
    "Country_Region": "US",
    "Last_Update": "2020-07-27 04:35:02",
    "Latitude": 34.96507426,
    "Longitude": -101.3574874,
    "Confirmed": 4,
    "Deaths": 0,
    "Recovered": 0,
    "Active": 4,
    "Combined_Key": "Armstrong, Texas, US",
    "Incidence_Rate": 211.97668256491787,
    "Case-Fatality_Ratio": 0
  },
  {
    "FIPS": 23003,
    "County": "Aroostook",
    "Province_State": "Maine",
    "Country_Region": "US",
    "Last_Update": "2020-07-27 04:35:02",
    "Latitude": 46.65926321,
    "Longitude": -68.59841248,
    "Confirmed": 31,
    "Deaths": 1,
    "Recovered": 0,
    "Active": 30,
    "Combined_Key": "Aroostook, Maine, US",
    "Incidence_Rate": 46.230706136753405,
    "Case-Fatality_Ratio": 3.225806451612903
  },
  {
    "FIPS": 72015,
    "County": "Arroyo",
    "Province_State": "Puerto Rico",
    "Country_Region": "US",
    "Last_Update": "2020-07-27 04:35:02",
    "Latitude": 17.998457000000005,
    "Longitude": -66.056546,
    "Confirmed": 70,
    "Deaths": 0,
    "Recovered": 0,
    "Active": 70,
    "Combined_Key": "Arroyo, Puerto Rico, US",
    "Incidence_Rate": 357.5989782886335,
    "Case-Fatality_Ratio": 0
  },
  {
    "FIPS": 31005,
    "County": "Arthur",
    "Province_State": "Nebraska",
    "Country_Region": "US",
    "Last_Update": "2020-07-27 04:35:02",
    "Latitude": 41.56896142,
    "Longitude": -101.6959559,
    "Confirmed": 0,
    "Deaths": 0,
    "Recovered": 0,
    "Active": 0,
    "Combined_Key": "Arthur, Nebraska, US",
    "Incidence_Rate": 0,
    "Case-Fatality_Ratio": null
  },
  {
    "FIPS": 22005,
    "County": "Ascension",
    "Province_State": "Louisiana",
    "Country_Region": "US",
    "Last_Update": "2020-07-27 04:35:02",
    "Latitude": 30.20406249,
    "Longitude": -90.91328409999998,
    "Confirmed": 2249,
    "Deaths": 65,
    "Recovered": 0,
    "Active": 2184,
    "Combined_Key": "Ascension, Louisiana, US",
    "Incidence_Rate": 1776.4051688730215,
    "Case-Fatality_Ratio": 2.8901734104046244
  },
  {
    "FIPS": 37009,
    "County": "Ashe",
    "Province_State": "North Carolina",
    "Country_Region": "US",
    "Last_Update": "2020-07-27 04:35:02",
    "Latitude": 36.43296207,
    "Longitude": -81.49862729,
    "Confirmed": 86,
    "Deaths": 1,
    "Recovered": 0,
    "Active": 85,
    "Combined_Key": "Ashe, North Carolina, US",
    "Incidence_Rate": 316.14160202918794,
    "Case-Fatality_Ratio": 1.1627906976744187
  },
  {
    "FIPS": 39005,
    "County": "Ashland",
    "Province_State": "Ohio",
    "Country_Region": "US",
    "Last_Update": "2020-07-27 04:35:02",
    "Latitude": 40.84772277,
    "Longitude": -82.27280781,
    "Confirmed": 116,
    "Deaths": 4,
    "Recovered": 0,
    "Active": 112,
    "Combined_Key": "Ashland, Ohio, US",
    "Incidence_Rate": 216.88729339615585,
    "Case-Fatality_Ratio": 3.4482758620689653
  },
  {
    "FIPS": 55003,
    "County": "Ashland",
    "Province_State": "Wisconsin",
    "Country_Region": "US",
    "Last_Update": "2020-07-27 04:35:02",
    "Latitude": 46.31956891,
    "Longitude": -90.67837132,
    "Confirmed": 15,
    "Deaths": 0,
    "Recovered": 0,
    "Active": 15,
    "Combined_Key": "Ashland, Wisconsin, US",
    "Incidence_Rate": 96.38863899241743,
    "Case-Fatality_Ratio": 0
  },
  {
    "FIPS": 5003,
    "County": "Ashley",
    "Province_State": "Arkansas",
    "Country_Region": "US",
    "Last_Update": "2020-07-27 04:35:02",
    "Latitude": 33.19153461,
    "Longitude": -91.76984709999999,
    "Confirmed": 180,
    "Deaths": 4,
    "Recovered": 0,
    "Active": 176,
    "Combined_Key": "Ashley, Arkansas, US",
    "Incidence_Rate": 915.7043292465787,
    "Case-Fatality_Ratio": 2.2222222222222223
  },
  {
    "FIPS": 39007,
    "County": "Ashtabula",
    "Province_State": "Ohio",
    "Country_Region": "US",
    "Last_Update": "2020-07-27 04:35:02",
    "Latitude": 41.70860332,
    "Longitude": -80.74830218,
    "Confirmed": 510,
    "Deaths": 44,
    "Recovered": 0,
    "Active": 466,
    "Combined_Key": "Ashtabula, Ohio, US",
    "Incidence_Rate": 524.4701309118582,
    "Case-Fatality_Ratio": 8.627450980392156
  },
  {
    "FIPS": 53003,
    "County": "Asotin",
    "Province_State": "Washington",
    "Country_Region": "US",
    "Last_Update": "2020-07-27 04:35:02",
    "Latitude": 46.18894415,
    "Longitude": -117.2022851,
    "Confirmed": 22,
    "Deaths": 2,
    "Recovered": 0,
    "Active": 20,
    "Combined_Key": "Asotin, Washington, US",
    "Incidence_Rate": 97.42272606500751,
    "Case-Fatality_Ratio": 9.090909090909092
  },
  {
    "FIPS": 22007,
    "County": "Assumption",
    "Province_State": "Louisiana",
    "Country_Region": "US",
    "Last_Update": "2020-07-27 04:35:02",
    "Latitude": 29.89946234,
    "Longitude": -91.06461642,
    "Confirmed": 493,
    "Deaths": 18,
    "Recovered": 0,
    "Active": 475,
    "Combined_Key": "Assumption, Louisiana, US",
    "Incidence_Rate": 2252.067059522178,
    "Case-Fatality_Ratio": 3.6511156186612577
  },
  {
    "FIPS": 48013,
    "County": "Atascosa",
    "Province_State": "Texas",
    "Country_Region": "US",
    "Last_Update": "2020-07-27 04:35:02",
    "Latitude": 28.89333001,
    "Longitude": -98.52730485,
    "Confirmed": 393,
    "Deaths": 3,
    "Recovered": 0,
    "Active": 390,
    "Combined_Key": "Atascosa, Texas, US",
    "Incidence_Rate": 768.2833851387015,
    "Case-Fatality_Ratio": 0.7633587786259542
  },
  {
    "FIPS": 20005,
    "County": "Atchison",
    "Province_State": "Kansas",
    "Country_Region": "US",
    "Last_Update": "2020-07-27 04:35:02",
    "Latitude": 39.53185661,
    "Longitude": -95.30870026,
    "Confirmed": 56,
    "Deaths": 0,
    "Recovered": 0,
    "Active": 56,
    "Combined_Key": "Atchison, Kansas, US",
    "Incidence_Rate": 348.4103776519629,
    "Case-Fatality_Ratio": 0
  },
  {
    "FIPS": 29005,
    "County": "Atchison",
    "Province_State": "Missouri",
    "Country_Region": "US",
    "Last_Update": "2020-07-27 04:35:02",
    "Latitude": 40.43238737,
    "Longitude": -95.42970639,
    "Confirmed": 13,
    "Deaths": 0,
    "Recovered": 0,
    "Active": 13,
    "Combined_Key": "Atchison, Missouri, US",
    "Incidence_Rate": 252.77075636787868,
    "Case-Fatality_Ratio": 0
  },
  {
    "FIPS": 39009,
    "County": "Athens",
    "Province_State": "Ohio",
    "Country_Region": "US",
    "Last_Update": "2020-07-27 04:35:02",
    "Latitude": 39.33425634,
    "Longitude": -82.04278644,
    "Confirmed": 318,
    "Deaths": 1,
    "Recovered": 0,
    "Active": 317,
    "Combined_Key": "Athens, Ohio, US",
    "Incidence_Rate": 486.7818819171246,
    "Case-Fatality_Ratio": 0.31446540880503143
  },
  {
    "FIPS": 13003,
    "County": "Atkinson",
    "Province_State": "Georgia",
    "Country_Region": "US",
    "Last_Update": "2020-07-27 04:35:02",
    "Latitude": 31.29633502,
    "Longitude": -82.87545866,
    "Confirmed": 267,
    "Deaths": 2,
    "Recovered": 0,
    "Active": 265,
    "Combined_Key": "Atkinson, Georgia, US",
    "Incidence_Rate": 3270.055113288426,
    "Case-Fatality_Ratio": 0.7490636704119851
  },
  {
    "FIPS": 34001,
    "County": "Atlantic",
    "Province_State": "New Jersey",
    "Country_Region": "US",
    "Last_Update": "2020-07-27 04:35:02",
    "Latitude": 39.47538693,
    "Longitude": -74.65848483,
    "Confirmed": 3245,
    "Deaths": 240,
    "Recovered": 0,
    "Active": 3005,
    "Combined_Key": "Atlantic, New Jersey, US",
    "Incidence_Rate": 1230.7050479766376,
    "Case-Fatality_Ratio": 7.395993836671803
  },
  {
    "FIPS": 40005,
    "County": "Atoka",
    "Province_State": "Oklahoma",
    "Country_Region": "US",
    "Last_Update": "2020-07-27 04:35:02",
    "Latitude": 34.37366573,
    "Longitude": -96.03802487,
    "Confirmed": 57,
    "Deaths": 0,
    "Recovered": 0,
    "Active": 57,
    "Combined_Key": "Atoka, Oklahoma, US",
    "Incidence_Rate": 414.3044047099869,
    "Case-Fatality_Ratio": 0
  },
  {
    "FIPS": 28007,
    "County": "Attala",
    "Province_State": "Mississippi",
    "Country_Region": "US",
    "Last_Update": "2020-07-27 04:35:02",
    "Latitude": 33.08658803,
    "Longitude": -89.57838564,
    "Confirmed": 457,
    "Deaths": 23,
    "Recovered": 0,
    "Active": 434,
    "Combined_Key": "Attala, Mississippi, US",
    "Incidence_Rate": 2514.581269946077,
    "Case-Fatality_Ratio": 5.032822757111598
  },
  {
    "FIPS": 29007,
    "County": "Audrain",
    "Province_State": "Missouri",
    "Country_Region": "US",
    "Last_Update": "2020-07-27 04:35:02",
    "Latitude": 39.215877,
    "Longitude": -91.84242683,
    "Confirmed": 182,
    "Deaths": 1,
    "Recovered": 0,
    "Active": 181,
    "Combined_Key": "Audrain, Missouri, US",
    "Incidence_Rate": 716.8741137545297,
    "Case-Fatality_Ratio": 0.5494505494505495
  },
  {
    "FIPS": 19009,
    "County": "Audubon",
    "Province_State": "Iowa",
    "Country_Region": "US",
    "Last_Update": "2020-07-27 04:35:02",
    "Latitude": 41.6844628,
    "Longitude": -94.90581859,
    "Confirmed": 25,
    "Deaths": 1,
    "Recovered": 0,
    "Active": 24,
    "Combined_Key": "Audubon, Iowa, US",
    "Incidence_Rate": 454.8762736535662,
    "Case-Fatality_Ratio": 4
  },
  {
    "FIPS": 39011,
    "County": "Auglaize",
    "Province_State": "Ohio",
    "Country_Region": "US",
    "Last_Update": "2020-07-27 04:35:02",
    "Latitude": 40.55998859,
    "Longitude": -84.22421429999999,
    "Confirmed": 173,
    "Deaths": 5,
    "Recovered": 0,
    "Active": 168,
    "Combined_Key": "Auglaize, Ohio, US",
    "Incidence_Rate": 378.9206237953391,
    "Case-Fatality_Ratio": 2.8901734104046244
  },
  {
    "FIPS": 51015,
    "County": "Augusta",
    "Province_State": "Virginia",
    "Country_Region": "US",
    "Last_Update": "2020-07-27 04:35:02",
    "Latitude": 38.16404586,
    "Longitude": -79.12461614,
    "Confirmed": 239,
    "Deaths": 3,
    "Recovered": 0,
    "Active": 236,
    "Combined_Key": "Augusta, Virginia, US",
    "Incidence_Rate": 316.3132957463141,
    "Case-Fatality_Ratio": 1.2552301255230125
  },
  {
    "FIPS": 46003,
    "County": "Aurora",
    "Province_State": "South Dakota",
    "Country_Region": "US",
    "Last_Update": "2020-07-27 04:35:02",
    "Latitude": 43.71757685,
    "Longitude": -98.56050467,
    "Confirmed": 37,
    "Deaths": 0,
    "Recovered": 0,
    "Active": 37,
    "Combined_Key": "Aurora, South Dakota, US",
    "Incidence_Rate": 1344.9654671028716,
    "Case-Fatality_Ratio": 0
  },
  {
    "FIPS": 48015,
    "County": "Austin",
    "Province_State": "Texas",
    "Country_Region": "US",
    "Last_Update": "2020-07-27 04:35:02",
    "Latitude": 29.88548725,
    "Longitude": -96.27736949,
    "Confirmed": 182,
    "Deaths": 4,
    "Recovered": 0,
    "Active": 178,
    "Combined_Key": "Austin, Texas, US",
    "Incidence_Rate": 606.0202450719232,
    "Case-Fatality_Ratio": 2.197802197802198
  },
  {
    "FIPS": 1001,
    "County": "Autauga",
    "Province_State": "Alabama",
    "Country_Region": "US",
    "Last_Update": "2020-07-27 04:35:02",
    "Latitude": 32.53952745,
    "Longitude": -86.64408227,
    "Confirmed": 909,
    "Deaths": 20,
    "Recovered": 0,
    "Active": 889,
    "Combined_Key": "Autauga, Alabama, US",
    "Incidence_Rate": 1627.02035117865,
    "Case-Fatality_Ratio": 2.2002200220022003
  },
  {
    "FIPS": 37011,
    "County": "Avery",
    "Province_State": "North Carolina",
    "Country_Region": "US",
    "Last_Update": "2020-07-27 04:35:02",
    "Latitude": 36.07569796,
    "Longitude": -81.92308483,
    "Confirmed": 66,
    "Deaths": 0,
    "Recovered": 0,
    "Active": 66,
    "Combined_Key": "Avery, North Carolina, US",
    "Incidence_Rate": 375.9184370906192,
    "Case-Fatality_Ratio": 0
  },
  {
    "FIPS": 22009,
    "County": "Avoyelles",
    "Province_State": "Louisiana",
    "Country_Region": "US",
    "Last_Update": "2020-07-27 04:35:02",
    "Latitude": 31.07796211,
    "Longitude": -92.00079449,
    "Confirmed": 827,
    "Deaths": 24,
    "Recovered": 0,
    "Active": 803,
    "Combined_Key": "Avoyelles, Louisiana, US",
    "Incidence_Rate": 2060.0836986847353,
    "Case-Fatality_Ratio": 2.902055622732769
  },
  {
    "FIPS": 8009,
    "County": "Baca",
    "Province_State": "Colorado",
    "Country_Region": "US",
    "Last_Update": "2020-07-27 04:35:02",
    "Latitude": 37.31940883,
    "Longitude": -102.5603223,
    "Confirmed": 14,
    "Deaths": 0,
    "Recovered": 0,
    "Active": 14,
    "Combined_Key": "Baca, Colorado, US",
    "Incidence_Rate": 390.9522479754258,
    "Case-Fatality_Ratio": 0
  },
  {
    "FIPS": 13005,
    "County": "Bacon",
    "Province_State": "Georgia",
    "Country_Region": "US",
    "Last_Update": "2020-07-27 04:35:02",
    "Latitude": 31.55456473,
    "Longitude": -82.45936528,
    "Confirmed": 382,
    "Deaths": 5,
    "Recovered": 0,
    "Active": 377,
    "Combined_Key": "Bacon, Georgia, US",
    "Incidence_Rate": 3421.7126477964894,
    "Case-Fatality_Ratio": 1.3089005235602094
  },
  {
    "FIPS": 48017,
    "County": "Bailey",
    "Province_State": "Texas",
    "Country_Region": "US",
    "Last_Update": "2020-07-27 04:35:02",
    "Latitude": 34.06854817,
    "Longitude": -102.8299707,
    "Confirmed": 132,
    "Deaths": 3,
    "Recovered": 0,
    "Active": 129,
    "Combined_Key": "Bailey, Texas, US",
    "Incidence_Rate": 1885.7142857142856,
    "Case-Fatality_Ratio": 2.272727272727273
  },
  {
    "FIPS": 12003,
    "County": "Baker",
    "Province_State": "Florida",
    "Country_Region": "US",
    "Last_Update": "2020-07-27 04:35:02",
    "Latitude": 30.33060121,
    "Longitude": -82.28467476,
    "Confirmed": 300,
    "Deaths": 4,
    "Recovered": 0,
    "Active": 296,
    "Combined_Key": "Baker, Florida, US",
    "Incidence_Rate": 1027.0455323519343,
    "Case-Fatality_Ratio": 1.3333333333333333
  },
  {
    "FIPS": 13007,
    "County": "Baker",
    "Province_State": "Georgia",
    "Country_Region": "US",
    "Last_Update": "2020-07-27 04:35:02",
    "Latitude": 31.32669878,
    "Longitude": -84.44218806,
    "Confirmed": 52,
    "Deaths": 3,
    "Recovered": 0,
    "Active": 49,
    "Combined_Key": "Baker, Georgia, US",
    "Incidence_Rate": 1711.6524028966423,
    "Case-Fatality_Ratio": 5.769230769230769
  },
  {
    "FIPS": 41001,
    "County": "Baker",
    "Province_State": "Oregon",
    "Country_Region": "US",
    "Last_Update": "2020-07-27 04:35:02",
    "Latitude": 44.70915557,
    "Longitude": -117.6749883,
    "Confirmed": 22,
    "Deaths": 0,
    "Recovered": 0,
    "Active": 22,
    "Combined_Key": "Baker, Oregon, US",
    "Incidence_Rate": 136.44257008186554,
    "Case-Fatality_Ratio": 0
  },
  {
    "FIPS": 1003,
    "County": "Baldwin",
    "Province_State": "Alabama",
    "Country_Region": "US",
    "Last_Update": "2020-07-27 04:35:02",
    "Latitude": 30.72774991,
    "Longitude": -87.72207058,
    "Confirmed": 2665,
    "Deaths": 17,
    "Recovered": 0,
    "Active": 2648,
    "Combined_Key": "Baldwin, Alabama, US",
    "Incidence_Rate": 1193.814562297858,
    "Case-Fatality_Ratio": 0.6378986866791745
  },
  {
    "FIPS": 13009,
    "County": "Baldwin",
    "Province_State": "Georgia",
    "Country_Region": "US",
    "Last_Update": "2020-07-27 04:35:02",
    "Latitude": 33.06882326,
    "Longitude": -83.24701748,
    "Confirmed": 840,
    "Deaths": 37,
    "Recovered": 0,
    "Active": 803,
    "Combined_Key": "Baldwin, Georgia, US",
    "Incidence_Rate": 1871.240810871018,
    "Case-Fatality_Ratio": 4.404761904761905
  },
  {
    "FIPS": 21007,
    "County": "Ballard",
    "Province_State": "Kentucky",
    "Country_Region": "US",
    "Last_Update": "2020-07-27 04:35:02",
    "Latitude": 37.05842757,
    "Longitude": -88.99427697,
    "Confirmed": 28,
    "Deaths": 0,
    "Recovered": 0,
    "Active": 28,
    "Combined_Key": "Ballard, Kentucky, US",
    "Incidence_Rate": 354.9695740365112,
    "Case-Fatality_Ratio": 0
  },
  {
    "FIPS": 24005,
    "County": "Baltimore",
    "Province_State": "Maryland",
    "Country_Region": "US",
    "Last_Update": "2020-07-27 04:35:02",
    "Latitude": 39.45784712,
    "Longitude": -76.62911955,
    "Confirmed": 10924,
    "Deaths": 525,
    "Recovered": 0,
    "Active": 10399,
    "Combined_Key": "Baltimore, Maryland, US",
    "Incidence_Rate": 1320.328269093634,
    "Case-Fatality_Ratio": 4.805931893079458
  },
  {
    "FIPS": 24510,
    "County": "Baltimore City",
    "Province_State": "Maryland",
    "Country_Region": "US",
    "Last_Update": "2020-07-27 04:35:02",
    "Latitude": 39.30211911,
    "Longitude": -76.61151012,
    "Confirmed": 10353,
    "Deaths": 400,
    "Recovered": 0,
    "Active": 9953,
    "Combined_Key": "Baltimore City, Maryland, US",
    "Incidence_Rate": 1744.427033311429,
    "Case-Fatality_Ratio": 3.863614411281754
  },
  {
    "FIPS": 45009,
    "County": "Bamberg",
    "Province_State": "South Carolina",
    "Country_Region": "US",
    "Last_Update": "2020-07-27 04:35:02",
    "Latitude": 33.21927586,
    "Longitude": -81.05659969,
    "Confirmed": 362,
    "Deaths": 9,
    "Recovered": 0,
    "Active": 353,
    "Combined_Key": "Bamberg, South Carolina, US",
    "Incidence_Rate": 2573.581686335845,
    "Case-Fatality_Ratio": 2.4861878453038675
  },
  {
    "FIPS": 48019,
    "County": "Bandera",
    "Province_State": "Texas",
    "Country_Region": "US",
    "Last_Update": "2020-07-27 04:35:02",
    "Latitude": 29.74619598,
    "Longitude": -99.24598147,
    "Confirmed": 71,
    "Deaths": 0,
    "Recovered": 0,
    "Active": 71,
    "Combined_Key": "Bandera, Texas, US",
    "Incidence_Rate": 307.19972308757355,
    "Case-Fatality_Ratio": 0
  },
  {
    "FIPS": 13011,
    "County": "Banks",
    "Province_State": "Georgia",
    "Country_Region": "US",
    "Last_Update": "2020-07-27 04:35:02",
    "Latitude": 34.35607081,
    "Longitude": -83.49644388,
    "Confirmed": 205,
    "Deaths": 3,
    "Recovered": 0,
    "Active": 202,
    "Combined_Key": "Banks, Georgia, US",
    "Incidence_Rate": 1065.8209420817302,
    "Case-Fatality_Ratio": 1.4634146341463414
  },
  {
    "FIPS": 31007,
    "County": "Banner",
    "Province_State": "Nebraska",
    "Country_Region": "US",
    "Last_Update": "2020-07-27 04:35:02",
    "Latitude": 41.54634427,
    "Longitude": -103.7114332,
    "Confirmed": 2,
    "Deaths": 0,
    "Recovered": 0,
    "Active": 2,
    "Combined_Key": "Banner, Nebraska, US",
    "Incidence_Rate": 268.4563758389262,
    "Case-Fatality_Ratio": 0
  },
  {
    "FIPS": 16005,
    "County": "Bannock",
    "Province_State": "Idaho",
    "Country_Region": "US",
    "Last_Update": "2020-07-27 04:35:02",
    "Latitude": 42.67002716,
    "Longitude": -112.2233311,
    "Confirmed": 243,
    "Deaths": 1,
    "Recovered": 0,
    "Active": 242,
    "Combined_Key": "Bannock, Idaho, US",
    "Incidence_Rate": 276.74016034985425,
    "Case-Fatality_Ratio": 0.411522633744856
  },
  {
    "FIPS": 26013,
    "County": "Baraga",
    "Province_State": "Michigan",
    "Country_Region": "US",
    "Last_Update": "2020-07-27 04:35:02",
    "Latitude": 46.6720582,
    "Longitude": -88.36363591,
    "Confirmed": 5,
    "Deaths": 0,
    "Recovered": 0,
    "Active": 5,
    "Combined_Key": "Baraga, Michigan, US",
    "Incidence_Rate": 60.9087586794981,
    "Case-Fatality_Ratio": 0
  },
  {
    "FIPS": 20007,
    "County": "Barber",
    "Province_State": "Kansas",
    "Country_Region": "US",
    "Last_Update": "2020-07-27 04:35:02",
    "Latitude": 37.2288586,
    "Longitude": -98.68460053,
    "Confirmed": 4,
    "Deaths": 0,
    "Recovered": 0,
    "Active": 4,
    "Combined_Key": "Barber, Kansas, US",
    "Incidence_Rate": 90.35464196973119,
    "Case-Fatality_Ratio": 0
  },
  {
    "FIPS": 1005,
    "County": "Barbour",
    "Province_State": "Alabama",
    "Country_Region": "US",
    "Last_Update": "2020-07-27 04:35:02",
    "Latitude": 31.868263,
    "Longitude": -85.3871286,
    "Confirmed": 523,
    "Deaths": 4,
    "Recovered": 0,
    "Active": 519,
    "Combined_Key": "Barbour, Alabama, US",
    "Incidence_Rate": 2118.609738313214,
    "Case-Fatality_Ratio": 0.7648183556405354
  },
  {
    "FIPS": 54001,
    "County": "Barbour",
    "Province_State": "West Virginia",
    "Country_Region": "US",
    "Last_Update": "2020-07-27 04:35:02",
    "Latitude": 39.1307219,
    "Longitude": -80.00350858,
    "Confirmed": 28,
    "Deaths": 1,
    "Recovered": 0,
    "Active": 27,
    "Combined_Key": "Barbour, West Virginia, US",
    "Incidence_Rate": 170.30594246092087,
    "Case-Fatality_Ratio": 3.5714285714285716
  },
  {
    "FIPS": 72017,
    "County": "Barceloneta",
    "Province_State": "Puerto Rico",
    "Country_Region": "US",
    "Last_Update": "2020-07-27 04:35:02",
    "Latitude": 18.445532999999998,
    "Longitude": -66.56053100000001,
    "Confirmed": 56,
    "Deaths": 0,
    "Recovered": 0,
    "Active": 56,
    "Combined_Key": "Barceloneta, Puerto Rico, US",
    "Incidence_Rate": 225.66086395873631,
    "Case-Fatality_Ratio": 0
  },
  {
    "FIPS": 38003,
    "County": "Barnes",
    "Province_State": "North Dakota",
    "Country_Region": "US",
    "Last_Update": "2020-07-27 04:35:02",
    "Latitude": 46.93579637,
    "Longitude": -98.06605978,
    "Confirmed": 30,
    "Deaths": 0,
    "Recovered": 0,
    "Active": 30,
    "Combined_Key": "Barnes, North Dakota, US",
    "Incidence_Rate": 288.0460873739798,
    "Case-Fatality_Ratio": 0
  },
  {
    "FIPS": 25001,
    "County": "Barnstable",
    "Province_State": "Massachusetts",
    "Country_Region": "US",
    "Last_Update": "2020-07-27 04:35:02",
    "Latitude": 41.72980578,
    "Longitude": -70.28854339,
    "Confirmed": 1693,
    "Deaths": 155,
    "Recovered": 0,
    "Active": 1538,
    "Combined_Key": "Barnstable, Massachusetts, US",
    "Incidence_Rate": 794.8729987323347,
    "Case-Fatality_Ratio": 9.15534554046072
  },
  {
    "FIPS": 45011,
    "County": "Barnwell",
    "Province_State": "South Carolina",
    "Country_Region": "US",
    "Last_Update": "2020-07-27 04:35:02",
    "Latitude": 33.26679302,
    "Longitude": -81.43584352,
    "Confirmed": 281,
    "Deaths": 2,
    "Recovered": 0,
    "Active": 279,
    "Combined_Key": "Barnwell, South Carolina, US",
    "Incidence_Rate": 1346.6883926004025,
    "Case-Fatality_Ratio": 0.7117437722419929
  },
  {
    "FIPS": 72019,
    "County": "Barranquitas",
    "Province_State": "Puerto Rico",
    "Country_Region": "US",
    "Last_Update": "2020-07-27 04:35:02",
    "Latitude": 18.201592,
    "Longitude": -66.30963,
    "Confirmed": 162,
    "Deaths": 0,
    "Recovered": 0,
    "Active": 162,
    "Combined_Key": "Barranquitas, Puerto Rico, US",
    "Incidence_Rate": 534.3360379972294,
    "Case-Fatality_Ratio": 0
  },
  {
    "FIPS": 21009,
    "County": "Barren",
    "Province_State": "Kentucky",
    "Country_Region": "US",
    "Last_Update": "2020-07-27 04:35:02",
    "Latitude": 36.96469836,
    "Longitude": -85.93338945,
    "Confirmed": 250,
    "Deaths": 2,
    "Recovered": 0,
    "Active": 248,
    "Combined_Key": "Barren, Kentucky, US",
    "Incidence_Rate": 564.9845194241677,
    "Case-Fatality_Ratio": 0.8
  },
  {
    "FIPS": 55005,
    "County": "Barron",
    "Province_State": "Wisconsin",
    "Country_Region": "US",
    "Last_Update": "2020-07-27 04:35:02",
    "Latitude": 45.42372701,
    "Longitude": -91.84833627,
    "Confirmed": 116,
    "Deaths": 3,
    "Recovered": 0,
    "Active": 113,
    "Combined_Key": "Barron, Wisconsin, US",
    "Incidence_Rate": 256.38758730439395,
    "Case-Fatality_Ratio": 2.586206896551724
  },
  {
    "FIPS": 13013,
    "County": "Barrow",
    "Province_State": "Georgia",
    "Country_Region": "US",
    "Last_Update": "2020-07-27 04:35:02",
    "Latitude": 33.99148694,
    "Longitude": -83.71436292,
    "Confirmed": 918,
    "Deaths": 32,
    "Recovered": 0,
    "Active": 886,
    "Combined_Key": "Barrow, Georgia, US",
    "Incidence_Rate": 1102.835175396444,
    "Case-Fatality_Ratio": 3.485838779956427
  },
  {
    "FIPS": 26015,
    "County": "Barry",
    "Province_State": "Michigan",
    "Country_Region": "US",
    "Last_Update": "2020-07-27 04:35:02",
    "Latitude": 42.59513984,
    "Longitude": -85.30834519,
    "Confirmed": 170,
    "Deaths": 2,
    "Recovered": 0,
    "Active": 168,
    "Combined_Key": "Barry, Michigan, US",
    "Incidence_Rate": 276.19821283509344,
    "Case-Fatality_Ratio": 1.1764705882352942
  },
  {
    "FIPS": 29009,
    "County": "Barry",
    "Province_State": "Missouri",
    "Country_Region": "US",
    "Last_Update": "2020-07-27 04:35:02",
    "Latitude": 36.70978521,
    "Longitude": -93.82919888,
    "Confirmed": 188,
    "Deaths": 0,
    "Recovered": 0,
    "Active": 188,
    "Combined_Key": "Barry, Missouri, US",
    "Incidence_Rate": 525.3010701612227,
    "Case-Fatality_Ratio": 0
  },
  {
    "FIPS": 18005,
    "County": "Bartholomew",
    "Province_State": "Indiana",
    "Country_Region": "US",
    "Last_Update": "2020-07-27 04:35:02",
    "Latitude": 39.20744865,
    "Longitude": -85.89558181,
    "Confirmed": 683,
    "Deaths": 45,
    "Recovered": 0,
    "Active": 638,
    "Combined_Key": "Bartholomew, Indiana, US",
    "Incidence_Rate": 815.2400959667697,
    "Case-Fatality_Ratio": 6.588579795021962
  },
  {
    "FIPS": 20009,
    "County": "Barton",
    "Province_State": "Kansas",
    "Country_Region": "US",
    "Last_Update": "2020-07-27 04:35:02",
    "Latitude": 38.47889676,
    "Longitude": -98.75636726,
    "Confirmed": 92,
    "Deaths": 3,
    "Recovered": 0,
    "Active": 89,
    "Combined_Key": "Barton, Kansas, US",
    "Incidence_Rate": 356.87963070716467,
    "Case-Fatality_Ratio": 3.260869565217391
  },
  {
    "FIPS": 29011,
    "County": "Barton",
    "Province_State": "Missouri",
    "Country_Region": "US",
    "Last_Update": "2020-07-27 04:35:02",
    "Latitude": 37.50207671,
    "Longitude": -94.34757022,
    "Confirmed": 53,
    "Deaths": 0,
    "Recovered": 0,
    "Active": 53,
    "Combined_Key": "Barton, Missouri, US",
    "Incidence_Rate": 450.91032839884286,
    "Case-Fatality_Ratio": 0
  },
  {
    "FIPS": 13015,
    "County": "Bartow",
    "Province_State": "Georgia",
    "Country_Region": "US",
    "Last_Update": "2020-07-27 04:35:02",
    "Latitude": 34.23732119,
    "Longitude": -84.83887523,
    "Confirmed": 1354,
    "Deaths": 51,
    "Recovered": 0,
    "Active": 1303,
    "Combined_Key": "Bartow, Georgia, US",
    "Incidence_Rate": 1256.752492156899,
    "Case-Fatality_Ratio": 3.7666174298375186
  },
  {
    "FIPS": 48021,
    "County": "Bastrop",
    "Province_State": "Texas",
    "Country_Region": "US",
    "Last_Update": "2020-07-27 04:35:02",
    "Latitude": 30.10370699,
    "Longitude": -97.31206354,
    "Confirmed": 1190,
    "Deaths": 12,
    "Recovered": 0,
    "Active": 1178,
    "Combined_Key": "Bastrop, Texas, US",
    "Incidence_Rate": 1341.2531136232997,
    "Case-Fatality_Ratio": 1.0084033613445378
  },
  {
    "FIPS": 29013,
    "County": "Bates",
    "Province_State": "Missouri",
    "Country_Region": "US",
    "Last_Update": "2020-07-27 04:35:02",
    "Latitude": 38.25271289,
    "Longitude": -94.34113157,
    "Confirmed": 29,
    "Deaths": 1,
    "Recovered": 0,
    "Active": 28,
    "Combined_Key": "Bates, Missouri, US",
    "Incidence_Rate": 179.3222854316102,
    "Case-Fatality_Ratio": 3.4482758620689653
  },
  {
    "FIPS": 21011,
    "County": "Bath",
    "Province_State": "Kentucky",
    "Country_Region": "US",
    "Last_Update": "2020-07-27 04:35:02",
    "Latitude": 38.14735938,
    "Longitude": -83.74588932,
    "Confirmed": 28,
    "Deaths": 1,
    "Recovered": 0,
    "Active": 27,
    "Combined_Key": "Bath, Kentucky, US",
    "Incidence_Rate": 224,
    "Case-Fatality_Ratio": 3.5714285714285716
  },
  {
    "FIPS": 51017,
    "County": "Bath",
    "Province_State": "Virginia",
    "Country_Region": "US",
    "Last_Update": "2020-07-27 04:35:02",
    "Latitude": 38.05852573,
    "Longitude": -79.73912095,
    "Confirmed": 3,
    "Deaths": 0,
    "Recovered": 0,
    "Active": 3,
    "Combined_Key": "Bath, Virginia, US",
    "Incidence_Rate": 72.34145165179649,
    "Case-Fatality_Ratio": 0
  },
  {
    "FIPS": 5005,
    "County": "Baxter",
    "Province_State": "Arkansas",
    "Country_Region": "US",
    "Last_Update": "2020-07-27 04:35:02",
    "Latitude": 36.28784385,
    "Longitude": -92.33782872,
    "Confirmed": 55,
    "Deaths": 0,
    "Recovered": 0,
    "Active": 55,
    "Combined_Key": "Baxter, Arkansas, US",
    "Incidence_Rate": 131.1647429171039,
    "Case-Fatality_Ratio": 0
  },
  {
    "FIPS": 12005,
    "County": "Bay",
    "Province_State": "Florida",
    "Country_Region": "US",
    "Last_Update": "2020-07-27 04:35:02",
    "Latitude": 30.26548745,
    "Longitude": -85.62122584,
    "Confirmed": 2972,
    "Deaths": 15,
    "Recovered": 0,
    "Active": 2957,
    "Combined_Key": "Bay, Florida, US",
    "Incidence_Rate": 1701.1533728284824,
    "Case-Fatality_Ratio": 0.5047106325706595
  },
  {
    "FIPS": 26017,
    "County": "Bay",
    "Province_State": "Michigan",
    "Country_Region": "US",
    "Last_Update": "2020-07-27 04:35:02",
    "Latitude": 43.70639106,
    "Longitude": -83.98731479,
    "Confirmed": 521,
    "Deaths": 31,
    "Recovered": 0,
    "Active": 490,
    "Combined_Key": "Bay, Michigan, US",
    "Incidence_Rate": 505.2072222329965,
    "Case-Fatality_Ratio": 5.950095969289827
  },
  {
    "FIPS": 72021,
    "County": "Bayamon",
    "Province_State": "Puerto Rico",
    "Country_Region": "US",
    "Last_Update": "2020-07-27 04:35:02",
    "Latitude": 18.34946,
    "Longitude": -66.168435,
    "Confirmed": 960,
    "Deaths": 0,
    "Recovered": 0,
    "Active": 960,
    "Combined_Key": "Bayamon, Puerto Rico, US",
    "Incidence_Rate": 461.2812085567663,
    "Case-Fatality_Ratio": 0
  },
  {
    "FIPS": 55007,
    "County": "Bayfield",
    "Province_State": "Wisconsin",
    "Country_Region": "US",
    "Last_Update": "2020-07-27 04:35:02",
    "Latitude": 46.52868768,
    "Longitude": -91.19716729,
    "Confirmed": 18,
    "Deaths": 1,
    "Recovered": 0,
    "Active": 17,
    "Combined_Key": "Bayfield, Wisconsin, US",
    "Incidence_Rate": 119.71268954509178,
    "Case-Fatality_Ratio": 5.555555555555555
  },
  {
    "FIPS": 48023,
    "County": "Baylor",
    "Province_State": "Texas",
    "Country_Region": "US",
    "Last_Update": "2020-07-27 04:35:02",
    "Latitude": 33.61640794,
    "Longitude": -99.21352901,
    "Confirmed": 5,
    "Deaths": 0,
    "Recovered": 0,
    "Active": 5,
    "Combined_Key": "Baylor, Texas, US",
    "Incidence_Rate": 142.4907381020234,
    "Case-Fatality_Ratio": 0
  },
  {
    "FIPS": 46005,
    "County": "Beadle",
    "Province_State": "South Dakota",
    "Country_Region": "US",
    "Last_Update": "2020-07-27 04:35:02",
    "Latitude": 44.41464384,
    "Longitude": -98.27858469,
    "Confirmed": 582,
    "Deaths": 9,
    "Recovered": 0,
    "Active": 573,
    "Combined_Key": "Beadle, South Dakota, US",
    "Incidence_Rate": 3153.9587059014793,
    "Case-Fatality_Ratio": 1.5463917525773196
  },
  {
    "FIPS": 16007,
    "County": "Bear Lake",
    "Province_State": "Idaho",
    "Country_Region": "US",
    "Last_Update": "2020-07-27 04:35:02",
    "Latitude": 42.28269683,
    "Longitude": -111.32892379999998,
    "Confirmed": 6,
    "Deaths": 0,
    "Recovered": 0,
    "Active": 6,
    "Combined_Key": "Bear Lake, Idaho, US",
    "Incidence_Rate": 97.95918367346935,
    "Case-Fatality_Ratio": 0
  },
  {
    "FIPS": null,
    "County": "Bear River",
    "Province_State": "Utah",
    "Country_Region": "US",
    "Last_Update": "2020-07-27 04:35:02",
    "Latitude": 41.52106798,
    "Longitude": -113.08328159999999,
    "Confirmed": 2091,
    "Deaths": 5,
    "Recovered": 0,
    "Active": 2086,
    "Combined_Key": "Bear River, Utah, US",
    "Incidence_Rate": 1119.2711623077003,
    "Case-Fatality_Ratio": 0.2391200382592061
  },
  {
    "FIPS": 37013,
    "County": "Beaufort",
    "Province_State": "North Carolina",
    "Country_Region": "US",
    "Last_Update": "2020-07-27 04:35:02",
    "Latitude": 35.48531943,
    "Longitude": -76.84325809,
    "Confirmed": 272,
    "Deaths": 1,
    "Recovered": 0,
    "Active": 271,
    "Combined_Key": "Beaufort, North Carolina, US",
    "Incidence_Rate": 578.7972932714815,
    "Case-Fatality_Ratio": 0.36764705882352944
  },
  {
    "FIPS": 45013,
    "County": "Beaufort",
    "Province_State": "South Carolina",
    "Country_Region": "US",
    "Last_Update": "2020-07-27 04:35:02",
    "Latitude": 32.39226291,
    "Longitude": -80.72619758,
    "Confirmed": 2992,
    "Deaths": 35,
    "Recovered": 0,
    "Active": 2957,
    "Combined_Key": "Beaufort, South Carolina, US",
    "Incidence_Rate": 1557.343771145418,
    "Case-Fatality_Ratio": 1.1697860962566844
  },
  {
    "FIPS": 22011,
    "County": "Beauregard",
    "Province_State": "Louisiana",
    "Country_Region": "US",
    "Last_Update": "2020-07-27 04:35:02",
    "Latitude": 30.64836518,
    "Longitude": -93.34173616,
    "Confirmed": 624,
    "Deaths": 13,
    "Recovered": 0,
    "Active": 611,
    "Combined_Key": "Beauregard, Louisiana, US",
    "Incidence_Rate": 1664.133130650452,
    "Case-Fatality_Ratio": 2.0833333333333335
  },
  {
    "FIPS": 40007,
    "County": "Beaver",
    "Province_State": "Oklahoma",
    "Country_Region": "US",
    "Last_Update": "2020-07-27 04:35:02",
    "Latitude": 36.7496847,
    "Longitude": -100.4758872,
    "Confirmed": 35,
    "Deaths": 0,
    "Recovered": 0,
    "Active": 35,
    "Combined_Key": "Beaver, Oklahoma, US",
    "Incidence_Rate": 659.0096027113538,
    "Case-Fatality_Ratio": 0
  },
  {
    "FIPS": 42007,
    "County": "Beaver",
    "Province_State": "Pennsylvania",
    "Country_Region": "US",
    "Last_Update": "2020-07-27 04:35:02",
    "Latitude": 40.6825484,
    "Longitude": -80.34921611,
    "Confirmed": 1116,
    "Deaths": 82,
    "Recovered": 0,
    "Active": 1034,
    "Combined_Key": "Beaver, Pennsylvania, US",
    "Incidence_Rate": 680.7825339018723,
    "Case-Fatality_Ratio": 7.347670250896058
  },
  {
    "FIPS": 30001,
    "County": "Beaverhead",
    "Province_State": "Montana",
    "Country_Region": "US",
    "Last_Update": "2020-07-27 04:35:02",
    "Latitude": 45.13434354,
    "Longitude": -112.8984694,
    "Confirmed": 26,
    "Deaths": 0,
    "Recovered": 0,
    "Active": 26,
    "Combined_Key": "Beaverhead, Montana, US",
    "Incidence_Rate": 275.04495927218875,
    "Case-Fatality_Ratio": 0
  },
  {
    "FIPS": 27005,
    "County": "Becker",
    "Province_State": "Minnesota",
    "Country_Region": "US",
    "Last_Update": "2020-07-27 04:35:02",
    "Latitude": 46.93479392,
    "Longitude": -95.67158144,
    "Confirmed": 110,
    "Deaths": 0,
    "Recovered": 0,
    "Active": 110,
    "Combined_Key": "Becker, Minnesota, US",
    "Incidence_Rate": 319.5537867123725,
    "Case-Fatality_Ratio": 0
  },
  {
    "FIPS": 40009,
    "County": "Beckham",
    "Province_State": "Oklahoma",
    "Country_Region": "US",
    "Last_Update": "2020-07-27 04:35:02",
    "Latitude": 35.26862449,
    "Longitude": -99.68128023,
    "Confirmed": 34,
    "Deaths": 0,
    "Recovered": 0,
    "Active": 34,
    "Combined_Key": "Beckham, Oklahoma, US",
    "Incidence_Rate": 155.54233953977766,
    "Case-Fatality_Ratio": 0
  },
  {
    "FIPS": 42009,
    "County": "Bedford",
    "Province_State": "Pennsylvania",
    "Country_Region": "US",
    "Last_Update": "2020-07-27 04:35:02",
    "Latitude": 40.00522157,
    "Longitude": -78.48998442,
    "Confirmed": 123,
    "Deaths": 4,
    "Recovered": 0,
    "Active": 119,
    "Combined_Key": "Bedford, Pennsylvania, US",
    "Incidence_Rate": 256.84931506849307,
    "Case-Fatality_Ratio": 3.252032520325203
  },
  {
    "FIPS": 47003,
    "County": "Bedford",
    "Province_State": "Tennessee",
    "Country_Region": "US",
    "Last_Update": "2020-07-27 04:35:02",
    "Latitude": 35.51123746,
    "Longitude": -86.45549096,
    "Confirmed": 763,
    "Deaths": 10,
    "Recovered": 0,
    "Active": 753,
    "Combined_Key": "Bedford, Tennessee, US",
    "Incidence_Rate": 1534.8098082996398,
    "Case-Fatality_Ratio": 1.3106159895150722
  },
  {
    "FIPS": 51019,
    "County": "Bedford",
    "Province_State": "Virginia",
    "Country_Region": "US",
    "Last_Update": "2020-07-27 04:35:02",
    "Latitude": 37.3080028,
    "Longitude": -79.5281964,
    "Confirmed": 232,
    "Deaths": 4,
    "Recovered": 0,
    "Active": 228,
    "Combined_Key": "Bedford, Virginia, US",
    "Incidence_Rate": 293.68203855842626,
    "Case-Fatality_Ratio": 1.7241379310344827
  },
  {
    "FIPS": 48025,
    "County": "Bee",
    "Province_State": "Texas",
    "Country_Region": "US",
    "Last_Update": "2020-07-27 04:35:02",
    "Latitude": 28.41761668,
    "Longitude": -97.74215593,
    "Confirmed": 400,
    "Deaths": 1,
    "Recovered": 0,
    "Active": 399,
    "Combined_Key": "Bee, Texas, US",
    "Incidence_Rate": 1228.3126055581145,
    "Case-Fatality_Ratio": 0.25
  },
  {
    "FIPS": 33001,
    "County": "Belknap",
    "Province_State": "New Hampshire",
    "Country_Region": "US",
    "Last_Update": "2020-07-27 04:35:02",
    "Latitude": 43.51637314,
    "Longitude": -71.41684235,
    "Confirmed": 101,
    "Deaths": 4,
    "Recovered": 0,
    "Active": 97,
    "Combined_Key": "Belknap, New Hampshire, US",
    "Incidence_Rate": 164.75539533138672,
    "Case-Fatality_Ratio": 3.9603960396039604
  },
  {
    "FIPS": 21013,
    "County": "Bell",
    "Province_State": "Kentucky",
    "Country_Region": "US",
    "Last_Update": "2020-07-27 04:35:02",
    "Latitude": 36.73355174,
    "Longitude": -83.67766671,
    "Confirmed": 230,
    "Deaths": 1,
    "Recovered": 0,
    "Active": 229,
    "Combined_Key": "Bell, Kentucky, US",
    "Incidence_Rate": 883.5279655808235,
    "Case-Fatality_Ratio": 0.43478260869565216
  },
  {
    "FIPS": 48027,
    "County": "Bell",
    "Province_State": "Texas",
    "Country_Region": "US",
    "Last_Update": "2020-07-27 04:35:02",
    "Latitude": 31.03736027,
    "Longitude": -97.4785025,
    "Confirmed": 2990,
    "Deaths": 18,
    "Recovered": 0,
    "Active": 2972,
    "Combined_Key": "Bell, Texas, US",
    "Incidence_Rate": 823.8639494770255,
    "Case-Fatality_Ratio": 0.6020066889632107
  },
  {
    "FIPS": 39013,
    "County": "Belmont",
    "Province_State": "Ohio",
    "Country_Region": "US",
    "Last_Update": "2020-07-27 04:35:02",
    "Latitude": 40.01625942,
    "Longitude": -80.9924051,
    "Confirmed": 584,
    "Deaths": 26,
    "Recovered": 0,
    "Active": 558,
    "Combined_Key": "Belmont, Ohio, US",
    "Incidence_Rate": 871.5637405605468,
    "Case-Fatality_Ratio": 4.4520547945205475
  },
  {
    "FIPS": 27007,
    "County": "Beltrami",
    "Province_State": "Minnesota",
    "Country_Region": "US",
    "Last_Update": "2020-07-27 04:35:02",
    "Latitude": 47.97373527,
    "Longitude": -94.93732139,
    "Confirmed": 151,
    "Deaths": 0,
    "Recovered": 0,
    "Active": 151,
    "Combined_Key": "Beltrami, Minnesota, US",
    "Incidence_Rate": 319.99660930745097,
    "Case-Fatality_Ratio": 0
  },
  {
    "FIPS": 13017,
    "County": "Ben Hill",
    "Province_State": "Georgia",
    "Country_Region": "US",
    "Last_Update": "2020-07-27 04:35:02",
    "Latitude": 31.76095874,
    "Longitude": -83.22145359,
    "Confirmed": 302,
    "Deaths": 1,
    "Recovered": 0,
    "Active": 301,
    "Combined_Key": "Ben Hill, Georgia, US",
    "Incidence_Rate": 1808.383233532934,
    "Case-Fatality_Ratio": 0.33112582781456956
  },
  {
    "FIPS": 16009,
    "County": "Benewah",
    "Province_State": "Idaho",
    "Country_Region": "US",
    "Last_Update": "2020-07-27 04:35:02",
    "Latitude": 47.21754179,
    "Longitude": -116.6586851,
    "Confirmed": 42,
    "Deaths": 0,
    "Recovered": 0,
    "Active": 42,
    "Combined_Key": "Benewah, Idaho, US",
    "Incidence_Rate": 451.7100451710045,
    "Case-Fatality_Ratio": 0
  },
  {
    "FIPS": 46007,
    "County": "Bennett",
    "Province_State": "South Dakota",
    "Country_Region": "US",
    "Last_Update": "2020-07-27 04:35:02",
    "Latitude": 43.19486375,
    "Longitude": -101.6665572,
    "Confirmed": 5,
    "Deaths": 0,
    "Recovered": 0,
    "Active": 5,
    "Combined_Key": "Bennett, South Dakota, US",
    "Incidence_Rate": 148.5884101040119,
    "Case-Fatality_Ratio": 0
  },
  {
    "FIPS": 50003,
    "County": "Bennington",
    "Province_State": "Vermont",
    "Country_Region": "US",
    "Last_Update": "2020-07-27 04:35:02",
    "Latitude": 43.03519828,
    "Longitude": -73.09048868,
    "Confirmed": 82,
    "Deaths": 1,
    "Recovered": 0,
    "Active": 81,
    "Combined_Key": "Bennington, Vermont, US",
    "Incidence_Rate": 231.18127995489147,
    "Case-Fatality_Ratio": 1.2195121951219512
  },
  {
    "FIPS": 38005,
    "County": "Benson",
    "Province_State": "North Dakota",
    "Country_Region": "US",
    "Last_Update": "2020-07-27 04:35:02",
    "Latitude": 48.0683985,
    "Longitude": -99.35916363,
    "Confirmed": 57,
    "Deaths": 1,
    "Recovered": 0,
    "Active": 56,
    "Combined_Key": "Benson, North Dakota, US",
    "Incidence_Rate": 834.3091334894614,
    "Case-Fatality_Ratio": 1.7543859649122806
  },
  {
    "FIPS": 8011,
    "County": "Bent",
    "Province_State": "Colorado",
    "Country_Region": "US",
    "Last_Update": "2020-07-27 04:35:02",
    "Latitude": 37.95474293,
    "Longitude": -103.0720195,
    "Confirmed": 5,
    "Deaths": 0,
    "Recovered": 0,
    "Active": 5,
    "Combined_Key": "Bent, Colorado, US",
    "Incidence_Rate": 89.65393580778195,
    "Case-Fatality_Ratio": 0
  },
  {
    "FIPS": 5007,
    "County": "Benton",
    "Province_State": "Arkansas",
    "Country_Region": "US",
    "Last_Update": "2020-07-27 04:35:02",
    "Latitude": 36.33644656,
    "Longitude": -94.25680817,
    "Confirmed": 4209,
    "Deaths": 32,
    "Recovered": 0,
    "Active": 4177,
    "Combined_Key": "Benton, Arkansas, US",
    "Incidence_Rate": 1507.8401238083982,
    "Case-Fatality_Ratio": 0.7602755999049655
  },
  {
    "FIPS": 18007,
    "County": "Benton",
    "Province_State": "Indiana",
    "Country_Region": "US",
    "Last_Update": "2020-07-27 04:35:02",
    "Latitude": 40.60626947,
    "Longitude": -87.31093999,
    "Confirmed": 56,
    "Deaths": 0,
    "Recovered": 0,
    "Active": 56,
    "Combined_Key": "Benton, Indiana, US",
    "Incidence_Rate": 640.1463191586648,
    "Case-Fatality_Ratio": 0
  },
  {
    "FIPS": 19011,
    "County": "Benton",
    "Province_State": "Iowa",
    "Country_Region": "US",
    "Last_Update": "2020-07-27 04:35:02",
    "Latitude": 42.08011739,
    "Longitude": -92.06463573,
    "Confirmed": 113,
    "Deaths": 1,
    "Recovered": 0,
    "Active": 112,
    "Combined_Key": "Benton, Iowa, US",
    "Incidence_Rate": 440.63170208617663,
    "Case-Fatality_Ratio": 0.8849557522123894
  },
  {
    "FIPS": 27009,
    "County": "Benton",
    "Province_State": "Minnesota",
    "Country_Region": "US",
    "Last_Update": "2020-07-27 04:35:02",
    "Latitude": 45.69804958,
    "Longitude": -93.99514135,
    "Confirmed": 287,
    "Deaths": 3,
    "Recovered": 0,
    "Active": 284,
    "Combined_Key": "Benton, Minnesota, US",
    "Incidence_Rate": 701.9002665753626,
    "Case-Fatality_Ratio": 1.0452961672473868
  },
  {
    "FIPS": 28009,
    "County": "Benton",
    "Province_State": "Mississippi",
    "Country_Region": "US",
    "Last_Update": "2020-07-27 04:35:02",
    "Latitude": 34.81681228,
    "Longitude": -89.18945516,
    "Confirmed": 88,
    "Deaths": 0,
    "Recovered": 0,
    "Active": 88,
    "Combined_Key": "Benton, Mississippi, US",
    "Incidence_Rate": 1065.5042983412036,
    "Case-Fatality_Ratio": 0
  },
  {
    "FIPS": 29015,
    "County": "Benton",
    "Province_State": "Missouri",
    "Country_Region": "US",
    "Last_Update": "2020-07-27 04:35:02",
    "Latitude": 38.29503305,
    "Longitude": -93.28756116,
    "Confirmed": 51,
    "Deaths": 0,
    "Recovered": 0,
    "Active": 51,
    "Combined_Key": "Benton, Missouri, US",
    "Incidence_Rate": 262.30519981484343,
    "Case-Fatality_Ratio": 0
  },
  {
    "FIPS": 41003,
    "County": "Benton",
    "Province_State": "Oregon",
    "Country_Region": "US",
    "Last_Update": "2020-07-27 04:35:02",
    "Latitude": 44.49167306,
    "Longitude": -123.4316987,
    "Confirmed": 134,
    "Deaths": 6,
    "Recovered": 0,
    "Active": 128,
    "Combined_Key": "Benton, Oregon, US",
    "Incidence_Rate": 144.00395473547334,
    "Case-Fatality_Ratio": 4.477611940298507
  },
  {
    "FIPS": 47005,
    "County": "Benton",
    "Province_State": "Tennessee",
    "Country_Region": "US",
    "Last_Update": "2020-07-27 04:35:02",
    "Latitude": 36.07110411,
    "Longitude": -88.06849355,
    "Confirmed": 47,
    "Deaths": 1,
    "Recovered": 0,
    "Active": 46,
    "Combined_Key": "Benton, Tennessee, US",
    "Incidence_Rate": 290.8415841584158,
    "Case-Fatality_Ratio": 2.127659574468085
  },
  {
    "FIPS": 53005,
    "County": "Benton",
    "Province_State": "Washington",
    "Country_Region": "US",
    "Last_Update": "2020-07-27 04:35:02",
    "Latitude": 46.23946995,
    "Longitude": -119.5120834,
    "Confirmed": 3166,
    "Deaths": 104,
    "Recovered": 0,
    "Active": 3062,
    "Combined_Key": "Benton, Washington, US",
    "Incidence_Rate": 1548.9994618132005,
    "Case-Fatality_Ratio": 3.2849020846493997
  },
  {
    "FIPS": 26019,
    "County": "Benzie",
    "Province_State": "Michigan",
    "Country_Region": "US",
    "Last_Update": "2020-07-27 04:35:02",
    "Latitude": 44.63899297,
    "Longitude": -86.01608482,
    "Confirmed": 28,
    "Deaths": 1,
    "Recovered": 0,
    "Active": 27,
    "Combined_Key": "Benzie, Michigan, US",
    "Incidence_Rate": 157.60441292356185,
    "Case-Fatality_Ratio": 3.5714285714285716
  },
  {
    "FIPS": 34003,
    "County": "Bergen",
    "Province_State": "New Jersey",
    "Country_Region": "US",
    "Last_Update": "2020-07-27 04:35:02",
    "Latitude": 40.96010917,
    "Longitude": -74.07164325,
    "Confirmed": 20226,
    "Deaths": 2044,
    "Recovered": 0,
    "Active": 18182,
    "Combined_Key": "Bergen, New Jersey, US",
    "Incidence_Rate": 2169.7014166457484,
    "Case-Fatality_Ratio": 10.105804410165135
  },
  {
    "FIPS": 45015,
    "County": "Berkeley",
    "Province_State": "South Carolina",
    "Country_Region": "US",
    "Last_Update": "2020-07-27 04:35:02",
    "Latitude": 33.20222596,
    "Longitude": -79.94654523,
    "Confirmed": 3452,
    "Deaths": 54,
    "Recovered": 0,
    "Active": 3398,
    "Combined_Key": "Berkeley, South Carolina, US",
    "Incidence_Rate": 1514.6529066680707,
    "Case-Fatality_Ratio": 1.5643105446118193
  },
  {
    "FIPS": 54003,
    "County": "Berkeley",
    "Province_State": "West Virginia",
    "Country_Region": "US",
    "Last_Update": "2020-07-27 04:35:02",
    "Latitude": 39.46704621,
    "Longitude": -78.02414609,
    "Confirmed": 608,
    "Deaths": 10,
    "Recovered": 0,
    "Active": 598,
    "Combined_Key": "Berkeley, West Virginia, US",
    "Incidence_Rate": 510.1912378011429,
    "Case-Fatality_Ratio": 1.644736842105263
  },
  {
    "FIPS": 42011,
    "County": "Berks",
    "Province_State": "Pennsylvania",
    "Country_Region": "US",
    "Last_Update": "2020-07-27 04:35:02",
    "Latitude": 40.41570541,
    "Longitude": -75.92457766,
    "Confirmed": 5017,
    "Deaths": 362,
    "Recovered": 0,
    "Active": 4655,
    "Combined_Key": "Berks, Pennsylvania, US",
    "Incidence_Rate": 1191.2224216694685,
    "Case-Fatality_Ratio": 7.215467410803269
  },
  {
    "FIPS": 25003,
    "County": "Berkshire",
    "Province_State": "Massachusetts",
    "Country_Region": "US",
    "Last_Update": "2020-07-27 04:35:02",
    "Latitude": 42.37428441,
    "Longitude": -73.20524838,
    "Confirmed": 643,
    "Deaths": 45,
    "Recovered": 0,
    "Active": 598,
    "Combined_Key": "Berkshire, Massachusetts, US",
    "Incidence_Rate": 514.6305544884108,
    "Case-Fatality_Ratio": 6.998444790046657
  },
  {
    "FIPS": 35001,
    "County": "Bernalillo",
    "Province_State": "New Mexico",
    "Country_Region": "US",
    "Last_Update": "2020-07-27 04:35:02",
    "Latitude": 35.05163625,
    "Longitude": -106.6703554,
    "Confirmed": 4405,
    "Deaths": 111,
    "Recovered": 0,
    "Active": 4294,
    "Combined_Key": "Bernalillo, New Mexico, US",
    "Incidence_Rate": 648.6325706317431,
    "Case-Fatality_Ratio": 2.5198637911464243
  },
  {
    "FIPS": 13019,
    "County": "Berrien",
    "Province_State": "Georgia",
    "Country_Region": "US",
    "Last_Update": "2020-07-27 04:35:02",
    "Latitude": 31.27590016,
    "Longitude": -83.22529920000002,
    "Confirmed": 228,
    "Deaths": 0,
    "Recovered": 0,
    "Active": 228,
    "Combined_Key": "Berrien, Georgia, US",
    "Incidence_Rate": 1175.4395009537554,
    "Case-Fatality_Ratio": 0
  },
  {
    "FIPS": 26021,
    "County": "Berrien",
    "Province_State": "Michigan",
    "Country_Region": "US",
    "Last_Update": "2020-07-27 04:35:02",
    "Latitude": 41.95447397,
    "Longitude": -86.41313079999998,
    "Confirmed": 1224,
    "Deaths": 63,
    "Recovered": 0,
    "Active": 1161,
    "Combined_Key": "Berrien, Michigan, US",
    "Incidence_Rate": 797.9087489651306,
    "Case-Fatality_Ratio": 5.147058823529412
  },
  {
    "FIPS": 37015,
    "County": "Bertie",
    "Province_State": "North Carolina",
    "Country_Region": "US",
    "Last_Update": "2020-07-27 04:35:02",
    "Latitude": 36.0688473,
    "Longitude": -76.96545943,
    "Confirmed": 214,
    "Deaths": 4,
    "Recovered": 0,
    "Active": 210,
    "Combined_Key": "Bertie, North Carolina, US",
    "Incidence_Rate": 1129.4664062912336,
    "Case-Fatality_Ratio": 1.8691588785046729
  },
  {
    "FIPS": 2050,
    "County": "Bethel",
    "Province_State": "Alaska",
    "Country_Region": "US",
    "Last_Update": "2020-07-27 04:35:02",
    "Latitude": 60.90980451,
    "Longitude": -159.8561831,
    "Confirmed": 18,
    "Deaths": 0,
    "Recovered": 0,
    "Active": 18,
    "Combined_Key": "Bethel, Alaska, US",
    "Incidence_Rate": 97.90057652561731,
    "Case-Fatality_Ratio": 0
  },
  {
    "FIPS": 48029,
    "County": "Bexar",
    "Province_State": "Texas",
    "Country_Region": "US",
    "Last_Update": "2020-07-27 04:35:02",
    "Latitude": 29.44928723,
    "Longitude": -98.52019748,
    "Confirmed": 35690,
    "Deaths": 322,
    "Recovered": 0,
    "Active": 35368,
    "Combined_Key": "Bexar, Texas, US",
    "Incidence_Rate": 1781.3345684718256,
    "Case-Fatality_Ratio": 0.9022135051835248
  },
  {
    "FIPS": 1007,
    "County": "Bibb",
    "Province_State": "Alabama",
    "Country_Region": "US",
    "Last_Update": "2020-07-27 04:35:02",
    "Latitude": 32.99642064,
    "Longitude": -87.12511459999996,
    "Confirmed": 317,
    "Deaths": 2,
    "Recovered": 0,
    "Active": 315,
    "Combined_Key": "Bibb, Alabama, US",
    "Incidence_Rate": 1415.5577386800035,
    "Case-Fatality_Ratio": 0.6309148264984227
  },
  {
    "FIPS": 13021,
    "County": "Bibb",
    "Province_State": "Georgia",
    "Country_Region": "US",
    "Last_Update": "2020-07-27 04:35:02",
    "Latitude": 32.80904227,
    "Longitude": -83.70489165,
    "Confirmed": 2689,
    "Deaths": 53,
    "Recovered": 0,
    "Active": 2636,
    "Combined_Key": "Bibb, Georgia, US",
    "Incidence_Rate": 1755.691797413146,
    "Case-Fatality_Ratio": 1.9709929341762737
  },
  {
    "FIPS": 22013,
    "County": "Bienville",
    "Province_State": "Louisiana",
    "Country_Region": "US",
    "Last_Update": "2020-07-27 04:35:02",
    "Latitude": 32.34569994,
    "Longitude": -93.05398492,
    "Confirmed": 340,
    "Deaths": 29,
    "Recovered": 0,
    "Active": 311,
    "Combined_Key": "Bienville, Louisiana, US",
    "Incidence_Rate": 2567.781889585379,
    "Case-Fatality_Ratio": 8.529411764705882
  },
  {
    "FIPS": 30003,
    "County": "Big Horn",
    "Province_State": "Montana",
    "Country_Region": "US",
    "Last_Update": "2020-07-27 04:35:02",
    "Latitude": 45.42335905,
    "Longitude": -107.492347,
    "Confirmed": 217,
    "Deaths": 5,
    "Recovered": 0,
    "Active": 212,
    "Combined_Key": "Big Horn, Montana, US",
    "Incidence_Rate": 1629.2514453037015,
    "Case-Fatality_Ratio": 2.304147465437788
  },
  {
    "FIPS": 56003,
    "County": "Big Horn",
    "Province_State": "Wyoming",
    "Country_Region": "US",
    "Last_Update": "2020-07-27 04:35:02",
    "Latitude": 44.52405055,
    "Longitude": -107.9960365,
    "Confirmed": 33,
    "Deaths": 0,
    "Recovered": 0,
    "Active": 33,
    "Combined_Key": "Big Horn, Wyoming, US",
    "Incidence_Rate": 279.89821882951657,
    "Case-Fatality_Ratio": 0
  },
  {
    "FIPS": 27011,
    "County": "Big Stone",
    "Province_State": "Minnesota",
    "Country_Region": "US",
    "Last_Update": "2020-07-27 04:35:02",
    "Latitude": 45.42712824,
    "Longitude": -96.41403739,
    "Confirmed": 21,
    "Deaths": 0,
    "Recovered": 0,
    "Active": 21,
    "Combined_Key": "Big Stone, Minnesota, US",
    "Incidence_Rate": 420.75736325385697,
    "Case-Fatality_Ratio": 0
  },
  {
    "FIPS": 38007,
    "County": "Billings",
    "Province_State": "North Dakota",
    "Country_Region": "US",
    "Last_Update": "2020-07-27 04:35:02",
    "Latitude": 47.02366884,
    "Longitude": -103.3762965,
    "Confirmed": 1,
    "Deaths": 0,
    "Recovered": 0,
    "Active": 1,
    "Combined_Key": "Billings, North Dakota, US",
    "Incidence_Rate": 107.75862068965515,
    "Case-Fatality_Ratio": 0
  },
  {
    "FIPS": 16011,
    "County": "Bingham",
    "Province_State": "Idaho",
    "Country_Region": "US",
    "Last_Update": "2020-07-27 04:35:02",
    "Latitude": 43.21672879999999,
    "Longitude": -112.3978437,
    "Confirmed": 144,
    "Deaths": 2,
    "Recovered": 0,
    "Active": 142,
    "Combined_Key": "Bingham, Idaho, US",
    "Incidence_Rate": 307.62000384525004,
    "Case-Fatality_Ratio": 1.3888888888888888
  },
  {
    "FIPS": 19013,
    "County": "Black Hawk",
    "Province_State": "Iowa",
    "Country_Region": "US",
    "Last_Update": "2020-07-27 04:35:02",
    "Latitude": 42.4704581,
    "Longitude": -92.30524729,
    "Confirmed": 2850,
    "Deaths": 62,
    "Recovered": 0,
    "Active": 2788,
    "Combined_Key": "Black Hawk, Iowa, US",
    "Incidence_Rate": 2171.7926052366875,
    "Case-Fatality_Ratio": 2.175438596491228
  },
  {
    "FIPS": 18009,
    "County": "Blackford",
    "Province_State": "Indiana",
    "Country_Region": "US",
    "Last_Update": "2020-07-27 04:35:02",
    "Latitude": 40.47388153,
    "Longitude": -85.32499702,
    "Confirmed": 48,
    "Deaths": 2,
    "Recovered": 0,
    "Active": 46,
    "Combined_Key": "Blackford, Indiana, US",
    "Incidence_Rate": 408.2326926348017,
    "Case-Fatality_Ratio": 4.166666666666667
  },
  {
    "FIPS": 37017,
    "County": "Bladen",
    "Province_State": "North Carolina",
    "Country_Region": "US",
    "Last_Update": "2020-07-27 04:35:02",
    "Latitude": 34.61296243,
    "Longitude": -78.56180059,
    "Confirmed": 528,
    "Deaths": 5,
    "Recovered": 0,
    "Active": 523,
    "Combined_Key": "Bladen, North Carolina, US",
    "Incidence_Rate": 1613.593301142962,
    "Case-Fatality_Ratio": 0.946969696969697
  },
  {
    "FIPS": 16013,
    "County": "Blaine",
    "Province_State": "Idaho",
    "Country_Region": "US",
    "Last_Update": "2020-07-27 04:35:02",
    "Latitude": 43.4085812,
    "Longitude": -113.9752658,
    "Confirmed": 562,
    "Deaths": 6,
    "Recovered": 0,
    "Active": 556,
    "Combined_Key": "Blaine, Idaho, US",
    "Incidence_Rate": 2441.249294122757,
    "Case-Fatality_Ratio": 1.0676156583629892
  },
  {
    "FIPS": 30005,
    "County": "Blaine",
    "Province_State": "Montana",
    "Country_Region": "US",
    "Last_Update": "2020-07-27 04:35:02",
    "Latitude": 48.43175214,
    "Longitude": -108.9582723,
    "Confirmed": 7,
    "Deaths": 0,
    "Recovered": 0,
    "Active": 7,
    "Combined_Key": "Blaine, Montana, US",
    "Incidence_Rate": 104.77473432120941,
    "Case-Fatality_Ratio": 0
  },
  {
    "FIPS": 31009,
    "County": "Blaine",
    "Province_State": "Nebraska",
    "Country_Region": "US",
    "Last_Update": "2020-07-27 04:35:02",
    "Latitude": 41.91311716,
    "Longitude": -99.97677845,
    "Confirmed": 0,
    "Deaths": 0,
    "Recovered": 0,
    "Active": 0,
    "Combined_Key": "Blaine, Nebraska, US",
    "Incidence_Rate": 0,
    "Case-Fatality_Ratio": null
  },
  {
    "FIPS": 40011,
    "County": "Blaine",
    "Province_State": "Oklahoma",
    "Country_Region": "US",
    "Last_Update": "2020-07-27 04:35:02",
    "Latitude": 35.87518314,
    "Longitude": -98.43307003,
    "Confirmed": 29,
    "Deaths": 0,
    "Recovered": 0,
    "Active": 29,
    "Combined_Key": "Blaine, Oklahoma, US",
    "Incidence_Rate": 307.56177749496237,
    "Case-Fatality_Ratio": 0
  },
  {
    "FIPS": 42013,
    "County": "Blair",
    "Province_State": "Pennsylvania",
    "Country_Region": "US",
    "Last_Update": "2020-07-27 04:35:02",
    "Latitude": 40.47961444,
    "Longitude": -78.34917412,
    "Confirmed": 176,
    "Deaths": 2,
    "Recovered": 0,
    "Active": 174,
    "Combined_Key": "Blair, Pennsylvania, US",
    "Incidence_Rate": 144.46478260512689,
    "Case-Fatality_Ratio": 1.1363636363636365
  },
  {
    "FIPS": 48031,
    "County": "Blanco",
    "Province_State": "Texas",
    "Country_Region": "US",
    "Last_Update": "2020-07-27 04:35:02",
    "Latitude": 30.26640707,
    "Longitude": -98.3999852,
    "Confirmed": 85,
    "Deaths": 1,
    "Recovered": 0,
    "Active": 84,
    "Combined_Key": "Blanco, Texas, US",
    "Incidence_Rate": 712.4298047104182,
    "Case-Fatality_Ratio": 1.1764705882352942
  },
  {
    "FIPS": 51021,
    "County": "Bland",
    "Province_State": "Virginia",
    "Country_Region": "US",
    "Last_Update": "2020-07-27 04:35:02",
    "Latitude": 37.13128068,
    "Longitude": -81.13599391,
    "Confirmed": 7,
    "Deaths": 0,
    "Recovered": 0,
    "Active": 7,
    "Combined_Key": "Bland, Virginia, US",
    "Incidence_Rate": 111.46496815286623,
    "Case-Fatality_Ratio": 0
  },
  {
    "FIPS": 13023,
    "County": "Bleckley",
    "Province_State": "Georgia",
    "Country_Region": "US",
    "Last_Update": "2020-07-27 04:35:02",
    "Latitude": 32.43829035,
    "Longitude": -83.33035166,
    "Confirmed": 116,
    "Deaths": 3,
    "Recovered": 0,
    "Active": 113,
    "Combined_Key": "Bleckley, Georgia, US",
    "Incidence_Rate": 901.1108521712108,
    "Case-Fatality_Ratio": 2.586206896551724
  },
  {
    "FIPS": 47007,
    "County": "Bledsoe",
    "Province_State": "Tennessee",
    "Country_Region": "US",
    "Last_Update": "2020-07-27 04:35:02",
    "Latitude": 35.59942968,
    "Longitude": -85.20611967,
    "Confirmed": 648,
    "Deaths": 1,
    "Recovered": 0,
    "Active": 647,
    "Combined_Key": "Bledsoe, Tennessee, US",
    "Incidence_Rate": 4301.646309081253,
    "Case-Fatality_Ratio": 0.15432098765432098
  },
  {
    "FIPS": 1009,
    "County": "Blount",
    "Province_State": "Alabama",
    "Country_Region": "US",
    "Last_Update": "2020-07-27 04:35:02",
    "Latitude": 33.98210918,
    "Longitude": -86.56790593,
    "Confirmed": 578,
    "Deaths": 1,
    "Recovered": 0,
    "Active": 577,
    "Combined_Key": "Blount, Alabama, US",
    "Incidence_Rate": 999.5503752637222,
    "Case-Fatality_Ratio": 0.17301038062283736
  },
  {
    "FIPS": 47009,
    "County": "Blount",
    "Province_State": "Tennessee",
    "Country_Region": "US",
    "Last_Update": "2020-07-27 04:35:02",
    "Latitude": 35.68938198,
    "Longitude": -83.92847788,
    "Confirmed": 784,
    "Deaths": 7,
    "Recovered": 0,
    "Active": 777,
    "Combined_Key": "Blount, Tennessee, US",
    "Incidence_Rate": 589.0839144025006,
    "Case-Fatality_Ratio": 0.8928571428571429
  },
  {
    "FIPS": 27013,
    "County": "Blue Earth",
    "Province_State": "Minnesota",
    "Country_Region": "US",
    "Last_Update": "2020-07-27 04:35:02",
    "Latitude": 44.03554215,
    "Longitude": -94.06699781,
    "Confirmed": 767,
    "Deaths": 3,
    "Recovered": 0,
    "Active": 764,
    "Combined_Key": "Blue Earth, Minnesota, US",
    "Incidence_Rate": 1133.7265161929256,
    "Case-Fatality_Ratio": 0.39113428943937417
  },
  {
    "FIPS": 16015,
    "County": "Boise",
    "Province_State": "Idaho",
    "Country_Region": "US",
    "Last_Update": "2020-07-27 04:35:02",
    "Latitude": 43.98829931,
    "Longitude": -115.7309284,
    "Confirmed": 33,
    "Deaths": 0,
    "Recovered": 0,
    "Active": 33,
    "Combined_Key": "Boise, Idaho, US",
    "Incidence_Rate": 421.4021197803601,
    "Case-Fatality_Ratio": 0
  },
  {
    "FIPS": 28011,
    "County": "Bolivar",
    "Province_State": "Mississippi",
    "Country_Region": "US",
    "Last_Update": "2020-07-27 04:35:02",
    "Latitude": 33.79696941,
    "Longitude": -90.87372121,
    "Confirmed": 758,
    "Deaths": 25,
    "Recovered": 0,
    "Active": 733,
    "Combined_Key": "Bolivar, Mississippi, US",
    "Incidence_Rate": 2474.8596055896564,
    "Case-Fatality_Ratio": 3.2981530343007917
  },