[
  {
    "FIPS": 45001,
    "County": "Abbeville",
    "Province_State": "South Carolina",
    "Country_Region": "US",
    "Last_Update": "2020-08-04 04:41:59",
    "Latitude": 34.22333378,
    "Longitude": -82.46170658,
    "Confirmed": 298,
    "Deaths": 7,
    "Recovered": 0,
    "Active": 291,
    "Combined_Key": "Abbeville, South Carolina, US",
    "Incidence_Rate": 1214.9875647245892,
    "Case-Fatality_Ratio": 2.348993288590604
  },
  {
    "FIPS": 22001,
    "County": "Acadia",
    "Province_State": "Louisiana",
    "Country_Region": "US",
    "Last_Update": "2020-08-04 04:41:59",
    "Latitude": 30.295064899999996,
    "Longitude": -92.41419698,
    "Confirmed": 2403,
    "Deaths": 77,
    "Recovered": 0,
    "Active": 2326,
    "Combined_Key": "Acadia, Louisiana, US",
    "Incidence_Rate": 3872.9954065597553,
    "Case-Fatality_Ratio": 3.204327923429047
  },
  {
    "FIPS": 51001,
    "County": "Accomack",
    "Province_State": "Virginia",
    "Country_Region": "US",
    "Last_Update": "2020-08-04 04:41:59",
    "Latitude": 37.76707161,
    "Longitude": -75.63234615,
    "Confirmed": 1080,
    "Deaths": 15,
    "Recovered": 0,
    "Active": 1065,
    "Combined_Key": "Accomack, Virginia, US",
    "Incidence_Rate": 3341.997772001485,
    "Case-Fatality_Ratio": 1.3888888888888888
  },
  {
    "FIPS": 16001,
    "County": "Ada",
    "Province_State": "Idaho",
    "Country_Region": "US",
    "Last_Update": "2020-08-04 04:41:59",
    "Latitude": 43.4526575,
    "Longitude": -116.24155159999998,
    "Confirmed": 8069,
    "Deaths": 64,
    "Recovered": 0,
    "Active": 8005,
    "Combined_Key": "Ada, Idaho, US",
    "Incidence_Rate": 1675.5020380533524,
    "Case-Fatality_Ratio": 0.7931590035940017
  },
  {
    "FIPS": 19001,
    "County": "Adair",
    "Province_State": "Iowa",
    "Country_Region": "US",
    "Last_Update": "2020-08-04 04:41:59",
    "Latitude": 41.33075609,
    "Longitude": -94.47105874,
    "Confirmed": 21,
    "Deaths": 0,
    "Recovered": 0,
    "Active": 21,
    "Combined_Key": "Adair, Iowa, US",
    "Incidence_Rate": 293.6241610738255,
    "Case-Fatality_Ratio": 0
  },
  {
    "FIPS": 21001,
    "County": "Adair",
    "Province_State": "Kentucky",
    "Country_Region": "US",
    "Last_Update": "2020-08-04 04:41:59",
    "Latitude": 37.10459774,
    "Longitude": -85.28129668,
    "Confirmed": 203,
    "Deaths": 19,
    "Recovered": 0,
    "Active": 184,
    "Combined_Key": "Adair, Kentucky, US",
    "Incidence_Rate": 1057.1815435892097,
    "Case-Fatality_Ratio": 9.35960591133005
  },
  {
    "FIPS": 29001,
    "County": "Adair",
    "Province_State": "Missouri",
    "Country_Region": "US",
    "Last_Update": "2020-08-04 04:41:59",
    "Latitude": 40.19058551,
    "Longitude": -92.60078167,
    "Confirmed": 134,
    "Deaths": 0,
    "Recovered": 0,
    "Active": 134,
    "Combined_Key": "Adair, Missouri, US",
    "Incidence_Rate": 528.7456102276764,
    "Case-Fatality_Ratio": 0
  },
  {
    "FIPS": 40001,
    "County": "Adair",
    "Province_State": "Oklahoma",
    "Country_Region": "US",
    "Last_Update": "2020-08-04 04:41:59",
    "Latitude": 35.88494195,
    "Longitude": -94.65859267,
    "Confirmed": 305,
    "Deaths": 5,
    "Recovered": 0,
    "Active": 300,
    "Combined_Key": "Adair, Oklahoma, US",
    "Incidence_Rate": 1374.2452915202307,
    "Case-Fatality_Ratio": 1.639344262295082
  },
  {
    "FIPS": 8001,
    "County": "Adams",
    "Province_State": "Colorado",
    "Country_Region": "US",
    "Last_Update": "2020-08-04 04:41:59",
    "Latitude": 39.87432092,
    "Longitude": -104.3362578,
    "Confirmed": 6115,
    "Deaths": 171,
    "Recovered": 0,
    "Active": 5944,
    "Combined_Key": "Adams, Colorado, US",
    "Incidence_Rate": 1181.8229256253612,
    "Case-Fatality_Ratio": 2.7964022894521667
  },
  {
    "FIPS": 16003,
    "County": "Adams",
    "Province_State": "Idaho",
    "Country_Region": "US",
    "Last_Update": "2020-08-04 04:41:59",
    "Latitude": 44.89333571,
    "Longitude": -116.4545247,
    "Confirmed": 18,
    "Deaths": 0,
    "Recovered": 0,
    "Active": 18,
    "Combined_Key": "Adams, Idaho, US",
    "Incidence_Rate": 419.18956683744767,
    "Case-Fatality_Ratio": 0
  },
  {
    "FIPS": 17001,
    "County": "Adams",
    "Province_State": "Illinois",
    "Country_Region": "US",
    "Last_Update": "2020-08-04 04:41:59",
    "Latitude": 39.98815591,
    "Longitude": -91.18786813,
    "Confirmed": 445,
    "Deaths": 4,
    "Recovered": 0,
    "Active": 441,
    "Combined_Key": "Adams, Illinois, US",
    "Incidence_Rate": 680.0641858332697,
    "Case-Fatality_Ratio": 0.898876404494382
  },
  {
    "FIPS": 18001,
    "County": "Adams",
    "Province_State": "Indiana",
    "Country_Region": "US",
    "Last_Update": "2020-08-04 04:41:59",
    "Latitude": 40.7457653,
    "Longitude": -84.93671406,
    "Confirmed": 81,
    "Deaths": 2,
    "Recovered": 0,
    "Active": 79,
    "Combined_Key": "Adams, Indiana, US",
    "Incidence_Rate": 226.40243732006599,
    "Case-Fatality_Ratio": 2.4691358024691357
  },
  {
    "FIPS": 19003,
    "County": "Adams",
    "Province_State": "Iowa",
    "Country_Region": "US",
    "Last_Update": "2020-08-04 04:41:59",
    "Latitude": 41.02903567,
    "Longitude": -94.69932645,
    "Confirmed": 16,
    "Deaths": 0,
    "Recovered": 0,
    "Active": 16,
    "Combined_Key": "Adams, Iowa, US",
    "Incidence_Rate": 444.1976679622432,
    "Case-Fatality_Ratio": 0
  },
  {
    "FIPS": 28001,
    "County": "Adams",
    "Province_State": "Mississippi",
    "Country_Region": "US",
    "Last_Update": "2020-08-04 04:41:59",
    "Latitude": 31.47669768,
    "Longitude": -91.35326037,
    "Confirmed": 584,
    "Deaths": 25,
    "Recovered": 0,
    "Active": 559,
    "Combined_Key": "Adams, Mississippi, US",
    "Incidence_Rate": 1902.7139738702633,
    "Case-Fatality_Ratio": 4.280821917808219
  },
  {
    "FIPS": 31001,
    "County": "Adams",
    "Province_State": "Nebraska",
    "Country_Region": "US",
    "Last_Update": "2020-08-04 04:41:59",
    "Latitude": 40.52449420000001,
    "Longitude": -98.50117804,
    "Confirmed": 344,
    "Deaths": 11,
    "Recovered": 0,
    "Active": 333,
    "Combined_Key": "Adams, Nebraska, US",
    "Incidence_Rate": 1096.833848802729,
    "Case-Fatality_Ratio": 3.197674418604651
  },
  {
    "FIPS": 38001,
    "County": "Adams",
    "Province_State": "North Dakota",
    "Country_Region": "US",
    "Last_Update": "2020-08-04 04:41:59",
    "Latitude": 46.09686891,
    "Longitude": -102.5285397,
    "Confirmed": 2,
    "Deaths": 0,
    "Recovered": 0,
    "Active": 2,
    "Combined_Key": "Adams, North Dakota, US",
    "Incidence_Rate": 90.25270758122744,
    "Case-Fatality_Ratio": 0
  },
  {
    "FIPS": 39001,
    "County": "Adams",
    "Province_State": "Ohio",
    "Country_Region": "US",
    "Last_Update": "2020-08-04 04:41:59",
    "Latitude": 38.84541072,
    "Longitude": -83.4718964,
    "Confirmed": 53,
    "Deaths": 2,
    "Recovered": 0,
    "Active": 51,
    "Combined_Key": "Adams, Ohio, US",
    "Incidence_Rate": 191.34955592461552,
    "Case-Fatality_Ratio": 3.7735849056603774
  },
  {
    "FIPS": 42001,
    "County": "Adams",
    "Province_State": "Pennsylvania",
    "Country_Region": "US",
    "Last_Update": "2020-08-04 04:41:59",
    "Latitude": 39.87140411,
    "Longitude": -77.21610347,
    "Confirmed": 480,
    "Deaths": 20,
    "Recovered": 0,
    "Active": 460,
    "Combined_Key": "Adams, Pennsylvania, US",
    "Incidence_Rate": 465.9787008902135,
    "Case-Fatality_Ratio": 4.166666666666667
  },
  {
    "FIPS": 53001,
    "County": "Adams",
    "Province_State": "Washington",
    "Country_Region": "US",
    "Last_Update": "2020-08-04 04:41:59",
    "Latitude": 46.98299757,
    "Longitude": -118.5601734,
    "Confirmed": 400,
    "Deaths": 4,
    "Recovered": 0,
    "Active": 396,
    "Combined_Key": "Adams, Washington, US",
    "Incidence_Rate": 2001.7014462292948,
    "Case-Fatality_Ratio": 1
  },
  {
    "FIPS": 55001,
    "County": "Adams",
    "Province_State": "Wisconsin",
    "Country_Region": "US",
    "Last_Update": "2020-08-04 04:41:59",
    "Latitude": 43.96974651,
    "Longitude": -89.76782777,
    "Confirmed": 73,
    "Deaths": 2,
    "Recovered": 0,
    "Active": 71,
    "Combined_Key": "Adams, Wisconsin, US",
    "Incidence_Rate": 361.02868447082085,
    "Case-Fatality_Ratio": 2.73972602739726
  },
  {
    "FIPS": 50001,
    "County": "Addison",
    "Province_State": "Vermont",
    "Country_Region": "US",
    "Last_Update": "2020-08-04 04:41:59",
    "Latitude": 44.03217337,
    "Longitude": -73.14130877,
    "Confirmed": 72,
    "Deaths": 2,
    "Recovered": 0,
    "Active": 70,
    "Combined_Key": "Addison, Vermont, US",
    "Incidence_Rate": 195.77453299616607,
    "Case-Fatality_Ratio": 2.7777777777777777
  },
  {
    "FIPS": 72001,
    "County": "Adjuntas",
    "Province_State": "Puerto Rico",
    "Country_Region": "US",
    "Last_Update": "2020-08-04 04:41:59",
    "Latitude": 18.180117000000006,
    "Longitude": -66.754367,
    "Confirmed": 86,
    "Deaths": 0,
    "Recovered": 0,
    "Active": 86,
    "Combined_Key": "Adjuntas, Puerto Rico, US",
    "Incidence_Rate": 441.41046040137553,
    "Case-Fatality_Ratio": 0
  },
  {
    "FIPS": 72003,
    "County": "Aguada",
    "Province_State": "Puerto Rico",
    "Country_Region": "US",
    "Last_Update": "2020-08-04 04:41:59",
    "Latitude": 18.360255,
    "Longitude": -67.17513100000001,
    "Confirmed": 108,
    "Deaths": 0,
    "Recovered": 0,
    "Active": 108,
    "Combined_Key": "Aguada, Puerto Rico, US",
    "Incidence_Rate": 257.39412283419534,
    "Case-Fatality_Ratio": 0
  },
  {
    "FIPS": 72005,
    "County": "Aguadilla",
    "Province_State": "Puerto Rico",
    "Country_Region": "US",
    "Last_Update": "2020-08-04 04:41:59",
    "Latitude": 18.459681,
    "Longitude": -67.12081500000001,
    "Confirmed": 192,
    "Deaths": 0,
    "Recovered": 0,
    "Active": 192,
    "Combined_Key": "Aguadilla, Puerto Rico, US",
    "Incidence_Rate": 315.01747362549014,
    "Case-Fatality_Ratio": 0
  },
  {
    "FIPS": 72007,
    "County": "Aguas Buenas",
    "Province_State": "Puerto Rico",
    "Country_Region": "US",
    "Last_Update": "2020-08-04 04:41:59",
    "Latitude": 18.251619,
    "Longitude": -66.126806,
    "Confirmed": 114,
    "Deaths": 0,
    "Recovered": 0,
    "Active": 114,
    "Combined_Key": "Aguas Buenas, Puerto Rico, US",
    "Incidence_Rate": 397.7808018423532,
    "Case-Fatality_Ratio": 0
  },
  {
    "FIPS": 72009,
    "County": "Aibonito",
    "Province_State": "Puerto Rico",
    "Country_Region": "US",
    "Last_Update": "2020-08-04 04:41:59",
    "Latitude": 18.131361,
    "Longitude": -66.264131,
    "Confirmed": 79,
    "Deaths": 0,
    "Recovered": 0,
    "Active": 79,
    "Combined_Key": "Aibonito, Puerto Rico, US",
    "Incidence_Rate": 305.019305019305,
    "Case-Fatality_Ratio": 0
  },
  {
    "FIPS": 45003,
    "County": "Aiken",
    "Province_State": "South Carolina",
    "Country_Region": "US",
    "Last_Update": "2020-08-04 04:41:59",
    "Latitude": 33.54338026,
    "Longitude": -81.63645384,
    "Confirmed": 1594,
    "Deaths": 29,
    "Recovered": 0,
    "Active": 1565,
    "Combined_Key": "Aiken, South Carolina, US",
    "Incidence_Rate": 932.8620253757198,
    "Case-Fatality_Ratio": 1.819322459222083
  },
  {
    "FIPS": 27001,
    "County": "Aitkin",
    "Province_State": "Minnesota",
    "Country_Region": "US",
    "Last_Update": "2020-08-04 04:41:59",
    "Latitude": 46.60962049,
    "Longitude": -93.4116826,
    "Confirmed": 27,
    "Deaths": 0,
    "Recovered": 0,
    "Active": 27,
    "Combined_Key": "Aitkin, Minnesota, US",
    "Incidence_Rate": 169.96097192496538,
    "Case-Fatality_Ratio": 0
  },
  {
    "FIPS": 12001,
    "County": "Alachua",
    "Province_State": "Florida",
    "Country_Region": "US",
    "Last_Update": "2020-08-04 04:41:59",
    "Latitude": 29.67866525,
    "Longitude": -82.35928158,
    "Confirmed": 3749,
    "Deaths": 23,
    "Recovered": 0,
    "Active": 3726,
    "Combined_Key": "Alachua, Florida, US",
    "Incidence_Rate": 1393.4575513951306,
    "Case-Fatality_Ratio": 0.6134969325153374
  },
  {
    "FIPS": 37001,
    "County": "Alamance",
    "Province_State": "North Carolina",
    "Country_Region": "US",
    "Last_Update": "2020-08-04 04:41:59",
    "Latitude": 36.0434701,
    "Longitude": -79.39976137,
    "Confirmed": 2264,
    "Deaths": 41,
    "Recovered": 0,
    "Active": 2223,
    "Combined_Key": "Alamance, North Carolina, US",
    "Incidence_Rate": 1335.6222973411438,
    "Case-Fatality_Ratio": 1.8109540636042403
  },
  {
    "FIPS": 6001,
    "County": "Alameda",
    "Province_State": "California",
    "Country_Region": "US",
    "Last_Update": "2020-08-04 04:41:59",
    "Latitude": 37.64629437,
    "Longitude": -121.8929271,
    "Confirmed": 11524,
    "Deaths": 189,
    "Recovered": 0,
    "Active": 11335,
    "Combined_Key": "Alameda, California, US",
    "Incidence_Rate": 689.5111614768846,
    "Case-Fatality_Ratio": 1.6400555362721276
  },
  {
    "FIPS": 8003,
    "County": "Alamosa",
    "Province_State": "Colorado",
    "Country_Region": "US",
    "Last_Update": "2020-08-04 04:41:59",
    "Latitude": 37.57250606,
    "Longitude": -105.7885451,
    "Confirmed": 224,
    "Deaths": 9,
    "Recovered": 0,
    "Active": 215,
    "Combined_Key": "Alamosa, Colorado, US",
    "Incidence_Rate": 1379.9051315222077,
    "Case-Fatality_Ratio": 4.017857142857143
  },
  {
    "FIPS": 36001,
    "County": "Albany",
    "Province_State": "New York",
    "Country_Region": "US",
    "Last_Update": "2020-08-04 04:41:59",
    "Latitude": 42.60060306,
    "Longitude": -73.97723916,
    "Confirmed": 2531,
    "Deaths": 126,
    "Recovered": 0,
    "Active": 2405,
    "Combined_Key": "Albany, New York, US",
    "Incidence_Rate": 828.4616341413916,
    "Case-Fatality_Ratio": 4.978269458711972
  },
  {
    "FIPS": 56001,
    "County": "Albany",
    "Province_State": "Wyoming",
    "Country_Region": "US",
    "Last_Update": "2020-08-04 04:41:59",
    "Latitude": 41.65498705,
    "Longitude": -105.7235415,
    "Confirmed": 88,
    "Deaths": 0,
    "Recovered": 0,
    "Active": 88,
    "Combined_Key": "Albany, Wyoming, US",
    "Incidence_Rate": 226.33744855967083,
    "Case-Fatality_Ratio": 0
  },
  {
    "FIPS": 51003,
    "County": "Albemarle",
    "Province_State": "Virginia",
    "Country_Region": "US",
    "Last_Update": "2020-08-04 04:41:59",
    "Latitude": 38.02080697,
    "Longitude": -78.55481085,
    "Confirmed": 775,
    "Deaths": 12,
    "Recovered": 0,
    "Active": 763,
    "Combined_Key": "Albemarle, Virginia, US",
    "Incidence_Rate": 708.8630750937529,
    "Case-Fatality_Ratio": 1.5483870967741935
  },
  {
    "FIPS": 26001,
    "County": "Alcona",
    "Province_State": "Michigan",
    "Country_Region": "US",
    "Last_Update": "2020-08-04 04:41:59",
    "Latitude": 44.6846864,
    "Longitude": -83.59507875,
    "Confirmed": 28,
    "Deaths": 1,
    "Recovered": 0,
    "Active": 27,
    "Combined_Key": "Alcona, Michigan, US",
    "Incidence_Rate": 269.1013935607881,
    "Case-Fatality_Ratio": 3.5714285714285716
  },
  {
    "FIPS": 28003,
    "County": "Alcorn",
    "Province_State": "Mississippi",
    "Country_Region": "US",
    "Last_Update": "2020-08-04 04:41:59",
    "Latitude": 34.88084463,
    "Longitude": -88.57996173,
    "Confirmed": 357,
    "Deaths": 4,
    "Recovered": 0,
    "Active": 353,
    "Combined_Key": "Alcorn, Mississippi, US",
    "Incidence_Rate": 966.092062890699,
    "Case-Fatality_Ratio": 1.1204481792717087
  },
  {
    "FIPS": 2013,
    "County": "Aleutians East",
    "Province_State": "Alaska",
    "Country_Region": "US",
    "Last_Update": "2020-08-04 04:41:59",
    "Latitude": 55.32222414,
    "Longitude": -161.9722021,
    "Confirmed": 1,
    "Deaths": 0,
    "Recovered": 0,
    "Active": 1,
    "Combined_Key": "Aleutians East, Alaska, US",
    "Incidence_Rate": 29.96703626011388,
    "Case-Fatality_Ratio": 0
  },
  {
    "FIPS": 2016,
    "County": "Aleutians West",
    "Province_State": "Alaska",
    "Country_Region": "US",
    "Last_Update": "2020-08-04 04:41:59",
    "Latitude": 52.3233,
    "Longitude": -174.1596,
    "Confirmed": 5,
    "Deaths": 0,
    "Recovered": 0,
    "Active": 5,
    "Combined_Key": "Aleutians West, Alaska, US",
    "Incidence_Rate": 88.74689385871494,
    "Case-Fatality_Ratio": 0
  },
  {
    "FIPS": 17003,
    "County": "Alexander",
    "Province_State": "Illinois",
    "Country_Region": "US",
    "Last_Update": "2020-08-04 04:41:59",
    "Latitude": 37.18049267,
    "Longitude": -89.32910838,
    "Confirmed": 36,
    "Deaths": 0,
    "Recovered": 0,
    "Active": 36,
    "Combined_Key": "Alexander, Illinois, US",
    "Incidence_Rate": 624.8915118902968,
    "Case-Fatality_Ratio": 0
  },
  {
    "FIPS": 37003,
    "County": "Alexander",
    "Province_State": "North Carolina",
    "Country_Region": "US",
    "Last_Update": "2020-08-04 04:41:59",
    "Latitude": 35.922379600000006,
    "Longitude": -81.17751948,
    "Confirmed": 295,
    "Deaths": 2,
    "Recovered": 0,
    "Active": 293,
    "Combined_Key": "Alexander, North Carolina, US",
    "Incidence_Rate": 786.7296050350694,
    "Case-Fatality_Ratio": 0.6779661016949152
  },
  {
    "FIPS": 51510,
    "County": "Alexandria",
    "Province_State": "Virginia",
    "Country_Region": "US",
    "Last_Update": "2020-08-04 04:41:59",
    "Latitude": 38.814003,
    "Longitude": -77.08183073,
    "Confirmed": 2844,
    "Deaths": 59,
    "Recovered": 0,
    "Active": 2785,
    "Combined_Key": "Alexandria, Virginia, US",
    "Incidence_Rate": 1783.877361567604,
    "Case-Fatality_Ratio": 2.0745428973277074
  },
  {
    "FIPS": 40003,
    "County": "Alfalfa",
    "Province_State": "Oklahoma",
    "Country_Region": "US",
    "Last_Update": "2020-08-04 04:41:59",
    "Latitude": 36.73090616,
    "Longitude": -98.32408495,
    "Confirmed": 3,
    "Deaths": 0,
    "Recovered": 0,
    "Active": 3,
    "Combined_Key": "Alfalfa, Oklahoma, US",
    "Incidence_Rate": 52.6131182041389,
    "Case-Fatality_Ratio": 0
  },
  {
    "FIPS": 26003,
    "County": "Alger",
    "Province_State": "Michigan",
    "Country_Region": "US",
    "Last_Update": "2020-08-04 04:41:59",
    "Latitude": 46.41292944,
    "Longitude": -86.60260122,
    "Confirmed": 9,
    "Deaths": 0,
    "Recovered": 0,
    "Active": 9,
    "Combined_Key": "Alger, Michigan, US",
    "Incidence_Rate": 98.81422924901186,
    "Case-Fatality_Ratio": 0
  },
  {
    "FIPS": 19005,
    "County": "Allamakee",
    "Province_State": "Iowa",
    "Country_Region": "US",
    "Last_Update": "2020-08-04 04:41:59",
    "Latitude": 43.28383218,
    "Longitude": -91.37860922,
    "Confirmed": 151,
    "Deaths": 4,
    "Recovered": 0,
    "Active": 147,
    "Combined_Key": "Allamakee, Iowa, US",
    "Incidence_Rate": 1103.236647914079,
    "Case-Fatality_Ratio": 2.6490066225165565
  },
  {
    "FIPS": 26005,
    "County": "Allegan",
    "Province_State": "Michigan",
    "Country_Region": "US",
    "Last_Update": "2020-08-04 04:41:59",
    "Latitude": 42.59147037,
    "Longitude": -85.89102866,
    "Confirmed": 507,
    "Deaths": 7,
    "Recovered": 0,
    "Active": 500,
    "Combined_Key": "Allegan, Michigan, US",
    "Incidence_Rate": 429.36628246712013,
    "Case-Fatality_Ratio": 1.3806706114398422
  },
  {
    "FIPS": 24001,
    "County": "Allegany",
    "Province_State": "Maryland",
    "Country_Region": "US",
    "Last_Update": "2020-08-04 04:41:59",
    "Latitude": 39.62357628,
    "Longitude": -78.69280486,
    "Confirmed": 273,
    "Deaths": 18,
    "Recovered": 0,
    "Active": 255,
    "Combined_Key": "Allegany, Maryland, US",
    "Incidence_Rate": 387.6959781867757,
    "Case-Fatality_Ratio": 6.593406593406593
  },
  {
    "FIPS": 36003,
    "County": "Allegany",
    "Province_State": "New York",
    "Country_Region": "US",
    "Last_Update": "2020-08-04 04:41:59",
    "Latitude": 42.25748406,
    "Longitude": -78.02750466,
    "Confirmed": 75,
    "Deaths": 1,
    "Recovered": 0,
    "Active": 74,
    "Combined_Key": "Allegany, New York, US",
    "Incidence_Rate": 162.72157254127703,
    "Case-Fatality_Ratio": 1.3333333333333333
  },
  {
    "FIPS": 37005,
    "County": "Alleghany",
    "Province_State": "North Carolina",
    "Country_Region": "US",
    "Last_Update": "2020-08-04 04:41:59",
    "Latitude": 36.49360862,
    "Longitude": -81.12857041,
    "Confirmed": 165,
    "Deaths": 0,
    "Recovered": 0,
    "Active": 165,
    "Combined_Key": "Alleghany, North Carolina, US",
    "Incidence_Rate": 1481.5479931759,
    "Case-Fatality_Ratio": 0
  },
  {
    "FIPS": 51005,
    "County": "Alleghany",
    "Province_State": "Virginia",
    "Country_Region": "US",
    "Last_Update": "2020-08-04 04:41:59",
    "Latitude": 37.78636074,
    "Longitude": -80.00222498,
    "Confirmed": 56,
    "Deaths": 3,
    "Recovered": 0,
    "Active": 53,
    "Combined_Key": "Alleghany, Virginia, US",
    "Incidence_Rate": 376.8506056527591,
    "Case-Fatality_Ratio": 5.357142857142857
  },
  {
    "FIPS": 42003,
    "County": "Allegheny",
    "Province_State": "Pennsylvania",
    "Country_Region": "US",
    "Last_Update": "2020-08-04 04:41:59",
    "Latitude": 40.46809875,
    "Longitude": -79.98167747,
    "Confirmed": 8310,
    "Deaths": 234,
    "Recovered": 0,
    "Active": 8076,
    "Combined_Key": "Allegheny, Pennsylvania, US",
    "Incidence_Rate": 683.3628689727765,
    "Case-Fatality_Ratio": 2.815884476534296
  },
  {
    "FIPS": 18003,
    "County": "Allen",
    "Province_State": "Indiana",
    "Country_Region": "US",
    "Last_Update": "2020-08-04 04:41:59",
    "Latitude": 41.09194313,
    "Longitude": -85.06800636,
    "Confirmed": 3635,
    "Deaths": 158,
    "Recovered": 0,
    "Active": 3477,
    "Combined_Key": "Allen, Indiana, US",
    "Incidence_Rate": 958.3468451010943,
    "Case-Fatality_Ratio": 4.346629986244841
  },
  {
    "FIPS": 20001,
    "County": "Allen",
    "Province_State": "Kansas",
    "Country_Region": "US",
    "Last_Update": "2020-08-04 04:41:59",
    "Latitude": 37.88582951,
    "Longitude": -95.30030847,
    "Confirmed": 15,
    "Deaths": 0,
    "Recovered": 0,
    "Active": 15,
    "Combined_Key": "Allen, Kansas, US",
    "Incidence_Rate": 121.2709192335678,
    "Case-Fatality_Ratio": 0
  },
  {
    "FIPS": 21003,
    "County": "Allen",
    "Province_State": "Kentucky",
    "Country_Region": "US",
    "Last_Update": "2020-08-04 04:41:59",
    "Latitude": 36.75197631,
    "Longitude": -86.19457544,
    "Confirmed": 217,
    "Deaths": 8,
    "Recovered": 0,
    "Active": 209,
    "Combined_Key": "Allen, Kentucky, US",
    "Incidence_Rate": 1018.0623973727423,
    "Case-Fatality_Ratio": 3.686635944700461
  },
  {
    "FIPS": 22003,
    "County": "Allen",
    "Province_State": "Louisiana",
    "Country_Region": "US",
    "Last_Update": "2020-08-04 04:41:59",
    "Latitude": 30.65385745,
    "Longitude": -92.82442028,
    "Confirmed": 1156,
    "Deaths": 23,
    "Recovered": 0,
    "Active": 1133,
    "Combined_Key": "Allen, Louisiana, US",
    "Incidence_Rate": 4510.867444492137,
    "Case-Fatality_Ratio": 1.9896193771626298
  },
  {
    "FIPS": 39003,
    "County": "Allen",
    "Province_State": "Ohio",
    "Country_Region": "US",
    "Last_Update": "2020-08-04 04:41:59",
    "Latitude": 40.77285242,
    "Longitude": -84.10802343,
    "Confirmed": 654,
    "Deaths": 42,
    "Recovered": 0,
    "Active": 612,
    "Combined_Key": "Allen, Ohio, US",
    "Incidence_Rate": 638.9776357827476,
    "Case-Fatality_Ratio": 6.422018348623853
  },
  {
    "FIPS": 45005,
    "County": "Allendale",
    "Province_State": "South Carolina",
    "Country_Region": "US",
    "Last_Update": "2020-08-04 04:41:59",
    "Latitude": 32.98837386,
    "Longitude": -81.35321066,
    "Confirmed": 193,
    "Deaths": 3,
    "Recovered": 0,
    "Active": 190,
    "Combined_Key": "Allendale, South Carolina, US",
    "Incidence_Rate": 2221.4548802946592,
    "Case-Fatality_Ratio": 1.5544041450777202
  },
  {
    "FIPS": 26007,
    "County": "Alpena",
    "Province_State": "Michigan",
    "Country_Region": "US",
    "Last_Update": "2020-08-04 04:41:59",
    "Latitude": 45.03477666,
    "Longitude": -83.62212411,
    "Confirmed": 125,
    "Deaths": 13,
    "Recovered": 0,
    "Active": 112,
    "Combined_Key": "Alpena, Michigan, US",
    "Incidence_Rate": 440.06336912515405,
    "Case-Fatality_Ratio": 10.4
  },
  {
    "FIPS": 6003,
    "County": "Alpine",
    "Province_State": "California",
    "Country_Region": "US",
    "Last_Update": "2020-08-04 04:41:59",
    "Latitude": 38.59678594,
    "Longitude": -119.8223594,
    "Confirmed": 2,
    "Deaths": 0,
    "Recovered": 0,
    "Active": 2,
    "Combined_Key": "Alpine, California, US",
    "Incidence_Rate": 177.14791851195747,
    "Case-Fatality_Ratio": 0
  },
  {
    "FIPS": 6005,
    "County": "Amador",
    "Province_State": "California",
    "Country_Region": "US",
    "Last_Update": "2020-08-04 04:41:59",
    "Latitude": 38.44583082,
    "Longitude": -120.65696,
    "Confirmed": 126,
    "Deaths": 0,
    "Recovered": 0,
    "Active": 126,
    "Combined_Key": "Amador, California, US",
    "Incidence_Rate": 316.9651841416784,
    "Case-Fatality_Ratio": 0
  },
  {
    "FIPS": 51007,
    "County": "Amelia",
    "Province_State": "Virginia",
    "Country_Region": "US",
    "Last_Update": "2020-08-04 04:41:59",
    "Latitude": 37.34081025,
    "Longitude": -77.98584649,
    "Confirmed": 73,
    "Deaths": 1,
    "Recovered": 0,
    "Active": 72,
    "Combined_Key": "Amelia, Virginia, US",
    "Incidence_Rate": 555.3442373526055,
    "Case-Fatality_Ratio": 1.36986301369863
  },
  {
    "FIPS": 51009,
    "County": "Amherst",
    "Province_State": "Virginia",
    "Country_Region": "US",
    "Last_Update": "2020-08-04 04:41:59",
    "Latitude": 37.60308293,
    "Longitude": -79.14548696,
    "Confirmed": 118,
    "Deaths": 0,
    "Recovered": 0,
    "Active": 118,
    "Combined_Key": "Amherst, Virginia, US",
    "Incidence_Rate": 373.3586457838949,
    "Case-Fatality_Ratio": 0
  },
  {
    "FIPS": 28005,
    "County": "Amite",
    "Province_State": "Mississippi",
    "Country_Region": "US",
    "Last_Update": "2020-08-04 04:41:59",
    "Latitude": 31.17467303,
    "Longitude": -90.80501621,
    "Confirmed": 210,
    "Deaths": 5,
    "Recovered": 0,
    "Active": 205,
    "Combined_Key": "Amite, Mississippi, US",
    "Incidence_Rate": 1707.7335935594047,
    "Case-Fatality_Ratio": 2.380952380952381
  },
  {
    "FIPS": 72011,
    "County": "Anasco",
    "Province_State": "Puerto Rico",
    "Country_Region": "US",
    "Last_Update": "2020-08-04 04:41:59",
    "Latitude": 18.287985,
    "Longitude": -67.120611,
    "Confirmed": 125,
    "Deaths": 0,
    "Recovered": 0,
    "Active": 125,
    "Combined_Key": "Anasco, Puerto Rico, US",
    "Incidence_Rate": 427.18977478555087,
    "Case-Fatality_Ratio": 0
  },
  {
    "FIPS": 2020,
    "County": "Anchorage",
    "Province_State": "Alaska",
    "Country_Region": "US",
    "Last_Update": "2020-08-04 04:41:59",
    "Latitude": 61.14998174,
    "Longitude": -149.14269860000005,
    "Confirmed": 1918,
    "Deaths": 13,
    "Recovered": 0,
    "Active": 1905,
    "Combined_Key": "Anchorage, Alaska, US",
    "Incidence_Rate": 665.9722222222222,
    "Case-Fatality_Ratio": 0.6777893639207507
  },
  {
    "FIPS": 20003,
    "County": "Anderson",
    "Province_State": "Kansas",
    "Country_Region": "US",
    "Last_Update": "2020-08-04 04:41:59",
    "Latitude": 38.21413251,
    "Longitude": -95.29272815,
    "Confirmed": 29,
    "Deaths": 0,
    "Recovered": 0,
    "Active": 29,
    "Combined_Key": "Anderson, Kansas, US",
    "Incidence_Rate": 369.0506490201069,
    "Case-Fatality_Ratio": 0
  },
  {
    "FIPS": 21005,
    "County": "Anderson",
    "Province_State": "Kentucky",
    "Country_Region": "US",
    "Last_Update": "2020-08-04 04:41:59",
    "Latitude": 38.00671029,
    "Longitude": -84.99171713,
    "Confirmed": 75,
    "Deaths": 1,
    "Recovered": 0,
    "Active": 74,
    "Combined_Key": "Anderson, Kentucky, US",
    "Incidence_Rate": 329.71380841429635,
    "Case-Fatality_Ratio": 1.3333333333333333
  },
  {
    "FIPS": 45007,
    "County": "Anderson",
    "Province_State": "South Carolina",
    "Country_Region": "US",
    "Last_Update": "2020-08-04 04:41:59",
    "Latitude": 34.51828081,
    "Longitude": -82.63959517,
    "Confirmed": 2103,
    "Deaths": 48,
    "Recovered": 0,
    "Active": 2055,
    "Combined_Key": "Anderson, South Carolina, US",
    "Incidence_Rate": 1038.2211514726646,
    "Case-Fatality_Ratio": 2.282453637660485
  },
  {
    "FIPS": 47001,
    "County": "Anderson",
    "Province_State": "Tennessee",
    "Country_Region": "US",
    "Last_Update": "2020-08-04 04:41:59",
    "Latitude": 36.12684348,
    "Longitude": -84.19965764,
    "Confirmed": 607,
    "Deaths": 5,
    "Recovered": 0,
    "Active": 602,
    "Combined_Key": "Anderson, Tennessee, US",
    "Incidence_Rate": 788.5369845930006,
    "Case-Fatality_Ratio": 0.8237232289950577
  },
  {
    "FIPS": 48001,
    "County": "Anderson",
    "Province_State": "Texas",
    "Country_Region": "US",
    "Last_Update": "2020-08-04 04:41:59",
    "Latitude": 31.81534745,
    "Longitude": -95.65354823,
    "Confirmed": 2307,
    "Deaths": 9,
    "Recovered": 0,
    "Active": 2298,
    "Combined_Key": "Anderson, Texas, US",
    "Incidence_Rate": 3995.8430761236687,
    "Case-Fatality_Ratio": 0.39011703511053314
  },
  {
    "FIPS": 29003,
    "County": "Andrew",
    "Province_State": "Missouri",
    "Country_Region": "US",
    "Last_Update": "2020-08-04 04:41:59",
    "Latitude": 39.98492163,
    "Longitude": -94.80163024,
    "Confirmed": 84,
    "Deaths": 1,
    "Recovered": 0,
    "Active": 83,
    "Combined_Key": "Andrew, Missouri, US",
    "Incidence_Rate": 474.2547425474256,
    "Case-Fatality_Ratio": 1.1904761904761905
  },
  {
    "FIPS": 48003,
    "County": "Andrews",
    "Province_State": "Texas",
    "Country_Region": "US",
    "Last_Update": "2020-08-04 04:41:59",
    "Latitude": 32.30468633,
    "Longitude": -102.6376548,
    "Confirmed": 267,
    "Deaths": 6,
    "Recovered": 0,
    "Active": 261,
    "Combined_Key": "Andrews, Texas, US",
    "Incidence_Rate": 1427.4258219727344,
    "Case-Fatality_Ratio": 2.247191011235955
  },
  {
    "FIPS": 23001,
    "County": "Androscoggin",
    "Province_State": "Maine",
    "Country_Region": "US",
    "Last_Update": "2020-08-04 04:41:59",
    "Latitude": 44.1664747,
    "Longitude": -70.20380627,
    "Confirmed": 548,
    "Deaths": 7,
    "Recovered": 0,
    "Active": 541,
    "Combined_Key": "Androscoggin, Maine, US",
    "Incidence_Rate": 506.10933069811693,
    "Case-Fatality_Ratio": 1.2773722627737227
  },
  {
    "FIPS": 48005,
    "County": "Angelina",
    "Province_State": "Texas",
    "Country_Region": "US",
    "Last_Update": "2020-08-04 04:41:59",
    "Latitude": 31.25457347,
    "Longitude": -94.60901487,
    "Confirmed": 1647,
    "Deaths": 36,
    "Recovered": 0,
    "Active": 1611,
    "Combined_Key": "Angelina, Texas, US",
    "Incidence_Rate": 1899.3253762324853,
    "Case-Fatality_Ratio": 2.185792349726776
  },
  {
    "FIPS": 24003,
    "County": "Anne Arundel",
    "Province_State": "Maryland",
    "Country_Region": "US",
    "Last_Update": "2020-08-04 04:41:59",
    "Latitude": 39.00670238,
    "Longitude": -76.60329337,
    "Confirmed": 7007,
    "Deaths": 217,
    "Recovered": 0,
    "Active": 6790,
    "Combined_Key": "Anne Arundel, Maryland, US",
    "Incidence_Rate": 1209.7010879886195,
    "Case-Fatality_Ratio": 3.096903096903097
  },
  {
    "FIPS": 27003,
    "County": "Anoka",
    "Province_State": "Minnesota",
    "Country_Region": "US",
    "Last_Update": "2020-08-04 04:41:59",
    "Latitude": 45.27476015,
    "Longitude": -93.24604565,
    "Confirmed": 3365,
    "Deaths": 113,
    "Recovered": 0,
    "Active": 3252,
    "Combined_Key": "Anoka, Minnesota, US",
    "Incidence_Rate": 942.7856584510298,
    "Case-Fatality_Ratio": 3.3580980683506687
  },
  {
    "FIPS": 37007,
    "County": "Anson",
    "Province_State": "North Carolina",
    "Country_Region": "US",
    "Last_Update": "2020-08-04 04:41:59",
    "Latitude": 34.97403241,
    "Longitude": -80.09953279,
    "Confirmed": 304,
    "Deaths": 2,
    "Recovered": 0,
    "Active": 302,
    "Combined_Key": "Anson, North Carolina, US",
    "Incidence_Rate": 1243.5572281763887,
    "Case-Fatality_Ratio": 0.6578947368421053
  },
  {
    "FIPS": 31003,
    "County": "Antelope",
    "Province_State": "Nebraska",
    "Country_Region": "US",
    "Last_Update": "2020-08-04 04:41:59",
    "Latitude": 42.17695516,
    "Longitude": -98.0666283,
    "Confirmed": 19,
    "Deaths": 1,
    "Recovered": 0,
    "Active": 18,
    "Combined_Key": "Antelope, Nebraska, US",
    "Incidence_Rate": 301.6830739917434,
    "Case-Fatality_Ratio": 5.2631578947368425
  },
  {
    "FIPS": 26009,
    "County": "Antrim",
    "Province_State": "Michigan",
    "Country_Region": "US",
    "Last_Update": "2020-08-04 04:41:59",
    "Latitude": 44.99690221,
    "Longitude": -85.15503082,
    "Confirmed": 38,
    "Deaths": 0,
    "Recovered": 0,
    "Active": 38,
    "Combined_Key": "Antrim, Michigan, US",
    "Incidence_Rate": 162.9223117818556,
    "Case-Fatality_Ratio": 0
  },
  {
    "FIPS": 4001,
    "County": "Apache",
    "Province_State": "Arizona",
    "Country_Region": "US",
    "Last_Update": "2020-08-04 04:41:59",
    "Latitude": 35.39465006,
    "Longitude": -109.4892383,
    "Confirmed": 3084,
    "Deaths": 136,
    "Recovered": 0,
    "Active": 2948,
    "Combined_Key": "Apache, Arizona, US",
    "Incidence_Rate": 4290.066354139135,
    "Case-Fatality_Ratio": 4.409857328145266
  },
  {
    "FIPS": 19007,
    "County": "Appanoose",
    "Province_State": "Iowa",
    "Country_Region": "US",
    "Last_Update": "2020-08-04 04:41:59",
    "Latitude": 40.74324454,
    "Longitude": -92.86865906,
    "Confirmed": 42,
    "Deaths": 3,
    "Recovered": 0,
    "Active": 39,
    "Combined_Key": "Appanoose, Iowa, US",
    "Incidence_Rate": 338.0009657170449,
    "Case-Fatality_Ratio": 7.142857142857143
  },
  {
    "FIPS": 13001,
    "County": "Appling",
    "Province_State": "Georgia",
    "Country_Region": "US",
    "Last_Update": "2020-08-04 04:41:59",
    "Latitude": 31.74847232,
    "Longitude": -82.28909114,
    "Confirmed": 602,
    "Deaths": 16,
    "Recovered": 0,
    "Active": 586,
    "Combined_Key": "Appling, Georgia, US",
    "Incidence_Rate": 3274.2303926900904,
    "Case-Fatality_Ratio": 2.6578073089700998
  },
  {
    "FIPS": 51011,
    "County": "Appomattox",
    "Province_State": "Virginia",
    "Country_Region": "US",
    "Last_Update": "2020-08-04 04:41:59",
    "Latitude": 37.37569884,
    "Longitude": -78.81340003,
    "Confirmed": 71,
    "Deaths": 0,
    "Recovered": 0,
    "Active": 71,
    "Combined_Key": "Appomattox, Virginia, US",
    "Incidence_Rate": 446.2321664257432,
    "Case-Fatality_Ratio": 0
  },
  {
    "FIPS": 48007,
    "County": "Aransas",
    "Province_State": "Texas",
    "Country_Region": "US",
    "Last_Update": "2020-08-04 04:41:59",
    "Latitude": 28.10556197,
    "Longitude": -96.9995047,
    "Confirmed": 158,
    "Deaths": 12,
    "Recovered": 0,
    "Active": 146,
    "Combined_Key": "Aransas, Texas, US",
    "Incidence_Rate": 672.0544449170567,
    "Case-Fatality_Ratio": 7.594936708860759
  },
  {
    "FIPS": 8005,
    "County": "Arapahoe",
    "Province_State": "Colorado",
    "Country_Region": "US",
    "Last_Update": "2020-08-04 04:41:59",
    "Latitude": 39.64977461,
    "Longitude": -104.3353617,
    "Confirmed": 7023,
    "Deaths": 363,
    "Recovered": 0,
    "Active": 6660,
    "Combined_Key": "Arapahoe, Colorado, US",
    "Incidence_Rate": 1069.6172649598684,
    "Case-Fatality_Ratio": 5.1687313114053826
  },
  {
    "FIPS": 48009,
    "County": "Archer",
    "Province_State": "Texas",
    "Country_Region": "US",
    "Last_Update": "2020-08-04 04:41:59",
    "Latitude": 33.61569967,
    "Longitude": -98.68754589,
    "Confirmed": 20,
    "Deaths": 0,
    "Recovered": 0,
    "Active": 20,
    "Combined_Key": "Archer, Texas, US",
    "Incidence_Rate": 233.836080907284,
    "Case-Fatality_Ratio": 0
  },
  {
    "FIPS": 8007,
    "County": "Archuleta",
    "Province_State": "Colorado",
    "Country_Region": "US",
    "Last_Update": "2020-08-04 04:41:59",
    "Latitude": 37.19474156,
    "Longitude": -107.04768670000001,
    "Confirmed": 33,
    "Deaths": 0,
    "Recovered": 0,
    "Active": 33,
    "Combined_Key": "Archuleta, Colorado, US",
    "Incidence_Rate": 235.2270297241428,
    "Case-Fatality_Ratio": 0
  },
  {
    "FIPS": 72013,
    "County": "Arecibo",
    "Province_State": "Puerto Rico",
    "Country_Region": "US",
    "Last_Update": "2020-08-04 04:41:59",
    "Latitude": 18.406631,
    "Longitude": -66.675077,
    "Confirmed": 262,
    "Deaths": 0,
    "Recovered": 0,
    "Active": 262,
    "Combined_Key": "Arecibo, Puerto Rico, US",
    "Incidence_Rate": 271.6715055993364,
    "Case-Fatality_Ratio": 0
  },
  {
    "FIPS": 26011,
    "County": "Arenac",
    "Province_State": "Michigan",
    "Country_Region": "US",
    "Last_Update": "2020-08-04 04:41:59",
    "Latitude": 44.0636262,
    "Longitude": -83.89277559,
    "Confirmed": 41,
    "Deaths": 3,
    "Recovered": 0,
    "Active": 38,
    "Combined_Key": "Arenac, Michigan, US",
    "Incidence_Rate": 275.4820936639118,
    "Case-Fatality_Ratio": 7.317073170731708
  },
  {
    "FIPS": 5001,
    "County": "Arkansas",
    "Province_State": "Arkansas",
    "Country_Region": "US",
    "Last_Update": "2020-08-04 04:41:59",
    "Latitude": 34.29145151,
    "Longitude": -91.37277296,
    "Confirmed": 201,
    "Deaths": 0,
    "Recovered": 0,
    "Active": 201,
    "Combined_Key": "Arkansas, Arkansas, US",
    "Incidence_Rate": 1149.4910213885394,
    "Case-Fatality_Ratio": 0
  },
  {
    "FIPS": 51013,
    "County": "Arlington",
    "Province_State": "Virginia",
    "Country_Region": "US",
    "Last_Update": "2020-08-04 04:41:59",
    "Latitude": 38.8767675,
    "Longitude": -77.10139853,
    "Confirmed": 2945,
    "Deaths": 136,
    "Recovered": 0,
    "Active": 2809,
    "Combined_Key": "Arlington, Virginia, US",
    "Incidence_Rate": 1243.4449970866656,
    "Case-Fatality_Ratio": 4.6179966044142615
  },
  {
    "FIPS": 42005,
    "County": "Armstrong",
    "Province_State": "Pennsylvania",
    "Country_Region": "US",
    "Last_Update": "2020-08-04 04:41:59",
    "Latitude": 40.81665618,
    "Longitude": -79.46290811,
    "Confirmed": 188,
    "Deaths": 6,
    "Recovered": 0,
    "Active": 182,
    "Combined_Key": "Armstrong, Pennsylvania, US",
    "Incidence_Rate": 290.41476789989963,
    "Case-Fatality_Ratio": 3.1914893617021276
  },
  {
    "FIPS": 48011,
    "County": "Armstrong",
    "Province_State": "Texas",
    "Country_Region": "US",
    "Last_Update": "2020-08-04 04:41:59",
    "Latitude": 34.96507426,
    "Longitude": -101.3574874,
    "Confirmed": 8,
    "Deaths": 0,
    "Recovered": 0,
    "Active": 8,
    "Combined_Key": "Armstrong, Texas, US",
    "Incidence_Rate": 423.9533651298357,
    "Case-Fatality_Ratio": 0
  },
  {
    "FIPS": 23003,
    "County": "Aroostook",
    "Province_State": "Maine",
    "Country_Region": "US",
    "Last_Update": "2020-08-04 04:41:59",
    "Latitude": 46.65926321,
    "Longitude": -68.59841248,
    "Confirmed": 32,
    "Deaths": 1,
    "Recovered": 0,
    "Active": 31,
    "Combined_Key": "Aroostook, Maine, US",
    "Incidence_Rate": 47.722019237938994,
    "Case-Fatality_Ratio": 3.125
  },
  {
    "FIPS": 72015,
    "County": "Arroyo",
    "Province_State": "Puerto Rico",
    "Country_Region": "US",
    "Last_Update": "2020-08-04 04:41:59",
    "Latitude": 17.998457000000005,
    "Longitude": -66.056546,
    "Confirmed": 78,
    "Deaths": 0,
    "Recovered": 0,
    "Active": 78,
    "Combined_Key": "Arroyo, Puerto Rico, US",
    "Incidence_Rate": 398.46743295019166,
    "Case-Fatality_Ratio": 0
  },
  {
    "FIPS": 31005,
    "County": "Arthur",
    "Province_State": "Nebraska",
    "Country_Region": "US",
    "Last_Update": "2020-08-04 04:41:59",
    "Latitude": 41.56896142,
    "Longitude": -101.6959559,
    "Confirmed": 0,
    "Deaths": 0,
    "Recovered": 0,
    "Active": 0,
    "Combined_Key": "Arthur, Nebraska, US",
    "Incidence_Rate": 0,
    "Case-Fatality_Ratio": null
  },
  {
    "FIPS": 22005,
    "County": "Ascension",
    "Province_State": "Louisiana",
    "Country_Region": "US",
    "Last_Update": "2020-08-04 04:41:59",
    "Latitude": 30.20406249,
    "Longitude": -90.91328409999998,
    "Confirmed": 2643,
    "Deaths": 71,
    "Recovered": 0,
    "Active": 2572,
    "Combined_Key": "Ascension, Louisiana, US",
    "Incidence_Rate": 2087.611765820985,
    "Case-Fatality_Ratio": 2.686341278849792
  },
  {
    "FIPS": 37009,
    "County": "Ashe",
    "Province_State": "North Carolina",
    "Country_Region": "US",
    "Last_Update": "2020-08-04 04:41:59",
    "Latitude": 36.43296207,
    "Longitude": -81.49862729,
    "Confirmed": 126,
    "Deaths": 1,
    "Recovered": 0,
    "Active": 125,
    "Combined_Key": "Ashe, North Carolina, US",
    "Incidence_Rate": 463.1842076241591,
    "Case-Fatality_Ratio": 0.7936507936507936
  },
  {
    "FIPS": 39005,
    "County": "Ashland",
    "Province_State": "Ohio",
    "Country_Region": "US",
    "Last_Update": "2020-08-04 04:41:59",
    "Latitude": 40.84772277,
    "Longitude": -82.27280781,
    "Confirmed": 133,
    "Deaths": 3,
    "Recovered": 0,
    "Active": 130,
    "Combined_Key": "Ashland, Ohio, US",
    "Incidence_Rate": 248.67250018697186,
    "Case-Fatality_Ratio": 2.255639097744361
  },
  {
    "FIPS": 55003,
    "County": "Ashland",
    "Province_State": "Wisconsin",
    "Country_Region": "US",
    "Last_Update": "2020-08-04 04:41:59",
    "Latitude": 46.31956891,
    "Longitude": -90.67837132,
    "Confirmed": 20,
    "Deaths": 0,
    "Recovered": 0,
    "Active": 20,
    "Combined_Key": "Ashland, Wisconsin, US",
    "Incidence_Rate": 128.51818532322324,
    "Case-Fatality_Ratio": 0
  },
  {
    "FIPS": 5003,
    "County": "Ashley",
    "Province_State": "Arkansas",
    "Country_Region": "US",
    "Last_Update": "2020-08-04 04:41:59",
    "Latitude": 33.19153461,
    "Longitude": -91.76984709999999,
    "Confirmed": 254,
    "Deaths": 4,
    "Recovered": 0,
    "Active": 250,
    "Combined_Key": "Ashley, Arkansas, US",
    "Incidence_Rate": 1292.1605534923945,
    "Case-Fatality_Ratio": 1.5748031496062993
  },
  {
    "FIPS": 39007,
    "County": "Ashtabula",
    "Province_State": "Ohio",
    "Country_Region": "US",
    "Last_Update": "2020-08-04 04:41:59",
    "Latitude": 41.70860332,
    "Longitude": -80.74830218,
    "Confirmed": 539,
    "Deaths": 45,
    "Recovered": 0,
    "Active": 494,
    "Combined_Key": "Ashtabula, Ohio, US",
    "Incidence_Rate": 554.2929422774345,
    "Case-Fatality_Ratio": 8.348794063079778
  },
  {
    "FIPS": 53003,
    "County": "Asotin",
    "Province_State": "Washington",
    "Country_Region": "US",
    "Last_Update": "2020-08-04 04:41:59",
    "Latitude": 46.18894415,
    "Longitude": -117.2022851,
    "Confirmed": 24,
    "Deaths": 2,
    "Recovered": 0,
    "Active": 22,
    "Combined_Key": "Asotin, Washington, US",
    "Incidence_Rate": 106.27933752546276,
    "Case-Fatality_Ratio": 8.333333333333334
  },
  {
    "FIPS": 22007,
    "County": "Assumption",
    "Province_State": "Louisiana",
    "Country_Region": "US",
    "Last_Update": "2020-08-04 04:41:59",
    "Latitude": 29.89946234,
    "Longitude": -91.06461642,
    "Confirmed": 555,
    "Deaths": 20,
    "Recovered": 0,
    "Active": 535,
    "Combined_Key": "Assumption, Louisiana, US",
    "Incidence_Rate": 2535.2884747156368,
    "Case-Fatality_Ratio": 3.6036036036036037
  },
  {
    "FIPS": 48013,
    "County": "Atascosa",
    "Province_State": "Texas",
    "Country_Region": "US",
    "Last_Update": "2020-08-04 04:41:59",
    "Latitude": 28.89333001,
    "Longitude": -98.52730485,
    "Confirmed": 405,
    "Deaths": 15,
    "Recovered": 0,
    "Active": 390,
    "Combined_Key": "Atascosa, Texas, US",
    "Incidence_Rate": 791.7424197994252,
    "Case-Fatality_Ratio": 3.7037037037037037
  },
  {
    "FIPS": 20005,
    "County": "Atchison",
    "Province_State": "Kansas",
    "Country_Region": "US",
    "Last_Update": "2020-08-04 04:41:59",
    "Latitude": 39.53185661,
    "Longitude": -95.30870026,
    "Confirmed": 62,
    "Deaths": 0,
    "Recovered": 0,
    "Active": 62,
    "Combined_Key": "Atchison, Kansas, US",
    "Incidence_Rate": 385.7400609718161,
    "Case-Fatality_Ratio": 0
  },
  {
    "FIPS": 29005,
    "County": "Atchison",
    "Province_State": "Missouri",
    "Country_Region": "US",
    "Last_Update": "2020-08-04 04:41:59",
    "Latitude": 40.43238737,
    "Longitude": -95.42970639,
    "Confirmed": 12,
    "Deaths": 0,
    "Recovered": 0,
    "Active": 12,
    "Combined_Key": "Atchison, Missouri, US",
    "Incidence_Rate": 233.326852031888,
    "Case-Fatality_Ratio": 0
  },
  {
    "FIPS": 39009,
    "County": "Athens",
    "Province_State": "Ohio",
    "Country_Region": "US",
    "Last_Update": "2020-08-04 04:41:59",
    "Latitude": 39.33425634,
    "Longitude": -82.04278644,
    "Confirmed": 345,
    "Deaths": 1,
    "Recovered": 0,
    "Active": 344,
    "Combined_Key": "Athens, Ohio, US",
    "Incidence_Rate": 528.1124190610315,
    "Case-Fatality_Ratio": 0.2898550724637681
  },
  {
    "FIPS": 13003,
    "County": "Atkinson",
    "Province_State": "Georgia",
    "Country_Region": "US",
    "Last_Update": "2020-08-04 04:41:59",
    "Latitude": 31.29633502,
    "Longitude": -82.87545866,
    "Confirmed": 296,
    "Deaths": 2,
    "Recovered": 0,
    "Active": 294,
    "Combined_Key": "Atkinson, Georgia, US",
    "Incidence_Rate": 3625.229638701776,
    "Case-Fatality_Ratio": 0.6756756756756757
  },
  {
    "FIPS": 34001,
    "County": "Atlantic",
    "Province_State": "New Jersey",
    "Country_Region": "US",
    "Last_Update": "2020-08-04 04:41:59",
    "Latitude": 39.47538693,
    "Longitude": -74.65848483,
    "Confirmed": 3408,
    "Deaths": 252,
    "Recovered": 0,
    "Active": 3156,
    "Combined_Key": "Atlantic, New Jersey, US",
    "Incidence_Rate": 1292.5247468426442,
    "Case-Fatality_Ratio": 7.394366197183099
  },
  {
    "FIPS": 40005,
    "County": "Atoka",
    "Province_State": "Oklahoma",
    "Country_Region": "US",
    "Last_Update": "2020-08-04 04:41:59",
    "Latitude": 34.37366573,
    "Longitude": -96.03802487,
    "Confirmed": 64,
    "Deaths": 0,
    "Recovered": 0,
    "Active": 64,
    "Combined_Key": "Atoka, Oklahoma, US",
    "Incidence_Rate": 465.1838930077046,
    "Case-Fatality_Ratio": 0
  },
  {
    "FIPS": 28007,
    "County": "Attala",
    "Province_State": "Mississippi",
    "Country_Region": "US",
    "Last_Update": "2020-08-04 04:41:59",
    "Latitude": 33.08658803,
    "Longitude": -89.57838564,
    "Confirmed": 498,
    "Deaths": 24,
    "Recovered": 0,
    "Active": 474,
    "Combined_Key": "Attala, Mississippi, US",
    "Incidence_Rate": 2740.178276658964,
    "Case-Fatality_Ratio": 4.819277108433735
  },
  {
    "FIPS": 29007,
    "County": "Audrain",
    "Province_State": "Missouri",
    "Country_Region": "US",
    "Last_Update": "2020-08-04 04:41:59",
    "Latitude": 39.215877,
    "Longitude": -91.84242683,
    "Confirmed": 194,
    "Deaths": 1,
    "Recovered": 0,
    "Active": 193,
    "Combined_Key": "Audrain, Missouri, US",
    "Incidence_Rate": 764.1405388372459,
    "Case-Fatality_Ratio": 0.5154639175257731
  },
  {
    "FIPS": 19009,
    "County": "Audubon",
    "Province_State": "Iowa",
    "Country_Region": "US",
    "Last_Update": "2020-08-04 04:41:59",
    "Latitude": 41.6844628,
    "Longitude": -94.90581859,
    "Confirmed": 28,
    "Deaths": 1,
    "Recovered": 0,
    "Active": 27,
    "Combined_Key": "Audubon, Iowa, US",
    "Incidence_Rate": 509.4614264919942,
    "Case-Fatality_Ratio": 3.5714285714285716
  },
  {
    "FIPS": 39011,
    "County": "Auglaize",
    "Province_State": "Ohio",
    "Country_Region": "US",
    "Last_Update": "2020-08-04 04:41:59",
    "Latitude": 40.55998859,
    "Longitude": -84.22421429999999,
    "Confirmed": 222,
    "Deaths": 5,
    "Recovered": 0,
    "Active": 217,
    "Combined_Key": "Auglaize, Ohio, US",
    "Incidence_Rate": 486.24496232696686,
    "Case-Fatality_Ratio": 2.2522522522522523
  },
  {
    "FIPS": 51015,
    "County": "Augusta",
    "Province_State": "Virginia",
    "Country_Region": "US",
    "Last_Update": "2020-08-04 04:41:59",
    "Latitude": 38.16404586,
    "Longitude": -79.12461614,
    "Confirmed": 253,
    "Deaths": 4,
    "Recovered": 0,
    "Active": 249,
    "Combined_Key": "Augusta, Virginia, US",
    "Incidence_Rate": 334.84210804944547,
    "Case-Fatality_Ratio": 1.5810276679841897
  },
  {
    "FIPS": 46003,
    "County": "Aurora",
    "Province_State": "South Dakota",
    "Country_Region": "US",
    "Last_Update": "2020-08-04 04:41:59",
    "Latitude": 43.71757685,
    "Longitude": -98.56050467,
    "Confirmed": 38,
    "Deaths": 0,
    "Recovered": 0,
    "Active": 38,
    "Combined_Key": "Aurora, South Dakota, US",
    "Incidence_Rate": 1381.315885132679,
    "Case-Fatality_Ratio": 0
  },
  {
    "FIPS": 48015,
    "County": "Austin",
    "Province_State": "Texas",
    "Country_Region": "US",
    "Last_Update": "2020-08-04 04:41:59",
    "Latitude": 29.88548725,
    "Longitude": -96.27736949,
    "Confirmed": 213,
    "Deaths": 3,
    "Recovered": 0,
    "Active": 210,
    "Combined_Key": "Austin, Texas, US",
    "Incidence_Rate": 709.24347362813,
    "Case-Fatality_Ratio": 1.408450704225352
  },
  {
    "FIPS": 1001,
    "County": "Autauga",
    "Province_State": "Alabama",
    "Country_Region": "US",
    "Last_Update": "2020-08-04 04:41:59",
    "Latitude": 32.53952745,
    "Longitude": -86.64408227,
    "Confirmed": 1024,
    "Deaths": 20,
    "Recovered": 0,
    "Active": 1004,
    "Combined_Key": "Autauga, Alabama, US",
    "Incidence_Rate": 1832.8590094685785,
    "Case-Fatality_Ratio": 1.953125
  },
  {
    "FIPS": 37011,
    "County": "Avery",
    "Province_State": "North Carolina",
    "Country_Region": "US",
    "Last_Update": "2020-08-04 04:41:59",
    "Latitude": 36.07569796,
    "Longitude": -81.92308483,
    "Confirmed": 99,
    "Deaths": 0,
    "Recovered": 0,
    "Active": 99,
    "Combined_Key": "Avery, North Carolina, US",
    "Incidence_Rate": 563.8776556359287,
    "Case-Fatality_Ratio": 0
  },
  {
    "FIPS": 22009,
    "County": "Avoyelles",
    "Province_State": "Louisiana",
    "Country_Region": "US",
    "Last_Update": "2020-08-04 04:41:59",
    "Latitude": 31.07796211,
    "Longitude": -92.00079449,
    "Confirmed": 951,
    "Deaths": 27,
    "Recovered": 0,
    "Active": 924,
    "Combined_Key": "Avoyelles, Louisiana, US",
    "Incidence_Rate": 2368.971701873257,
    "Case-Fatality_Ratio": 2.8391167192429023
  },
  {
    "FIPS": 8009,
    "County": "Baca",
    "Province_State": "Colorado",
    "Country_Region": "US",
    "Last_Update": "2020-08-04 04:41:59",
    "Latitude": 37.31940883,
    "Longitude": -102.5603223,
    "Confirmed": 14,
    "Deaths": 0,
    "Recovered": 0,
    "Active": 14,
    "Combined_Key": "Baca, Colorado, US",
    "Incidence_Rate": 390.9522479754258,
    "Case-Fatality_Ratio": 0
  },
  {
    "FIPS": 13005,
    "County": "Bacon",
    "Province_State": "Georgia",
    "Country_Region": "US",
    "Last_Update": "2020-08-04 04:41:59",
    "Latitude": 31.55456473,
    "Longitude": -82.45936528,
    "Confirmed": 415,
    "Deaths": 6,
    "Recovered": 0,
    "Active": 409,
    "Combined_Key": "Bacon, Georgia, US",
    "Incidence_Rate": 3717.305625223934,
    "Case-Fatality_Ratio": 1.4457831325301205
  },
  {
    "FIPS": 48017,
    "County": "Bailey",
    "Province_State": "Texas",
    "Country_Region": "US",
    "Last_Update": "2020-08-04 04:41:59",
    "Latitude": 34.06854817,
    "Longitude": -102.8299707,
    "Confirmed": 158,
    "Deaths": 4,
    "Recovered": 0,
    "Active": 154,
    "Combined_Key": "Bailey, Texas, US",
    "Incidence_Rate": 2257.142857142857,
    "Case-Fatality_Ratio": 2.5316455696202533
  },
  {
    "FIPS": 12003,
    "County": "Baker",
    "Province_State": "Florida",
    "Country_Region": "US",
    "Last_Update": "2020-08-04 04:41:59",
    "Latitude": 30.33060121,
    "Longitude": -82.28467476,
    "Confirmed": 403,
    "Deaths": 4,
    "Recovered": 0,
    "Active": 399,
    "Combined_Key": "Baker, Florida, US",
    "Incidence_Rate": 1379.6644984594318,
    "Case-Fatality_Ratio": 0.9925558312655087
  },
  {
    "FIPS": 13007,
    "County": "Baker",
    "Province_State": "Georgia",
    "Country_Region": "US",
    "Last_Update": "2020-08-04 04:41:59",
    "Latitude": 31.32669878,
    "Longitude": -84.44218806,
    "Confirmed": 58,
    "Deaths": 3,
    "Recovered": 0,
    "Active": 55,
    "Combined_Key": "Baker, Georgia, US",
    "Incidence_Rate": 1909.1507570770245,
    "Case-Fatality_Ratio": 5.172413793103448
  },
  {
    "FIPS": 41001,
    "County": "Baker",
    "Province_State": "Oregon",
    "Country_Region": "US",
    "Last_Update": "2020-08-04 04:41:59",
    "Latitude": 44.70915557,
    "Longitude": -117.6749883,
    "Confirmed": 33,
    "Deaths": 0,
    "Recovered": 0,
    "Active": 33,
    "Combined_Key": "Baker, Oregon, US",
    "Incidence_Rate": 204.6638551227983,
    "Case-Fatality_Ratio": 0
  },
  {
    "FIPS": 1003,
    "County": "Baldwin",
    "Province_State": "Alabama",
    "Country_Region": "US",
    "Last_Update": "2020-08-04 04:41:59",
    "Latitude": 30.72774991,
    "Longitude": -87.72207058,
    "Confirmed": 3210,
    "Deaths": 23,
    "Recovered": 0,
    "Active": 3187,
    "Combined_Key": "Baldwin, Alabama, US",
    "Incidence_Rate": 1437.9529999910405,
    "Case-Fatality_Ratio": 0.7165109034267912
  },
  {
    "FIPS": 13009,
    "County": "Baldwin",
    "Province_State": "Georgia",
    "Country_Region": "US",
    "Last_Update": "2020-08-04 04:41:59",
    "Latitude": 33.06882326,
    "Longitude": -83.24701748,
    "Confirmed": 972,
    "Deaths": 38,
    "Recovered": 0,
    "Active": 934,
    "Combined_Key": "Baldwin, Georgia, US",
    "Incidence_Rate": 2165.2929382936068,
    "Case-Fatality_Ratio": 3.909465020576132
  },
  {
    "FIPS": 21007,
    "County": "Ballard",
    "Province_State": "Kentucky",
    "Country_Region": "US",
    "Last_Update": "2020-08-04 04:41:59",
    "Latitude": 37.05842757,
    "Longitude": -88.99427697,
    "Confirmed": 31,
    "Deaths": 0,
    "Recovered": 0,
    "Active": 31,
    "Combined_Key": "Ballard, Kentucky, US",
    "Incidence_Rate": 393.00202839756594,
    "Case-Fatality_Ratio": 0
  },
  {
    "FIPS": 24005,
    "County": "Baltimore",
    "Province_State": "Maryland",
    "Country_Region": "US",
    "Last_Update": "2020-08-04 04:41:59",
    "Latitude": 39.45784712,
    "Longitude": -76.62911955,
    "Confirmed": 12401,
    "Deaths": 551,
    "Recovered": 0,
    "Active": 11850,
    "Combined_Key": "Baltimore, Maryland, US",
    "Incidence_Rate": 1498.845740116272,
    "Case-Fatality_Ratio": 4.443190065317313
  },
  {
    "FIPS": 24510,
    "County": "Baltimore City",
    "Province_State": "Maryland",
    "Country_Region": "US",
    "Last_Update": "2020-08-04 04:41:59",
    "Latitude": 39.30211911,
    "Longitude": -76.61151012,
    "Confirmed": 11748,
    "Deaths": 413,
    "Recovered": 0,
    "Active": 11335,
    "Combined_Key": "Baltimore City, Maryland, US",
    "Incidence_Rate": 1979.477329019865,
    "Case-Fatality_Ratio": 3.515491998638066
  },
  {
    "FIPS": 45009,
    "County": "Bamberg",
    "Province_State": "South Carolina",
    "Country_Region": "US",
    "Last_Update": "2020-08-04 04:41:59",
    "Latitude": 33.21927586,
    "Longitude": -81.05659969,
    "Confirmed": 446,
    "Deaths": 17,
    "Recovered": 0,
    "Active": 429,
    "Combined_Key": "Bamberg, South Carolina, US",
    "Incidence_Rate": 3170.766387032561,
    "Case-Fatality_Ratio": 3.811659192825112
  },
  {
    "FIPS": 48019,
    "County": "Bandera",
    "Province_State": "Texas",
    "Country_Region": "US",
    "Last_Update": "2020-08-04 04:41:59",
    "Latitude": 29.74619598,
    "Longitude": -99.24598147,
    "Confirmed": 83,
    "Deaths": 3,
    "Recovered": 0,
    "Active": 80,
    "Combined_Key": "Bandera, Texas, US",
    "Incidence_Rate": 359.1208030460366,
    "Case-Fatality_Ratio": 3.6144578313253013
  },
  {
    "FIPS": 13011,
    "County": "Banks",
    "Province_State": "Georgia",
    "Country_Region": "US",
    "Last_Update": "2020-08-04 04:41:59",
    "Latitude": 34.35607081,
    "Longitude": -83.49644388,
    "Confirmed": 244,
    "Deaths": 3,
    "Recovered": 0,
    "Active": 241,
    "Combined_Key": "Banks, Georgia, US",
    "Incidence_Rate": 1268.586877404596,
    "Case-Fatality_Ratio": 1.2295081967213115
  },
  {
    "FIPS": 31007,
    "County": "Banner",
    "Province_State": "Nebraska",
    "Country_Region": "US",
    "Last_Update": "2020-08-04 04:41:59",
    "Latitude": 41.54634427,
    "Longitude": -103.7114332,
    "Confirmed": 2,
    "Deaths": 0,
    "Recovered": 0,
    "Active": 2,
    "Combined_Key": "Banner, Nebraska, US",
    "Incidence_Rate": 268.4563758389262,
    "Case-Fatality_Ratio": 0
  },
  {
    "FIPS": 16005,
    "County": "Bannock",
    "Province_State": "Idaho",
    "Country_Region": "US",
    "Last_Update": "2020-08-04 04:41:59",
    "Latitude": 42.67002716,
    "Longitude": -112.2233311,
    "Confirmed": 312,
    "Deaths": 2,
    "Recovered": 0,
    "Active": 310,
    "Combined_Key": "Bannock, Idaho, US",
    "Incidence_Rate": 355.3206997084548,
    "Case-Fatality_Ratio": 0.6410256410256411
  },
  {
    "FIPS": 26013,
    "County": "Baraga",
    "Province_State": "Michigan",
    "Country_Region": "US",
    "Last_Update": "2020-08-04 04:41:59",
    "Latitude": 46.6720582,
    "Longitude": -88.36363591,
    "Confirmed": 5,
    "Deaths": 0,
    "Recovered": 0,
    "Active": 5,
    "Combined_Key": "Baraga, Michigan, US",
    "Incidence_Rate": 60.9087586794981,
    "Case-Fatality_Ratio": 0
  },
  {
    "FIPS": 20007,
    "County": "Barber",
    "Province_State": "Kansas",
    "Country_Region": "US",
    "Last_Update": "2020-08-04 04:41:59",
    "Latitude": 37.2288586,
    "Longitude": -98.68460053,
    "Confirmed": 4,
    "Deaths": 0,
    "Recovered": 0,
    "Active": 4,
    "Combined_Key": "Barber, Kansas, US",
    "Incidence_Rate": 90.35464196973119,
    "Case-Fatality_Ratio": 0
  },
  {
    "FIPS": 1005,
    "County": "Barbour",
    "Province_State": "Alabama",
    "Country_Region": "US",
    "Last_Update": "2020-08-04 04:41:59",
    "Latitude": 31.868263,
    "Longitude": -85.3871286,
    "Confirmed": 563,
    "Deaths": 5,
    "Recovered": 0,
    "Active": 558,
    "Combined_Key": "Barbour, Alabama, US",
    "Incidence_Rate": 2280.644899943288,
    "Case-Fatality_Ratio": 0.8880994671403197
  },
  {
    "FIPS": 54001,
    "County": "Barbour",
    "Province_State": "West Virginia",
    "Country_Region": "US",
    "Last_Update": "2020-08-04 04:41:59",
    "Latitude": 39.1307219,
    "Longitude": -80.00350858,
    "Confirmed": 29,
    "Deaths": 1,
    "Recovered": 0,
    "Active": 28,
    "Combined_Key": "Barbour, West Virginia, US",
    "Incidence_Rate": 176.38829754881093,
    "Case-Fatality_Ratio": 3.4482758620689653
  },
  {
    "FIPS": 72017,
    "County": "Barceloneta",
    "Province_State": "Puerto Rico",
    "Country_Region": "US",
    "Last_Update": "2020-08-04 04:41:59",
    "Latitude": 18.445532999999998,
    "Longitude": -66.56053100000001,
    "Confirmed": 73,
    "Deaths": 0,
    "Recovered": 0,
    "Active": 73,
    "Combined_Key": "Barceloneta, Puerto Rico, US",
    "Incidence_Rate": 294.1650548033527,
    "Case-Fatality_Ratio": 0
  },
  {
    "FIPS": 38003,
    "County": "Barnes",
    "Province_State": "North Dakota",
    "Country_Region": "US",
    "Last_Update": "2020-08-04 04:41:59",
    "Latitude": 46.93579637,
    "Longitude": -98.06605978,
    "Confirmed": 34,
    "Deaths": 0,
    "Recovered": 0,
    "Active": 34,
    "Combined_Key": "Barnes, North Dakota, US",
    "Incidence_Rate": 326.4522323571772,
    "Case-Fatality_Ratio": 0
  },
  {
    "FIPS": 25001,
    "County": "Barnstable",
    "Province_State": "Massachusetts",
    "Country_Region": "US",
    "Last_Update": "2020-08-04 04:41:59",
    "Latitude": 41.72980578,
    "Longitude": -70.28854339,
    "Confirmed": 1764,
    "Deaths": 157,
    "Recovered": 0,
    "Active": 1607,
    "Combined_Key": "Barnstable, Massachusetts, US",
    "Incidence_Rate": 828.2078970843703,
    "Case-Fatality_Ratio": 8.900226757369614
  },
  {
    "FIPS": 45011,
    "County": "Barnwell",
    "Province_State": "South Carolina",
    "Country_Region": "US",
    "Last_Update": "2020-08-04 04:41:59",
    "Latitude": 33.26679302,
    "Longitude": -81.43584352,
    "Confirmed": 369,
    "Deaths": 4,
    "Recovered": 0,
    "Active": 365,
    "Combined_Key": "Barnwell, South Carolina, US",
    "Incidence_Rate": 1768.4271062973255,
    "Case-Fatality_Ratio": 1.084010840108401
  },
  {
    "FIPS": 72019,
    "County": "Barranquitas",
    "Province_State": "Puerto Rico",
    "Country_Region": "US",
    "Last_Update": "2020-08-04 04:41:59",
    "Latitude": 18.201592,
    "Longitude": -66.30963,
    "Confirmed": 217,
    "Deaths": 0,
    "Recovered": 0,
    "Active": 217,
    "Combined_Key": "Barranquitas, Puerto Rico, US",
    "Incidence_Rate": 715.7464212678937,
    "Case-Fatality_Ratio": 0
  },
  {
    "FIPS": 21009,
    "County": "Barren",
    "Province_State": "Kentucky",
    "Country_Region": "US",
    "Last_Update": "2020-08-04 04:41:59",
    "Latitude": 36.96469836,
    "Longitude": -85.93338945,
    "Confirmed": 334,
    "Deaths": 2,
    "Recovered": 0,
    "Active": 332,
    "Combined_Key": "Barren, Kentucky, US",
    "Incidence_Rate": 754.8193179506883,
    "Case-Fatality_Ratio": 0.5988023952095808
  },
  {
    "FIPS": 55005,
    "County": "Barron",
    "Province_State": "Wisconsin",
    "Country_Region": "US",
    "Last_Update": "2020-08-04 04:41:59",
    "Latitude": 45.42372701,
    "Longitude": -91.84833627,
    "Confirmed": 259,
    "Deaths": 3,
    "Recovered": 0,
    "Active": 256,
    "Combined_Key": "Barron, Wisconsin, US",
    "Incidence_Rate": 572.4515957917072,
    "Case-Fatality_Ratio": 1.1583011583011582
  },
  {
    "FIPS": 13013,
    "County": "Barrow",
    "Province_State": "Georgia",
    "Country_Region": "US",
    "Last_Update": "2020-08-04 04:41:59",
    "Latitude": 33.99148694,
    "Longitude": -83.71436292,
    "Confirmed": 1127,
    "Deaths": 32,
    "Recovered": 0,
    "Active": 1095,
    "Combined_Key": "Barrow, Georgia, US",
    "Incidence_Rate": 1353.916386352715,
    "Case-Fatality_Ratio": 2.839396628216504
  },
  {
    "FIPS": 26015,
    "County": "Barry",
    "Province_State": "Michigan",
    "Country_Region": "US",
    "Last_Update": "2020-08-04 04:41:59",
    "Latitude": 42.59513984,
    "Longitude": -85.30834519,
    "Confirmed": 172,
    "Deaths": 2,
    "Recovered": 0,
    "Active": 170,
    "Combined_Key": "Barry, Michigan, US",
    "Incidence_Rate": 279.44760357432983,
    "Case-Fatality_Ratio": 1.1627906976744187
  },
  {
    "FIPS": 29009,
    "County": "Barry",
    "Province_State": "Missouri",
    "Country_Region": "US",
    "Last_Update": "2020-08-04 04:41:59",
    "Latitude": 36.70978521,
    "Longitude": -93.82919888,
    "Confirmed": 230,
    "Deaths": 0,
    "Recovered": 0,
    "Active": 230,
    "Combined_Key": "Barry, Missouri, US",
    "Incidence_Rate": 642.6555645589427,
    "Case-Fatality_Ratio": 0
  },
  {
    "FIPS": 18005,
    "County": "Bartholomew",
    "Province_State": "Indiana",
    "Country_Region": "US",
    "Last_Update": "2020-08-04 04:41:59",
    "Latitude": 39.20744865,
    "Longitude": -85.89558181,
    "Confirmed": 743,
    "Deaths": 47,
    "Recovered": 0,
    "Active": 696,
    "Combined_Key": "Bartholomew, Indiana, US",
    "Incidence_Rate": 886.8570882918152,
    "Case-Fatality_Ratio": 6.325706594885599
  },
  {
    "FIPS": 20009,
    "County": "Barton",
    "Province_State": "Kansas",
    "Country_Region": "US",
    "Last_Update": "2020-08-04 04:41:59",
    "Latitude": 38.47889676,
    "Longitude": -98.75636726,
    "Confirmed": 116,
    "Deaths": 3,
    "Recovered": 0,
    "Active": 113,
    "Combined_Key": "Barton, Kansas, US",
    "Incidence_Rate": 449.978664804686,
    "Case-Fatality_Ratio": 2.586206896551724
  },
  {
    "FIPS": 29011,
    "County": "Barton",
    "Province_State": "Missouri",
    "Country_Region": "US",
    "Last_Update": "2020-08-04 04:41:59",
    "Latitude": 37.50207671,
    "Longitude": -94.34757022,
    "Confirmed": 65,
    "Deaths": 0,
    "Recovered": 0,
    "Active": 65,
    "Combined_Key": "Barton, Missouri, US",
    "Incidence_Rate": 553.0032329419771,
    "Case-Fatality_Ratio": 0
  },
  {
    "FIPS": 13015,
    "County": "Bartow",
    "Province_State": "Georgia",
    "Country_Region": "US",
    "Last_Update": "2020-08-04 04:41:59",
    "Latitude": 34.23732119,
    "Longitude": -84.83887523,
    "Confirmed": 1618,
    "Deaths": 60,
    "Recovered": 0,
    "Active": 1558,
    "Combined_Key": "Bartow, Georgia, US",
    "Incidence_Rate": 1501.7913827990124,
    "Case-Fatality_Ratio": 3.708281829419036
  },
  {
    "FIPS": 48021,
    "County": "Bastrop",
    "Province_State": "Texas",
    "Country_Region": "US",
    "Last_Update": "2020-08-04 04:41:59",
    "Latitude": 30.10370699,
    "Longitude": -97.31206354,
    "Confirmed": 1296,
    "Deaths": 18,
    "Recovered": 0,
    "Active": 1278,
    "Combined_Key": "Bastrop, Texas, US",
    "Incidence_Rate": 1460.7260800468875,
    "Case-Fatality_Ratio": 1.3888888888888888
  },
  {
    "FIPS": 29013,
    "County": "Bates",
    "Province_State": "Missouri",
    "Country_Region": "US",
    "Last_Update": "2020-08-04 04:41:59",
    "Latitude": 38.25271289,
    "Longitude": -94.34113157,
    "Confirmed": 40,
    "Deaths": 1,
    "Recovered": 0,
    "Active": 39,
    "Combined_Key": "Bates, Missouri, US",
    "Incidence_Rate": 247.3410833539451,
    "Case-Fatality_Ratio": 2.5
  },
  {
    "FIPS": 21011,
    "County": "Bath",
    "Province_State": "Kentucky",
    "Country_Region": "US",
    "Last_Update": "2020-08-04 04:41:59",
    "Latitude": 38.14735938,
    "Longitude": -83.74588932,
    "Confirmed": 35,
    "Deaths": 1,
    "Recovered": 0,
    "Active": 34,
    "Combined_Key": "Bath, Kentucky, US",
    "Incidence_Rate": 280,
    "Case-Fatality_Ratio": 2.857142857142857
  },
  {
    "FIPS": 51017,
    "County": "Bath",
    "Province_State": "Virginia",
    "Country_Region": "US",
    "Last_Update": "2020-08-04 04:41:59",
    "Latitude": 38.05852573,
    "Longitude": -79.73912095,
    "Confirmed": 4,
    "Deaths": 0,
    "Recovered": 0,
    "Active": 4,
    "Combined_Key": "Bath, Virginia, US",
    "Incidence_Rate": 96.45526886906195,
    "Case-Fatality_Ratio": 0
  },
  {
    "FIPS": 5005,
    "County": "Baxter",
    "Province_State": "Arkansas",
    "Country_Region": "US",
    "Last_Update": "2020-08-04 04:41:59",
    "Latitude": 36.28784385,
    "Longitude": -92.33782872,
    "Confirmed": 62,
    "Deaths": 0,
    "Recovered": 0,
    "Active": 62,
    "Combined_Key": "Baxter, Arkansas, US",
    "Incidence_Rate": 147.85843747018984,
    "Case-Fatality_Ratio": 0
  },
  {
    "FIPS": 12005,
    "County": "Bay",
    "Province_State": "Florida",
    "Country_Region": "US",
    "Last_Update": "2020-08-04 04:41:59",
    "Latitude": 30.26548745,
    "Longitude": -85.62122584,
    "Confirmed": 3701,
    "Deaths": 22,
    "Recovered": 0,
    "Active": 3679,
    "Combined_Key": "Bay, Florida, US",
    "Incidence_Rate": 2118.42820754987,
    "Case-Fatality_Ratio": 0.5944339367738449
  },
  {
    "FIPS": 26017,
    "County": "Bay",
    "Province_State": "Michigan",
    "Country_Region": "US",
    "Last_Update": "2020-08-04 04:41:59",
    "Latitude": 43.70639106,
    "Longitude": -83.98731479,
    "Confirmed": 550,
    "Deaths": 31,
    "Recovered": 0,
    "Active": 519,
    "Combined_Key": "Bay, Michigan, US",
    "Incidence_Rate": 533.3281616663111,
    "Case-Fatality_Ratio": 5.636363636363637
  },
  {
    "FIPS": 72021,
    "County": "Bayamon",
    "Province_State": "Puerto Rico",
    "Country_Region": "US",
    "Last_Update": "2020-08-04 04:41:59",
    "Latitude": 18.34946,
    "Longitude": -66.168435,
    "Confirmed": 1209,
    "Deaths": 0,
    "Recovered": 0,
    "Active": 1209,
    "Combined_Key": "Bayamon, Puerto Rico, US",
    "Incidence_Rate": 580.9260220261777,
    "Case-Fatality_Ratio": 0
  },
  {
    "FIPS": 55007,
    "County": "Bayfield",
    "Province_State": "Wisconsin",
    "Country_Region": "US",
    "Last_Update": "2020-08-04 04:41:59",
    "Latitude": 46.52868768,
    "Longitude": -91.19716729,
    "Confirmed": 20,
    "Deaths": 1,
    "Recovered": 0,
    "Active": 19,
    "Combined_Key": "Bayfield, Wisconsin, US",
    "Incidence_Rate": 133.01409949454643,
    "Case-Fatality_Ratio": 5
  },
  {
    "FIPS": 48023,
    "County": "Baylor",
    "Province_State": "Texas",
    "Country_Region": "US",
    "Last_Update": "2020-08-04 04:41:59",
    "Latitude": 33.61640794,
    "Longitude": -99.21352901,
    "Confirmed": 7,
    "Deaths": 0,
    "Recovered": 0,
    "Active": 7,
    "Combined_Key": "Baylor, Texas, US",
    "Incidence_Rate": 199.48703334283272,
    "Case-Fatality_Ratio": 0
  },
  {
    "FIPS": 46005,
    "County": "Beadle",
    "Province_State": "South Dakota",
    "Country_Region": "US",
    "Last_Update": "2020-08-04 04:41:59",
    "Latitude": 44.41464384,
    "Longitude": -98.27858469,
    "Confirmed": 587,
    "Deaths": 9,
    "Recovered": 0,
    "Active": 578,
    "Combined_Key": "Beadle, South Dakota, US",
    "Incidence_Rate": 3181.054571072454,
    "Case-Fatality_Ratio": 1.5332197614991483
  },
  {
    "FIPS": 16007,
    "County": "Bear Lake",
    "Province_State": "Idaho",
    "Country_Region": "US",
    "Last_Update": "2020-08-04 04:41:59",
    "Latitude": 42.28269683,
    "Longitude": -111.32892379999998,
    "Confirmed": 7,
    "Deaths": 0,
    "Recovered": 0,
    "Active": 7,
    "Combined_Key": "Bear Lake, Idaho, US",
    "Incidence_Rate": 114.28571428571428,
    "Case-Fatality_Ratio": 0
  },
  {
    "FIPS": null,
    "County": "Bear River",
    "Province_State": "Utah",
    "Country_Region": "US",
    "Last_Update": "2020-08-04 04:41:59",
    "Latitude": 41.52106798,
    "Longitude": -113.08328159999999,
    "Confirmed": 2198,
    "Deaths": 6,
    "Recovered": 0,
    "Active": 2192,
    "Combined_Key": "Bear River, Utah, US",
    "Incidence_Rate": 1176.5461572225374,
    "Case-Fatality_Ratio": 0.272975432211101
  },
  {
    "FIPS": 37013,
    "County": "Beaufort",
    "Province_State": "North Carolina",
    "Country_Region": "US",
    "Last_Update": "2020-08-04 04:41:59",
    "Latitude": 35.48531943,
    "Longitude": -76.84325809,
    "Confirmed": 373,
    "Deaths": 2,
    "Recovered": 0,
    "Active": 371,
    "Combined_Key": "Beaufort, North Carolina, US",
    "Incidence_Rate": 793.7183470230243,
    "Case-Fatality_Ratio": 0.5361930294906166
  },
  {
    "FIPS": 45013,
    "County": "Beaufort",
    "Province_State": "South Carolina",
    "Country_Region": "US",
    "Last_Update": "2020-08-04 04:41:59",
    "Latitude": 32.39226291,
    "Longitude": -80.72619758,
    "Confirmed": 3682,
    "Deaths": 49,
    "Recovered": 0,
    "Active": 3633,
    "Combined_Key": "Beaufort, South Carolina, US",
    "Incidence_Rate": 1916.4905632879108,
    "Case-Fatality_Ratio": 1.3307984790874525
  },
  {
    "FIPS": 22011,
    "County": "Beauregard",
    "Province_State": "Louisiana",
    "Country_Region": "US",
    "Last_Update": "2020-08-04 04:41:59",
    "Latitude": 30.64836518,
    "Longitude": -93.34173616,
    "Confirmed": 789,
    "Deaths": 17,
    "Recovered": 0,
    "Active": 772,
    "Combined_Key": "Beauregard, Louisiana, US",
    "Incidence_Rate": 2104.1683334666773,
    "Case-Fatality_Ratio": 2.1546261089987326
  },
  {
    "FIPS": 40007,
    "County": "Beaver",
    "Province_State": "Oklahoma",
    "Country_Region": "US",
    "Last_Update": "2020-08-04 04:41:59",
    "Latitude": 36.7496847,
    "Longitude": -100.4758872,
    "Confirmed": 36,
    "Deaths": 0,
    "Recovered": 0,
    "Active": 36,
    "Combined_Key": "Beaver, Oklahoma, US",
    "Incidence_Rate": 677.8384485031067,
    "Case-Fatality_Ratio": 0
  },
  {
    "FIPS": 42007,
    "County": "Beaver",
    "Province_State": "Pennsylvania",
    "Country_Region": "US",
    "Last_Update": "2020-08-04 04:41:59",
    "Latitude": 40.6825484,
    "Longitude": -80.34921611,
    "Confirmed": 1237,
    "Deaths": 89,
    "Recovered": 0,
    "Active": 1148,
    "Combined_Key": "Beaver, Pennsylvania, US",
    "Incidence_Rate": 754.5949770937417,
    "Case-Fatality_Ratio": 7.19482619240097
  },
  {
    "FIPS": 30001,
    "County": "Beaverhead",
    "Province_State": "Montana",
    "Country_Region": "US",
    "Last_Update": "2020-08-04 04:41:59",
    "Latitude": 45.13434354,
    "Longitude": -112.8984694,
    "Confirmed": 47,
    "Deaths": 0,
    "Recovered": 0,
    "Active": 47,
    "Combined_Key": "Beaverhead, Montana, US",
    "Incidence_Rate": 497.1966571458796,
    "Case-Fatality_Ratio": 0
  },
  {
    "FIPS": 27005,
    "County": "Becker",
    "Province_State": "Minnesota",
    "Country_Region": "US",
    "Last_Update": "2020-08-04 04:41:59",
    "Latitude": 46.93479392,
    "Longitude": -95.67158144,
    "Confirmed": 143,
    "Deaths": 1,
    "Recovered": 0,
    "Active": 142,
    "Combined_Key": "Becker, Minnesota, US",
    "Incidence_Rate": 415.4199227260843,
    "Case-Fatality_Ratio": 0.6993006993006993
  },
  {
    "FIPS": 40009,
    "County": "Beckham",
    "Province_State": "Oklahoma",
    "Country_Region": "US",
    "Last_Update": "2020-08-04 04:41:59",
    "Latitude": 35.26862449,
    "Longitude": -99.68128023,
    "Confirmed": 45,
    "Deaths": 1,
    "Recovered": 0,
    "Active": 44,
    "Combined_Key": "Beckham, Oklahoma, US",
    "Incidence_Rate": 205.8648611555881,
    "Case-Fatality_Ratio": 2.2222222222222223
  },
  {
    "FIPS": 42009,
    "County": "Bedford",
    "Province_State": "Pennsylvania",
    "Country_Region": "US",
    "Last_Update": "2020-08-04 04:41:59",
    "Latitude": 40.00522157,
    "Longitude": -78.48998442,
    "Confirmed": 130,
    "Deaths": 4,
    "Recovered": 0,
    "Active": 126,
    "Combined_Key": "Bedford, Pennsylvania, US",
    "Incidence_Rate": 271.46675576344796,
    "Case-Fatality_Ratio": 3.076923076923077
  },
  {
    "FIPS": 47003,
    "County": "Bedford",
    "Province_State": "Tennessee",
    "Country_Region": "US",
    "Last_Update": "2020-08-04 04:41:59",
    "Latitude": 35.51123746,
    "Longitude": -86.45549096,
    "Confirmed": 871,
    "Deaths": 10,
    "Recovered": 0,
    "Active": 861,
    "Combined_Key": "Bedford, Tennessee, US",
    "Incidence_Rate": 1752.0568060668234,
    "Case-Fatality_Ratio": 1.148105625717566
  },
  {
    "FIPS": 51019,
    "County": "Bedford",
    "Province_State": "Virginia",
    "Country_Region": "US",
    "Last_Update": "2020-08-04 04:41:59",
    "Latitude": 37.3080028,
    "Longitude": -79.5281964,
    "Confirmed": 307,
    "Deaths": 6,
    "Recovered": 0,
    "Active": 301,
    "Combined_Key": "Bedford, Virginia, US",
    "Incidence_Rate": 388.6223527475728,
    "Case-Fatality_Ratio": 1.9543973941368078
  },
  {
    "FIPS": 48025,
    "County": "Bee",
    "Province_State": "Texas",
    "Country_Region": "US",
    "Last_Update": "2020-08-04 04:41:59",
    "Latitude": 28.41761668,
    "Longitude": -97.74215593,
    "Confirmed": 626,
    "Deaths": 9,
    "Recovered": 0,
    "Active": 617,
    "Combined_Key": "Bee, Texas, US",
    "Incidence_Rate": 1922.3092276984487,
    "Case-Fatality_Ratio": 1.4376996805111821
  },
  {
    "FIPS": 33001,
    "County": "Belknap",
    "Province_State": "New Hampshire",
    "Country_Region": "US",
    "Last_Update": "2020-08-04 04:41:59",
    "Latitude": 43.51637314,
    "Longitude": -71.41684235,
    "Confirmed": 109,
    "Deaths": 4,
    "Recovered": 0,
    "Active": 105,
    "Combined_Key": "Belknap, New Hampshire, US",
    "Incidence_Rate": 177.8053276348629,
    "Case-Fatality_Ratio": 3.669724770642202
  },
  {
    "FIPS": 21013,
    "County": "Bell",
    "Province_State": "Kentucky",
    "Country_Region": "US",
    "Last_Update": "2020-08-04 04:41:59",
    "Latitude": 36.73355174,
    "Longitude": -83.67766671,
    "Confirmed": 281,
    "Deaths": 2,
    "Recovered": 0,
    "Active": 279,
    "Combined_Key": "Bell, Kentucky, US",
    "Incidence_Rate": 1079.440688383528,
    "Case-Fatality_Ratio": 0.7117437722419929
  },
  {
    "FIPS": 48027,
    "County": "Bell",
    "Province_State": "Texas",
    "Country_Region": "US",
    "Last_Update": "2020-08-04 04:41:59",
    "Latitude": 31.03736027,
    "Longitude": -97.4785025,
    "Confirmed": 3496,
    "Deaths": 32,
    "Recovered": 0,
    "Active": 3464,
    "Combined_Key": "Bell, Texas, US",
    "Incidence_Rate": 963.287079388522,
    "Case-Fatality_Ratio": 0.9153318077803204
  },
  {
    "FIPS": 39013,
    "County": "Belmont",
    "Province_State": "Ohio",
    "Country_Region": "US",
    "Last_Update": "2020-08-04 04:41:59",
    "Latitude": 40.01625942,
    "Longitude": -80.9924051,
    "Confirmed": 589,
    "Deaths": 26,
    "Recovered": 0,
    "Active": 563,
    "Combined_Key": "Belmont, Ohio, US",
    "Incidence_Rate": 879.0257588872638,
    "Case-Fatality_Ratio": 4.4142614601018675
  },
  {
    "FIPS": 27007,
    "County": "Beltrami",
    "Province_State": "Minnesota",
    "Country_Region": "US",
    "Last_Update": "2020-08-04 04:41:59",
    "Latitude": 47.97373527,
    "Longitude": -94.93732139,
    "Confirmed": 193,
    "Deaths": 0,
    "Recovered": 0,
    "Active": 193,
    "Combined_Key": "Beltrami, Minnesota, US",
    "Incidence_Rate": 409.00228871747055,
    "Case-Fatality_Ratio": 0
  },
  {
    "FIPS": 13017,
    "County": "Ben Hill",
    "Province_State": "Georgia",
    "Country_Region": "US",
    "Last_Update": "2020-08-04 04:41:59",
    "Latitude": 31.76095874,
    "Longitude": -83.22145359,
    "Confirmed": 351,
    "Deaths": 3,
    "Recovered": 0,
    "Active": 348,
    "Combined_Key": "Ben Hill, Georgia, US",
    "Incidence_Rate": 2101.7964071856286,
    "Case-Fatality_Ratio": 0.8547008547008547
  },
  {
    "FIPS": 16009,
    "County": "Benewah",
    "Province_State": "Idaho",
    "Country_Region": "US",
    "Last_Update": "2020-08-04 04:41:59",
    "Latitude": 47.21754179,
    "Longitude": -116.6586851,
    "Confirmed": 57,
    "Deaths": 0,
    "Recovered": 0,
    "Active": 57,
    "Combined_Key": "Benewah, Idaho, US",
    "Incidence_Rate": 613.0350613035063,
    "Case-Fatality_Ratio": 0
  },
  {
    "FIPS": 46007,
    "County": "Bennett",
    "Province_State": "South Dakota",
    "Country_Region": "US",
    "Last_Update": "2020-08-04 04:41:59",
    "Latitude": 43.19486375,
    "Longitude": -101.6665572,
    "Confirmed": 6,
    "Deaths": 0,
    "Recovered": 0,
    "Active": 6,
    "Combined_Key": "Bennett, South Dakota, US",
    "Incidence_Rate": 178.30609212481426,
    "Case-Fatality_Ratio": 0
  },
  {
    "FIPS": 50003,
    "County": "Bennington",
    "Province_State": "Vermont",
    "Country_Region": "US",
    "Last_Update": "2020-08-04 04:41:59",
    "Latitude": 43.03519828,
    "Longitude": -73.09048868,
    "Confirmed": 84,
    "Deaths": 1,
    "Recovered": 0,
    "Active": 83,
    "Combined_Key": "Bennington, Vermont, US",
    "Incidence_Rate": 236.8198477586693,
    "Case-Fatality_Ratio": 1.1904761904761905
  },
  {
    "FIPS": 38005,
    "County": "Benson",
    "Province_State": "North Dakota",
    "Country_Region": "US",
    "Last_Update": "2020-08-04 04:41:59",
    "Latitude": 48.0683985,
    "Longitude": -99.35916363,
    "Confirmed": 94,
    "Deaths": 1,
    "Recovered": 0,
    "Active": 93,
    "Combined_Key": "Benson, North Dakota, US",
    "Incidence_Rate": 1375.8782201405152,
    "Case-Fatality_Ratio": 1.0638297872340425
  },
  {
    "FIPS": 8011,
    "County": "Bent",
    "Province_State": "Colorado",
    "Country_Region": "US",
    "Last_Update": "2020-08-04 04:41:59",
    "Latitude": 37.95474293,
    "Longitude": -103.0720195,
    "Confirmed": 5,
    "Deaths": 0,
    "Recovered": 0,
    "Active": 5,
    "Combined_Key": "Bent, Colorado, US",
    "Incidence_Rate": 89.65393580778195,
    "Case-Fatality_Ratio": 0
  },
  {
    "FIPS": 5007,
    "County": "Benton",
    "Province_State": "Arkansas",
    "Country_Region": "US",
    "Last_Update": "2020-08-04 04:41:59",
    "Latitude": 36.33644656,
    "Longitude": -94.25680817,
    "Confirmed": 4572,
    "Deaths": 39,
    "Recovered": 0,
    "Active": 4533,
    "Combined_Key": "Benton, Arkansas, US",
    "Incidence_Rate": 1637.881930637205,
    "Case-Fatality_Ratio": 0.8530183727034121
  },
  {
    "FIPS": 18007,
    "County": "Benton",
    "Province_State": "Indiana",
    "Country_Region": "US",
    "Last_Update": "2020-08-04 04:41:59",
    "Latitude": 40.60626947,
    "Longitude": -87.31093999,
    "Confirmed": 60,
    "Deaths": 0,
    "Recovered": 0,
    "Active": 60,
    "Combined_Key": "Benton, Indiana, US",
    "Incidence_Rate": 685.8710562414266,
    "Case-Fatality_Ratio": 0
  },
  {
    "FIPS": 19011,
    "County": "Benton",
    "Province_State": "Iowa",
    "Country_Region": "US",
    "Last_Update": "2020-08-04 04:41:59",
    "Latitude": 42.08011739,
    "Longitude": -92.06463573,
    "Confirmed": 143,
    "Deaths": 1,
    "Recovered": 0,
    "Active": 142,
    "Combined_Key": "Benton, Iowa, US",
    "Incidence_Rate": 557.613569896666,
    "Case-Fatality_Ratio": 0.6993006993006993
  },
  {
    "FIPS": 27009,
    "County": "Benton",
    "Province_State": "Minnesota",
    "Country_Region": "US",
    "Last_Update": "2020-08-04 04:41:59",
    "Latitude": 45.69804958,
    "Longitude": -93.99514135,
    "Confirmed": 306,
    "Deaths": 3,
    "Recovered": 0,
    "Active": 303,
    "Combined_Key": "Benton, Minnesota, US",
    "Incidence_Rate": 748.3675316099684,
    "Case-Fatality_Ratio": 0.9803921568627451
  },
  {
    "FIPS": 28009,
    "County": "Benton",
    "Province_State": "Mississippi",
    "Country_Region": "US",
    "Last_Update": "2020-08-04 04:41:59",
    "Latitude": 34.81681228,
    "Longitude": -89.18945516,
    "Confirmed": 125,
    "Deaths": 0,
    "Recovered": 0,
    "Active": 125,
    "Combined_Key": "Benton, Mississippi, US",
    "Incidence_Rate": 1513.5004237801184,
    "Case-Fatality_Ratio": 0
  },
  {
    "FIPS": 29015,
    "County": "Benton",
    "Province_State": "Missouri",
    "Country_Region": "US",
    "Last_Update": "2020-08-04 04:41:59",
    "Latitude": 38.29503305,
    "Longitude": -93.28756116,
    "Confirmed": 75,
    "Deaths": 1,
    "Recovered": 0,
    "Active": 74,
    "Combined_Key": "Benton, Missouri, US",
    "Incidence_Rate": 385.7429409041815,
    "Case-Fatality_Ratio": 1.3333333333333333
  },
  {
    "FIPS": 41003,
    "County": "Benton",
    "Province_State": "Oregon",
    "Country_Region": "US",
    "Last_Update": "2020-08-04 04:41:59",
    "Latitude": 44.49167306,
    "Longitude": -123.4316987,
    "Confirmed": 157,
    "Deaths": 6,
    "Recovered": 0,
    "Active": 151,
    "Combined_Key": "Benton, Oregon, US",
    "Incidence_Rate": 168.72105144380086,
    "Case-Fatality_Ratio": 3.821656050955414
  },
  {
    "FIPS": 47005,
    "County": "Benton",
    "Province_State": "Tennessee",
    "Country_Region": "US",
    "Last_Update": "2020-08-04 04:41:59",
    "Latitude": 36.07110411,
    "Longitude": -88.06849355,
    "Confirmed": 97,
    "Deaths": 1,
    "Recovered": 0,
    "Active": 96,
    "Combined_Key": "Benton, Tennessee, US",
    "Incidence_Rate": 600.2475247524753,
    "Case-Fatality_Ratio": 1.0309278350515463
  },
  {
    "FIPS": 53005,
    "County": "Benton",
    "Province_State": "Washington",
    "Country_Region": "US",
    "Last_Update": "2020-08-04 04:41:59",
    "Latitude": 46.23946995,
    "Longitude": -119.5120834,
    "Confirmed": 3514,
    "Deaths": 110,
    "Recovered": 0,
    "Active": 3404,
    "Combined_Key": "Benton, Washington, US",
    "Incidence_Rate": 1719.2621948236215,
    "Case-Fatality_Ratio": 3.130335799658509
  },
  {
    "FIPS": 26019,
    "County": "Benzie",
    "Province_State": "Michigan",
    "Country_Region": "US",
    "Last_Update": "2020-08-04 04:41:59",
    "Latitude": 44.63899297,
    "Longitude": -86.01608482,
    "Confirmed": 28,
    "Deaths": 1,
    "Recovered": 0,
    "Active": 27,
    "Combined_Key": "Benzie, Michigan, US",
    "Incidence_Rate": 157.60441292356185,
    "Case-Fatality_Ratio": 3.5714285714285716
  },
  {
    "FIPS": 34003,
    "County": "Bergen",
    "Province_State": "New Jersey",
    "Country_Region": "US",
    "Last_Update": "2020-08-04 04:41:59",
    "Latitude": 40.96010917,
    "Longitude": -74.07164325,
    "Confirmed": 20552,
    "Deaths": 2041,
    "Recovered": 0,
    "Active": 18511,
    "Combined_Key": "Bergen, New Jersey, US",
    "Incidence_Rate": 2204.6723778751816,
    "Case-Fatality_Ratio": 9.930906967691708
  },
  {
    "FIPS": 45015,
    "County": "Berkeley",
    "Province_State": "South Carolina",
    "Country_Region": "US",
    "Last_Update": "2020-08-04 04:41:59",
    "Latitude": 33.20222596,
    "Longitude": -79.94654523,
    "Confirmed": 3880,
    "Deaths": 59,
    "Recovered": 0,
    "Active": 3821,
    "Combined_Key": "Berkeley, South Carolina, US",
    "Incidence_Rate": 1702.4488058725708,
    "Case-Fatality_Ratio": 1.5206185567010309
  },
  {
    "FIPS": 54003,
    "County": "Berkeley",
    "Province_State": "West Virginia",
    "Country_Region": "US",
    "Last_Update": "2020-08-04 04:41:59",
    "Latitude": 39.46704621,
    "Longitude": -78.02414609,
    "Confirmed": 657,
    "Deaths": 11,
    "Recovered": 0,
    "Active": 646,
    "Combined_Key": "Berkeley, West Virginia, US",
    "Incidence_Rate": 551.3086237423535,
    "Case-Fatality_Ratio": 1.67427701674277
  },
  {
    "FIPS": 42011,
    "County": "Berks",
    "Province_State": "Pennsylvania",
    "Country_Region": "US",
    "Last_Update": "2020-08-04 04:41:59",
    "Latitude": 40.41570541,
    "Longitude": -75.92457766,
    "Confirmed": 5218,
    "Deaths": 365,
    "Recovered": 0,
    "Active": 4853,
    "Combined_Key": "Berks, Pennsylvania, US",
    "Incidence_Rate": 1238.9472984395627,
    "Case-Fatality_Ratio": 6.995017247987735
  },
  {
    "FIPS": 25003,
    "County": "Berkshire",
    "Province_State": "Massachusetts",
    "Country_Region": "US",
    "Last_Update": "2020-08-04 04:41:59",
    "Latitude": 42.37428441,
    "Longitude": -73.20524838,
    "Confirmed": 657,
    "Deaths": 46,
    "Recovered": 0,
    "Active": 611,
    "Combined_Key": "Berkshire, Massachusetts, US",
    "Incidence_Rate": 525.8355743373031,
    "Case-Fatality_Ratio": 7.001522070015221
  },
  {
    "FIPS": 35001,
    "County": "Bernalillo",
    "Province_State": "New Mexico",
    "Country_Region": "US",
    "Last_Update": "2020-08-04 04:41:59",
    "Latitude": 35.05163625,
    "Longitude": -106.6703554,
    "Confirmed": 4879,
    "Deaths": 123,
    "Recovered": 0,
    "Active": 4756,
    "Combined_Key": "Bernalillo, New Mexico, US",
    "Incidence_Rate": 718.4286747133427,
    "Case-Fatality_Ratio": 2.5210084033613445
  },
  {
    "FIPS": 13019,
    "County": "Berrien",
    "Province_State": "Georgia",
    "Country_Region": "US",
    "Last_Update": "2020-08-04 04:41:59",
    "Latitude": 31.27590016,
    "Longitude": -83.22529920000002,
    "Confirmed": 263,
    "Deaths": 0,
    "Recovered": 0,
    "Active": 263,
    "Combined_Key": "Berrien, Georgia, US",
    "Incidence_Rate": 1355.8797752229725,
    "Case-Fatality_Ratio": 0
  },
  {
    "FIPS": 26021,
    "County": "Berrien",
    "Province_State": "Michigan",
    "Country_Region": "US",
    "Last_Update": "2020-08-04 04:41:59",
    "Latitude": 41.95447397,
    "Longitude": -86.41313079999998,
    "Confirmed": 1292,
    "Deaths": 65,
    "Recovered": 0,
    "Active": 1227,
    "Combined_Key": "Berrien, Michigan, US",
    "Incidence_Rate": 842.2370127965268,
    "Case-Fatality_Ratio": 5.030959752321982
  },
  {
    "FIPS": 37015,
    "County": "Bertie",
    "Province_State": "North Carolina",
    "Country_Region": "US",
    "Last_Update": "2020-08-04 04:41:59",
    "Latitude": 36.0688473,
    "Longitude": -76.96545943,
    "Confirmed": 249,
    "Deaths": 5,
    "Recovered": 0,
    "Active": 244,
    "Combined_Key": "Bertie, North Carolina, US",
    "Incidence_Rate": 1314.1922204042855,
    "Case-Fatality_Ratio": 2.0080321285140563
  },
  {
    "FIPS": 2050,
    "County": "Bethel",
    "Province_State": "Alaska",
    "Country_Region": "US",
    "Last_Update": "2020-08-04 04:41:59",
    "Latitude": 60.90980451,
    "Longitude": -159.8561831,
    "Confirmed": 22,
    "Deaths": 0,
    "Recovered": 0,
    "Active": 22,
    "Combined_Key": "Bethel, Alaska, US",
    "Incidence_Rate": 119.65626019797672,
    "Case-Fatality_Ratio": 0
  },
  {
    "FIPS": 48029,
    "County": "Bexar",
    "Province_State": "Texas",
    "Country_Region": "US",
    "Last_Update": "2020-08-04 04:41:59",
    "Latitude": 29.44928723,
    "Longitude": -98.52019748,
    "Confirmed": 41138,
    "Deaths": 622,
    "Recovered": 0,
    "Active": 40516,
    "Combined_Key": "Bexar, Texas, US",
    "Incidence_Rate": 2053.2513723114025,
    "Case-Fatality_Ratio": 1.5119840536730031
  },
  {
    "FIPS": 1007,
    "County": "Bibb",
    "Province_State": "Alabama",
    "Country_Region": "US",
    "Last_Update": "2020-08-04 04:41:59",
    "Latitude": 32.99642064,
    "Longitude": -87.12511459999996,
    "Confirmed": 374,
    "Deaths": 3,
    "Recovered": 0,
    "Active": 371,
    "Combined_Key": "Bibb, Alabama, US",
    "Incidence_Rate": 1670.0902027328748,
    "Case-Fatality_Ratio": 0.8021390374331551
  },
  {
    "FIPS": 13021,
    "County": "Bibb",
    "Province_State": "Georgia",
    "Country_Region": "US",
    "Last_Update": "2020-08-04 04:41:59",
    "Latitude": 32.80904227,
    "Longitude": -83.70489165,
    "Confirmed": 3214,
    "Deaths": 61,
    "Recovered": 0,
    "Active": 3153,
    "Combined_Key": "Bibb, Georgia, US",
    "Incidence_Rate": 2098.472828890239,
    "Case-Fatality_Ratio": 1.897946484131923
  },
  {
    "FIPS": 22013,
    "County": "Bienville",
    "Province_State": "Louisiana",
    "Country_Region": "US",
    "Last_Update": "2020-08-04 04:41:59",
    "Latitude": 32.34569994,
    "Longitude": -93.05398492,
    "Confirmed": 353,
    "Deaths": 30,
    "Recovered": 0,
    "Active": 323,
    "Combined_Key": "Bienville, Louisiana, US",
    "Incidence_Rate": 2665.961785363643,
    "Case-Fatality_Ratio": 8.498583569405099
  },
  {
    "FIPS": 30003,
    "County": "Big Horn",
    "Province_State": "Montana",
    "Country_Region": "US",
    "Last_Update": "2020-08-04 04:41:59",
    "Latitude": 45.42335905,
    "Longitude": -107.492347,
    "Confirmed": 348,
    "Deaths": 11,
    "Recovered": 0,
    "Active": 337,
    "Combined_Key": "Big Horn, Montana, US",
    "Incidence_Rate": 2612.8087694271344,
    "Case-Fatality_Ratio": 3.160919540229885
  },
  {
    "FIPS": 56003,
    "County": "Big Horn",
    "Province_State": "Wyoming",
    "Country_Region": "US",
    "Last_Update": "2020-08-04 04:41:59",
    "Latitude": 44.52405055,
    "Longitude": -107.9960365,
    "Confirmed": 36,
    "Deaths": 0,
    "Recovered": 0,
    "Active": 36,
    "Combined_Key": "Big Horn, Wyoming, US",
    "Incidence_Rate": 305.3435114503817,
    "Case-Fatality_Ratio": 0
  },
  {
    "FIPS": 27011,
    "County": "Big Stone",
    "Province_State": "Minnesota",
    "Country_Region": "US",
    "Last_Update": "2020-08-04 04:41:59",
    "Latitude": 45.42712824,
    "Longitude": -96.41403739,
    "Confirmed": 22,
    "Deaths": 0,
    "Recovered": 0,
    "Active": 22,
    "Combined_Key": "Big Stone, Minnesota, US",
    "Incidence_Rate": 440.7934281707073,
    "Case-Fatality_Ratio": 0
  },
  {
    "FIPS": 38007,
    "County": "Billings",
    "Province_State": "North Dakota",
    "Country_Region": "US",
    "Last_Update": "2020-08-04 04:41:59",
    "Latitude": 47.02366884,
    "Longitude": -103.3762965,
    "Confirmed": 2,
    "Deaths": 0,
    "Recovered": 0,
    "Active": 2,
    "Combined_Key": "Billings, North Dakota, US",
    "Incidence_Rate": 215.5172413793104,
    "Case-Fatality_Ratio": 0
  },
  {
    "FIPS": 16011,
    "County": "Bingham",
    "Province_State": "Idaho",
    "Country_Region": "US",
    "Last_Update": "2020-08-04 04:41:59",
    "Latitude": 43.21672879999999,
    "Longitude": -112.3978437,
    "Confirmed": 187,
    "Deaths": 2,
    "Recovered": 0,
    "Active": 185,
    "Combined_Key": "Bingham, Idaho, US",
    "Incidence_Rate": 399.47875499348436,
    "Case-Fatality_Ratio": 1.0695187165775402
  },
  {
    "FIPS": 19013,
    "County": "Black Hawk",
    "Province_State": "Iowa",
    "Country_Region": "US",
    "Last_Update": "2020-08-04 04:41:59",
    "Latitude": 42.4704581,
    "Longitude": -92.30524729,
    "Confirmed": 3003,
    "Deaths": 62,
    "Recovered": 0,
    "Active": 2941,
    "Combined_Key": "Black Hawk, Iowa, US",
    "Incidence_Rate": 2288.383576675709,
    "Case-Fatality_Ratio": 2.0646020646020644
  },
  {
    "FIPS": 18009,
    "County": "Blackford",
    "Province_State": "Indiana",
    "Country_Region": "US",
    "Last_Update": "2020-08-04 04:41:59",
    "Latitude": 40.47388153,
    "Longitude": -85.32499702,
    "Confirmed": 53,
    "Deaths": 2,
    "Recovered": 0,
    "Active": 51,
    "Combined_Key": "Blackford, Indiana, US",
    "Incidence_Rate": 450.75693145092697,
    "Case-Fatality_Ratio": 3.7735849056603774
  },
  {
    "FIPS": 37017,
    "County": "Bladen",
    "Province_State": "North Carolina",
    "Country_Region": "US",
    "Last_Update": "2020-08-04 04:41:59",
    "Latitude": 34.61296243,
    "Longitude": -78.56180059,
    "Confirmed": 589,
    "Deaths": 7,
    "Recovered": 0,
    "Active": 582,
    "Combined_Key": "Bladen, North Carolina, US",
    "Incidence_Rate": 1800.0122241916754,
    "Case-Fatality_Ratio": 1.1884550084889642
  },
  {
    "FIPS": 16013,
    "County": "Blaine",
    "Province_State": "Idaho",
    "Country_Region": "US",
    "Last_Update": "2020-08-04 04:41:59",
    "Latitude": 43.4085812,
    "Longitude": -113.9752658,
    "Confirmed": 570,
    "Deaths": 6,
    "Recovered": 0,
    "Active": 564,
    "Combined_Key": "Blaine, Idaho, US",
    "Incidence_Rate": 2476.000173754398,
    "Case-Fatality_Ratio": 1.0526315789473684
  },
  {
    "FIPS": 30005,
    "County": "Blaine",
    "Province_State": "Montana",
    "Country_Region": "US",
    "Last_Update": "2020-08-04 04:41:59",
    "Latitude": 48.43175214,
    "Longitude": -108.9582723,
    "Confirmed": 9,
    "Deaths": 0,
    "Recovered": 0,
    "Active": 9,
    "Combined_Key": "Blaine, Montana, US",
    "Incidence_Rate": 134.7103726986978,
    "Case-Fatality_Ratio": 0
  },
  {
    "FIPS": 31009,
    "County": "Blaine",
    "Province_State": "Nebraska",
    "Country_Region": "US",
    "Last_Update": "2020-08-04 04:41:59",
    "Latitude": 41.91311716,
    "Longitude": -99.97677845,
    "Confirmed": 0,
    "Deaths": 0,
    "Recovered": 0,
    "Active": 0,
    "Combined_Key": "Blaine, Nebraska, US",
    "Incidence_Rate": 0,
    "Case-Fatality_Ratio": null
  },
  {
    "FIPS": 40011,
    "County": "Blaine",
    "Province_State": "Oklahoma",
    "Country_Region": "US",
    "Last_Update": "2020-08-04 04:41:59",
    "Latitude": 35.87518314,
    "Longitude": -98.43307003,
    "Confirmed": 38,
    "Deaths": 0,
    "Recovered": 0,
    "Active": 38,
    "Combined_Key": "Blaine, Oklahoma, US",
    "Incidence_Rate": 403.01198430374376,
    "Case-Fatality_Ratio": 0
  },
  {
    "FIPS": 42013,
    "County": "Blair",
    "Province_State": "Pennsylvania",
    "Country_Region": "US",
    "Last_Update": "2020-08-04 04:41:59",
    "Latitude": 40.47961444,
    "Longitude": -78.34917412,
    "Confirmed": 233,
    "Deaths": 3,
    "Recovered": 0,
    "Active": 230,
    "Combined_Key": "Blair, Pennsylvania, US",
    "Incidence_Rate": 191.25167242610542,
    "Case-Fatality_Ratio": 1.2875536480686696
  },
  {
    "FIPS": 48031,
    "County": "Blanco",
    "Province_State": "Texas",
    "Country_Region": "US",
    "Last_Update": "2020-08-04 04:41:59",
    "Latitude": 30.26640707,
    "Longitude": -98.3999852,
    "Confirmed": 98,
    "Deaths": 4,
    "Recovered": 0,
    "Active": 94,
    "Combined_Key": "Blanco, Texas, US",
    "Incidence_Rate": 821.3896571955411,
    "Case-Fatality_Ratio": 4.081632653061225
  },
  {
    "FIPS": 51021,
    "County": "Bland",
    "Province_State": "Virginia",
    "Country_Region": "US",
    "Last_Update": "2020-08-04 04:41:59",
    "Latitude": 37.13128068,
    "Longitude": -81.13599391,
    "Confirmed": 7,
    "Deaths": 0,
    "Recovered": 0,
    "Active": 7,
    "Combined_Key": "Bland, Virginia, US",
    "Incidence_Rate": 111.46496815286623,
    "Case-Fatality_Ratio": 0
  },
  {
    "FIPS": 13023,
    "County": "Bleckley",
    "Province_State": "Georgia",
    "Country_Region": "US",
    "Last_Update": "2020-08-04 04:41:59",
    "Latitude": 32.43829035,
    "Longitude": -83.33035166,
    "Confirmed": 133,
    "Deaths": 3,
    "Recovered": 0,
    "Active": 130,
    "Combined_Key": "Bleckley, Georgia, US",
    "Incidence_Rate": 1033.1702011963023,
    "Case-Fatality_Ratio": 2.255639097744361
  },
  {
    "FIPS": 47007,
    "County": "Bledsoe",
    "Province_State": "Tennessee",
    "Country_Region": "US",
    "Last_Update": "2020-08-04 04:41:59",
    "Latitude": 35.59942968,
    "Longitude": -85.20611967,
    "Confirmed": 672,
    "Deaths": 1,
    "Recovered": 0,
    "Active": 671,
    "Combined_Key": "Bledsoe, Tennessee, US",
    "Incidence_Rate": 4460.966542750929,
    "Case-Fatality_Ratio": 0.1488095238095238
  },
  {
    "FIPS": 1009,
    "County": "Blount",
    "Province_State": "Alabama",
    "Country_Region": "US",
    "Last_Update": "2020-08-04 04:41:59",
    "Latitude": 33.98210918,
    "Longitude": -86.56790593,
    "Confirmed": 736,
    "Deaths": 3,
    "Recovered": 0,
    "Active": 733,
    "Combined_Key": "Blount, Alabama, US",
    "Incidence_Rate": 1272.783868847923,
    "Case-Fatality_Ratio": 0.4076086956521739
  },
  {
    "FIPS": 47009,
    "County": "Blount",
    "Province_State": "Tennessee",
    "Country_Region": "US",
    "Last_Update": "2020-08-04 04:41:59",
    "Latitude": 35.68938198,
    "Longitude": -83.92847788,
    "Confirmed": 1120,
    "Deaths": 7,
    "Recovered": 0,
    "Active": 1113,
    "Combined_Key": "Blount, Tennessee, US",
    "Incidence_Rate": 841.5484491464294,
    "Case-Fatality_Ratio": 0.625
  },
  {
    "FIPS": 27013,
    "County": "Blue Earth",
    "Province_State": "Minnesota",
    "Country_Region": "US",
    "Last_Update": "2020-08-04 04:41:59",
    "Latitude": 44.03554215,
    "Longitude": -94.06699781,
    "Confirmed": 852,
    "Deaths": 5,
    "Recovered": 0,
    "Active": 847,
    "Combined_Key": "Blue Earth, Minnesota, US",
    "Incidence_Rate": 1259.36765553634,
    "Case-Fatality_Ratio": 0.5868544600938967
  },
  {
    "FIPS": 16015,
    "County": "Boise",
    "Province_State": "Idaho",
    "Country_Region": "US",
    "Last_Update": "2020-08-04 04:41:59",
    "Latitude": 43.98829931,
    "Longitude": -115.7309284,
    "Confirmed": 39,
    "Deaths": 1,
    "Recovered": 0,
    "Active": 38,
    "Combined_Key": "Boise, Idaho, US",
    "Incidence_Rate": 498.02068701315284,
    "Case-Fatality_Ratio": 2.5641025641025643
  },
  {
    "FIPS": 28011,
    "County": "Bolivar",
    "Province_State": "Mississippi",
    "Country_Region": "US",
    "Last_Update": "2020-08-04 04:41:59",
    "Latitude": 33.79696941,
    "Longitude": -90.87372121,
    "Confirmed": 948,
    "Deaths": 32,
    "Recovered": 0,
    "Active": 916,
    "Combined_Key": "Bolivar, Mississippi, US",
    "Incidence_Rate": 3095.2070001305988,
    "Case-Fatality_Ratio": 3.3755274261603376
  },