[
  {
    "FIPS": 45001,
    "County": "Abbeville",
    "Province_State": "South Carolina",
    "Country_Region": "US",
    "Last_Update": "2020-08-11 04:35:08",
    "Latitude": 34.22333378,
    "Longitude": -82.46170658,
    "Confirmed": 335,
    "Deaths": 9,
    "Recovered": 0,
    "Active": 326,
    "Combined_Key": "Abbeville, South Carolina, US",
    "Incidence_Rate": 1365.8417254454275,
    "Case-Fatality_Ratio": 2.6865671641791047
  },
  {
    "FIPS": 22001,
    "County": "Acadia",
    "Province_State": "Louisiana",
    "Country_Region": "US",
    "Last_Update": "2020-08-11 04:35:08",
    "Latitude": 30.295064899999996,
    "Longitude": -92.41419698,
    "Confirmed": 2601,
    "Deaths": 85,
    "Recovered": 0,
    "Active": 2516,
    "Combined_Key": "Acadia, Louisiana, US",
    "Incidence_Rate": 4192.11862357966,
    "Case-Fatality_Ratio": 3.2679738562091503
  },
  {
    "FIPS": 51001,
    "County": "Accomack",
    "Province_State": "Virginia",
    "Country_Region": "US",
    "Last_Update": "2020-08-11 04:35:08",
    "Latitude": 37.76707161,
    "Longitude": -75.63234615,
    "Confirmed": 1102,
    "Deaths": 16,
    "Recovered": 0,
    "Active": 1086,
    "Combined_Key": "Accomack, Virginia, US",
    "Incidence_Rate": 3410.075504394108,
    "Case-Fatality_Ratio": 1.4519056261343013
  },
  {
    "FIPS": 16001,
    "County": "Ada",
    "Province_State": "Idaho",
    "Country_Region": "US",
    "Last_Update": "2020-08-11 04:35:08",
    "Latitude": 43.4526575,
    "Longitude": -116.24155159999998,
    "Confirmed": 9144,
    "Deaths": 83,
    "Recovered": 0,
    "Active": 9061,
    "Combined_Key": "Ada, Idaho, US",
    "Incidence_Rate": 1898.7223492328487,
    "Case-Fatality_Ratio": 0.9076990376202975
  },
  {
    "FIPS": 19001,
    "County": "Adair",
    "Province_State": "Iowa",
    "Country_Region": "US",
    "Last_Update": "2020-08-11 04:35:08",
    "Latitude": 41.33075609,
    "Longitude": -94.47105874,
    "Confirmed": 30,
    "Deaths": 0,
    "Recovered": 0,
    "Active": 30,
    "Combined_Key": "Adair, Iowa, US",
    "Incidence_Rate": 419.4630872483222,
    "Case-Fatality_Ratio": 0
  },
  {
    "FIPS": 21001,
    "County": "Adair",
    "Province_State": "Kentucky",
    "Country_Region": "US",
    "Last_Update": "2020-08-11 04:35:08",
    "Latitude": 37.10459774,
    "Longitude": -85.28129668,
    "Confirmed": 205,
    "Deaths": 19,
    "Recovered": 0,
    "Active": 186,
    "Combined_Key": "Adair, Kentucky, US",
    "Incidence_Rate": 1067.597125299448,
    "Case-Fatality_Ratio": 9.268292682926829
  },
  {
    "FIPS": 29001,
    "County": "Adair",
    "Province_State": "Missouri",
    "Country_Region": "US",
    "Last_Update": "2020-08-11 04:35:08",
    "Latitude": 40.19058551,
    "Longitude": -92.60078167,
    "Confirmed": 160,
    "Deaths": 0,
    "Recovered": 0,
    "Active": 160,
    "Combined_Key": "Adair, Missouri, US",
    "Incidence_Rate": 631.3380420628971,
    "Case-Fatality_Ratio": 0
  },
  {
    "FIPS": 40001,
    "County": "Adair",
    "Province_State": "Oklahoma",
    "Country_Region": "US",
    "Last_Update": "2020-08-11 04:35:08",
    "Latitude": 35.88494195,
    "Longitude": -94.65859267,
    "Confirmed": 341,
    "Deaths": 6,
    "Recovered": 0,
    "Active": 335,
    "Combined_Key": "Adair, Oklahoma, US",
    "Incidence_Rate": 1536.4512931422908,
    "Case-Fatality_Ratio": 1.7595307917888563
  },
  {
    "FIPS": 8001,
    "County": "Adams",
    "Province_State": "Colorado",
    "Country_Region": "US",
    "Last_Update": "2020-08-11 04:35:08",
    "Latitude": 39.87432092,
    "Longitude": -104.3362578,
    "Confirmed": 6529,
    "Deaths": 176,
    "Recovered": 0,
    "Active": 6353,
    "Combined_Key": "Adams, Colorado, US",
    "Incidence_Rate": 1261.8351400503652,
    "Case-Fatality_Ratio": 2.6956654924184407
  },
  {
    "FIPS": 16003,
    "County": "Adams",
    "Province_State": "Idaho",
    "Country_Region": "US",
    "Last_Update": "2020-08-11 04:35:08",
    "Latitude": 44.89333571,
    "Longitude": -116.4545247,
    "Confirmed": 19,
    "Deaths": 0,
    "Recovered": 0,
    "Active": 19,
    "Combined_Key": "Adams, Idaho, US",
    "Incidence_Rate": 442.4778761061947,
    "Case-Fatality_Ratio": 0
  },
  {
    "FIPS": 17001,
    "County": "Adams",
    "Province_State": "Illinois",
    "Country_Region": "US",
    "Last_Update": "2020-08-11 04:35:08",
    "Latitude": 39.98815591,
    "Longitude": -91.18786813,
    "Confirmed": 542,
    "Deaths": 5,
    "Recovered": 0,
    "Active": 537,
    "Combined_Key": "Adams, Illinois, US",
    "Incidence_Rate": 828.3028960036678,
    "Case-Fatality_Ratio": 0.922509225092251
  },
  {
    "FIPS": 18001,
    "County": "Adams",
    "Province_State": "Indiana",
    "Country_Region": "US",
    "Last_Update": "2020-08-11 04:35:08",
    "Latitude": 40.7457653,
    "Longitude": -84.93671406,
    "Confirmed": 102,
    "Deaths": 2,
    "Recovered": 0,
    "Active": 100,
    "Combined_Key": "Adams, Indiana, US",
    "Incidence_Rate": 285.09936551415717,
    "Case-Fatality_Ratio": 1.9607843137254901
  },
  {
    "FIPS": 19003,
    "County": "Adams",
    "Province_State": "Iowa",
    "Country_Region": "US",
    "Last_Update": "2020-08-11 04:35:08",
    "Latitude": 41.02903567,
    "Longitude": -94.69932645,
    "Confirmed": 16,
    "Deaths": 0,
    "Recovered": 0,
    "Active": 16,
    "Combined_Key": "Adams, Iowa, US",
    "Incidence_Rate": 444.1976679622432,
    "Case-Fatality_Ratio": 0
  },
  {
    "FIPS": 28001,
    "County": "Adams",
    "Province_State": "Mississippi",
    "Country_Region": "US",
    "Last_Update": "2020-08-11 04:35:08",
    "Latitude": 31.47669768,
    "Longitude": -91.35326037,
    "Confirmed": 629,
    "Deaths": 25,
    "Recovered": 0,
    "Active": 604,
    "Combined_Key": "Adams, Mississippi, US",
    "Incidence_Rate": 2049.3272081582118,
    "Case-Fatality_Ratio": 3.97456279809221
  },
  {
    "FIPS": 31001,
    "County": "Adams",
    "Province_State": "Nebraska",
    "Country_Region": "US",
    "Last_Update": "2020-08-11 04:35:08",
    "Latitude": 40.52449420000001,
    "Longitude": -98.50117804,
    "Confirmed": 358,
    "Deaths": 11,
    "Recovered": 0,
    "Active": 347,
    "Combined_Key": "Adams, Nebraska, US",
    "Incidence_Rate": 1141.4724356726076,
    "Case-Fatality_Ratio": 3.0726256983240225
  },
  {
    "FIPS": 38001,
    "County": "Adams",
    "Province_State": "North Dakota",
    "Country_Region": "US",
    "Last_Update": "2020-08-11 04:35:08",
    "Latitude": 46.09686891,
    "Longitude": -102.5285397,
    "Confirmed": 3,
    "Deaths": 0,
    "Recovered": 0,
    "Active": 3,
    "Combined_Key": "Adams, North Dakota, US",
    "Incidence_Rate": 135.37906137184117,
    "Case-Fatality_Ratio": 0
  },
  {
    "FIPS": 39001,
    "County": "Adams",
    "Province_State": "Ohio",
    "Country_Region": "US",
    "Last_Update": "2020-08-11 04:35:08",
    "Latitude": 38.84541072,
    "Longitude": -83.4718964,
    "Confirmed": 61,
    "Deaths": 2,
    "Recovered": 0,
    "Active": 59,
    "Combined_Key": "Adams, Ohio, US",
    "Incidence_Rate": 220.2325077622933,
    "Case-Fatality_Ratio": 3.278688524590164
  },
  {
    "FIPS": 42001,
    "County": "Adams",
    "Province_State": "Pennsylvania",
    "Country_Region": "US",
    "Last_Update": "2020-08-11 04:35:08",
    "Latitude": 39.87140411,
    "Longitude": -77.21610347,
    "Confirmed": 524,
    "Deaths": 20,
    "Recovered": 0,
    "Active": 504,
    "Combined_Key": "Adams, Pennsylvania, US",
    "Incidence_Rate": 508.69341513848303,
    "Case-Fatality_Ratio": 3.816793893129771
  },
  {
    "FIPS": 53001,
    "County": "Adams",
    "Province_State": "Washington",
    "Country_Region": "US",
    "Last_Update": "2020-08-11 04:35:08",
    "Latitude": 46.98299757,
    "Longitude": -118.5601734,
    "Confirmed": 452,
    "Deaths": 5,
    "Recovered": 0,
    "Active": 447,
    "Combined_Key": "Adams, Washington, US",
    "Incidence_Rate": 2261.9226342391034,
    "Case-Fatality_Ratio": 1.1061946902654867
  },
  {
    "FIPS": 55001,
    "County": "Adams",
    "Province_State": "Wisconsin",
    "Country_Region": "US",
    "Last_Update": "2020-08-11 04:35:08",
    "Latitude": 43.96974651,
    "Longitude": -89.76782777,
    "Confirmed": 86,
    "Deaths": 2,
    "Recovered": 0,
    "Active": 84,
    "Combined_Key": "Adams, Wisconsin, US",
    "Incidence_Rate": 425.3214638971315,
    "Case-Fatality_Ratio": 2.3255813953488373
  },
  {
    "FIPS": 50001,
    "County": "Addison",
    "Province_State": "Vermont",
    "Country_Region": "US",
    "Last_Update": "2020-08-11 04:35:08",
    "Latitude": 44.03217337,
    "Longitude": -73.14130877,
    "Confirmed": 73,
    "Deaths": 2,
    "Recovered": 0,
    "Active": 71,
    "Combined_Key": "Addison, Vermont, US",
    "Incidence_Rate": 198.493623732224,
    "Case-Fatality_Ratio": 2.73972602739726
  },
  {
    "FIPS": 72001,
    "County": "Adjuntas",
    "Province_State": "Puerto Rico",
    "Country_Region": "US",
    "Last_Update": "2020-08-11 04:35:08",
    "Latitude": 18.180117000000006,
    "Longitude": -66.754367,
    "Confirmed": 94,
    "Deaths": 0,
    "Recovered": 0,
    "Active": 94,
    "Combined_Key": "Adjuntas, Puerto Rico, US",
    "Incidence_Rate": 482.4718985782477,
    "Case-Fatality_Ratio": 0
  },
  {
    "FIPS": 72003,
    "County": "Aguada",
    "Province_State": "Puerto Rico",
    "Country_Region": "US",
    "Last_Update": "2020-08-11 04:35:08",
    "Latitude": 18.360255,
    "Longitude": -67.17513100000001,
    "Confirmed": 140,
    "Deaths": 0,
    "Recovered": 0,
    "Active": 140,
    "Combined_Key": "Aguada, Puerto Rico, US",
    "Incidence_Rate": 333.6590481184013,
    "Case-Fatality_Ratio": 0
  },
  {
    "FIPS": 72005,
    "County": "Aguadilla",
    "Province_State": "Puerto Rico",
    "Country_Region": "US",
    "Last_Update": "2020-08-11 04:35:08",
    "Latitude": 18.459681,
    "Longitude": -67.12081500000001,
    "Confirmed": 230,
    "Deaths": 0,
    "Recovered": 0,
    "Active": 230,
    "Combined_Key": "Aguadilla, Puerto Rico, US",
    "Incidence_Rate": 377.36468194720175,
    "Case-Fatality_Ratio": 0
  },
  {
    "FIPS": 72007,
    "County": "Aguas Buenas",
    "Province_State": "Puerto Rico",
    "Country_Region": "US",
    "Last_Update": "2020-08-11 04:35:08",
    "Latitude": 18.251619,
    "Longitude": -66.126806,
    "Confirmed": 133,
    "Deaths": 0,
    "Recovered": 0,
    "Active": 133,
    "Combined_Key": "Aguas Buenas, Puerto Rico, US",
    "Incidence_Rate": 464.07760214941203,
    "Case-Fatality_Ratio": 0
  },
  {
    "FIPS": 72009,
    "County": "Aibonito",
    "Province_State": "Puerto Rico",
    "Country_Region": "US",
    "Last_Update": "2020-08-11 04:35:08",
    "Latitude": 18.131361,
    "Longitude": -66.264131,
    "Confirmed": 89,
    "Deaths": 0,
    "Recovered": 0,
    "Active": 89,
    "Combined_Key": "Aibonito, Puerto Rico, US",
    "Incidence_Rate": 343.6293436293436,
    "Case-Fatality_Ratio": 0
  },
  {
    "FIPS": 45003,
    "County": "Aiken",
    "Province_State": "South Carolina",
    "Country_Region": "US",
    "Last_Update": "2020-08-11 04:35:08",
    "Latitude": 33.54338026,
    "Longitude": -81.63645384,
    "Confirmed": 1883,
    "Deaths": 38,
    "Recovered": 0,
    "Active": 1845,
    "Combined_Key": "Aiken, South Carolina, US",
    "Incidence_Rate": 1101.9944753967882,
    "Case-Fatality_Ratio": 2.01805629314923
  },
  {
    "FIPS": 27001,
    "County": "Aitkin",
    "Province_State": "Minnesota",
    "Country_Region": "US",
    "Last_Update": "2020-08-11 04:35:08",
    "Latitude": 46.60962049,
    "Longitude": -93.4116826,
    "Confirmed": 40,
    "Deaths": 1,
    "Recovered": 0,
    "Active": 39,
    "Combined_Key": "Aitkin, Minnesota, US",
    "Incidence_Rate": 251.79403248143018,
    "Case-Fatality_Ratio": 2.5
  },
  {
    "FIPS": 12001,
    "County": "Alachua",
    "Province_State": "Florida",
    "Country_Region": "US",
    "Last_Update": "2020-08-11 04:35:08",
    "Latitude": 29.67866525,
    "Longitude": -82.35928158,
    "Confirmed": 4171,
    "Deaths": 26,
    "Recovered": 0,
    "Active": 4145,
    "Combined_Key": "Alachua, Florida, US",
    "Incidence_Rate": 1550.3098017788975,
    "Case-Fatality_Ratio": 0.6233517142172141
  },
  {
    "FIPS": 37001,
    "County": "Alamance",
    "Province_State": "North Carolina",
    "Country_Region": "US",
    "Last_Update": "2020-08-11 04:35:08",
    "Latitude": 36.0434701,
    "Longitude": -79.39976137,
    "Confirmed": 2472,
    "Deaths": 41,
    "Recovered": 0,
    "Active": 2431,
    "Combined_Key": "Alamance, North Carolina, US",
    "Incidence_Rate": 1458.3296462134756,
    "Case-Fatality_Ratio": 1.6585760517799353
  },
  {
    "FIPS": 6001,
    "County": "Alameda",
    "Province_State": "California",
    "Country_Region": "US",
    "Last_Update": "2020-08-11 04:35:08",
    "Latitude": 37.64629437,
    "Longitude": -121.8929271,
    "Confirmed": 13631,
    "Deaths": 209,
    "Recovered": 0,
    "Active": 13422,
    "Combined_Key": "Alameda, California, US",
    "Incidence_Rate": 815.5785007021359,
    "Case-Fatality_Ratio": 1.5332697527694226
  },
  {
    "FIPS": 8003,
    "County": "Alamosa",
    "Province_State": "Colorado",
    "Country_Region": "US",
    "Last_Update": "2020-08-11 04:35:08",
    "Latitude": 37.57250606,
    "Longitude": -105.7885451,
    "Confirmed": 230,
    "Deaths": 9,
    "Recovered": 0,
    "Active": 221,
    "Combined_Key": "Alamosa, Colorado, US",
    "Incidence_Rate": 1416.8668761165527,
    "Case-Fatality_Ratio": 3.9130434782608696
  },
  {
    "FIPS": 36001,
    "County": "Albany",
    "Province_State": "New York",
    "Country_Region": "US",
    "Last_Update": "2020-08-11 04:35:08",
    "Latitude": 42.60060306,
    "Longitude": -73.97723916,
    "Confirmed": 2600,
    "Deaths": 128,
    "Recovered": 0,
    "Active": 2472,
    "Combined_Key": "Albany, New York, US",
    "Incidence_Rate": 851.047115277605,
    "Case-Fatality_Ratio": 4.923076923076923
  },
  {
    "FIPS": 56001,
    "County": "Albany",
    "Province_State": "Wyoming",
    "Country_Region": "US",
    "Last_Update": "2020-08-11 04:35:08",
    "Latitude": 41.65498705,
    "Longitude": -105.7235415,
    "Confirmed": 86,
    "Deaths": 0,
    "Recovered": 0,
    "Active": 86,
    "Combined_Key": "Albany, Wyoming, US",
    "Incidence_Rate": 221.1934156378601,
    "Case-Fatality_Ratio": 0
  },
  {
    "FIPS": 51003,
    "County": "Albemarle",
    "Province_State": "Virginia",
    "Country_Region": "US",
    "Last_Update": "2020-08-11 04:35:08",
    "Latitude": 38.02080697,
    "Longitude": -78.55481085,
    "Confirmed": 842,
    "Deaths": 16,
    "Recovered": 0,
    "Active": 826,
    "Combined_Key": "Albemarle, Virginia, US",
    "Incidence_Rate": 770.1454312631482,
    "Case-Fatality_Ratio": 1.9002375296912113
  },
  {
    "FIPS": 26001,
    "County": "Alcona",
    "Province_State": "Michigan",
    "Country_Region": "US",
    "Last_Update": "2020-08-11 04:35:08",
    "Latitude": 44.6846864,
    "Longitude": -83.59507875,
    "Confirmed": 29,
    "Deaths": 1,
    "Recovered": 0,
    "Active": 28,
    "Combined_Key": "Alcona, Michigan, US",
    "Incidence_Rate": 278.71215761653053,
    "Case-Fatality_Ratio": 3.4482758620689653
  },
  {
    "FIPS": 28003,
    "County": "Alcorn",
    "Province_State": "Mississippi",
    "Country_Region": "US",
    "Last_Update": "2020-08-11 04:35:08",
    "Latitude": 34.88084463,
    "Longitude": -88.57996173,
    "Confirmed": 434,
    "Deaths": 5,
    "Recovered": 0,
    "Active": 429,
    "Combined_Key": "Alcorn, Mississippi, US",
    "Incidence_Rate": 1174.4648607690851,
    "Case-Fatality_Ratio": 1.152073732718894
  },
  {
    "FIPS": 2013,
    "County": "Aleutians East",
    "Province_State": "Alaska",
    "Country_Region": "US",
    "Last_Update": "2020-08-11 04:35:08",
    "Latitude": 55.32222414,
    "Longitude": -161.9722021,
    "Confirmed": 2,
    "Deaths": 0,
    "Recovered": 0,
    "Active": 2,
    "Combined_Key": "Aleutians East, Alaska, US",
    "Incidence_Rate": 59.93407252022774,
    "Case-Fatality_Ratio": 0
  },
  {
    "FIPS": 2016,
    "County": "Aleutians West",
    "Province_State": "Alaska",
    "Country_Region": "US",
    "Last_Update": "2020-08-11 04:35:08",
    "Latitude": 52.3233,
    "Longitude": -174.1596,
    "Confirmed": 4,
    "Deaths": 0,
    "Recovered": 0,
    "Active": 4,
    "Combined_Key": "Aleutians West, Alaska, US",
    "Incidence_Rate": 70.99751508697194,
    "Case-Fatality_Ratio": 0
  },
  {
    "FIPS": 17003,
    "County": "Alexander",
    "Province_State": "Illinois",
    "Country_Region": "US",
    "Last_Update": "2020-08-11 04:35:08",
    "Latitude": 37.18049267,
    "Longitude": -89.32910838,
    "Confirmed": 37,
    "Deaths": 0,
    "Recovered": 0,
    "Active": 37,
    "Combined_Key": "Alexander, Illinois, US",
    "Incidence_Rate": 642.2496094428051,
    "Case-Fatality_Ratio": 0
  },
  {
    "FIPS": 37003,
    "County": "Alexander",
    "Province_State": "North Carolina",
    "Country_Region": "US",
    "Last_Update": "2020-08-11 04:35:08",
    "Latitude": 35.922379600000006,
    "Longitude": -81.17751948,
    "Confirmed": 303,
    "Deaths": 2,
    "Recovered": 0,
    "Active": 301,
    "Combined_Key": "Alexander, North Carolina, US",
    "Incidence_Rate": 808.0646451716137,
    "Case-Fatality_Ratio": 0.6600660066006601
  },
  {
    "FIPS": 51510,
    "County": "Alexandria",
    "Province_State": "Virginia",
    "Country_Region": "US",
    "Last_Update": "2020-08-11 04:35:08",
    "Latitude": 38.814003,
    "Longitude": -77.08183073,
    "Confirmed": 2976,
    "Deaths": 60,
    "Recovered": 0,
    "Active": 2916,
    "Combined_Key": "Alexandria, Virginia, US",
    "Incidence_Rate": 1866.6733572521769,
    "Case-Fatality_Ratio": 2.0161290322580645
  },
  {
    "FIPS": 40003,
    "County": "Alfalfa",
    "Province_State": "Oklahoma",
    "Country_Region": "US",
    "Last_Update": "2020-08-11 04:35:08",
    "Latitude": 36.73090616,
    "Longitude": -98.32408495,
    "Confirmed": 3,
    "Deaths": 0,
    "Recovered": 0,
    "Active": 3,
    "Combined_Key": "Alfalfa, Oklahoma, US",
    "Incidence_Rate": 52.6131182041389,
    "Case-Fatality_Ratio": 0
  },
  {
    "FIPS": 26003,
    "County": "Alger",
    "Province_State": "Michigan",
    "Country_Region": "US",
    "Last_Update": "2020-08-11 04:35:08",
    "Latitude": 46.41292944,
    "Longitude": -86.60260122,
    "Confirmed": 11,
    "Deaths": 0,
    "Recovered": 0,
    "Active": 11,
    "Combined_Key": "Alger, Michigan, US",
    "Incidence_Rate": 120.77294685990341,
    "Case-Fatality_Ratio": 0
  },
  {
    "FIPS": 19005,
    "County": "Allamakee",
    "Province_State": "Iowa",
    "Country_Region": "US",
    "Last_Update": "2020-08-11 04:35:08",
    "Latitude": 43.28383218,
    "Longitude": -91.37860922,
    "Confirmed": 155,
    "Deaths": 4,
    "Recovered": 0,
    "Active": 151,
    "Combined_Key": "Allamakee, Iowa, US",
    "Incidence_Rate": 1132.4614597793527,
    "Case-Fatality_Ratio": 2.5806451612903225
  },
  {
    "FIPS": 26005,
    "County": "Allegan",
    "Province_State": "Michigan",
    "Country_Region": "US",
    "Last_Update": "2020-08-11 04:35:08",
    "Latitude": 42.59147037,
    "Longitude": -85.89102866,
    "Confirmed": 529,
    "Deaths": 6,
    "Recovered": 0,
    "Active": 523,
    "Combined_Key": "Allegan, Michigan, US",
    "Incidence_Rate": 447.9975609962654,
    "Case-Fatality_Ratio": 1.1342155009451795
  },
  {
    "FIPS": 24001,
    "County": "Allegany",
    "Province_State": "Maryland",
    "Country_Region": "US",
    "Last_Update": "2020-08-11 04:35:08",
    "Latitude": 39.62357628,
    "Longitude": -78.69280486,
    "Confirmed": 299,
    "Deaths": 18,
    "Recovered": 0,
    "Active": 281,
    "Combined_Key": "Allegany, Maryland, US",
    "Incidence_Rate": 424.61940468075437,
    "Case-Fatality_Ratio": 6.0200668896321075
  },
  {
    "FIPS": 36003,
    "County": "Allegany",
    "Province_State": "New York",
    "Country_Region": "US",
    "Last_Update": "2020-08-11 04:35:08",
    "Latitude": 42.25748406,
    "Longitude": -78.02750466,
    "Confirmed": 80,
    "Deaths": 1,
    "Recovered": 0,
    "Active": 79,
    "Combined_Key": "Allegany, New York, US",
    "Incidence_Rate": 173.56967737736218,
    "Case-Fatality_Ratio": 1.25
  },
  {
    "FIPS": 37005,
    "County": "Alleghany",
    "Province_State": "North Carolina",
    "Country_Region": "US",
    "Last_Update": "2020-08-11 04:35:08",
    "Latitude": 36.49360862,
    "Longitude": -81.12857041,
    "Confirmed": 169,
    "Deaths": 0,
    "Recovered": 0,
    "Active": 169,
    "Combined_Key": "Alleghany, North Carolina, US",
    "Incidence_Rate": 1517.4643081619827,
    "Case-Fatality_Ratio": 0
  },
  {
    "FIPS": 51005,
    "County": "Alleghany",
    "Province_State": "Virginia",
    "Country_Region": "US",
    "Last_Update": "2020-08-11 04:35:08",
    "Latitude": 37.78636074,
    "Longitude": -80.00222498,
    "Confirmed": 62,
    "Deaths": 4,
    "Recovered": 0,
    "Active": 58,
    "Combined_Key": "Alleghany, Virginia, US",
    "Incidence_Rate": 417.227456258412,
    "Case-Fatality_Ratio": 6.451612903225806
  },
  {
    "FIPS": 42003,
    "County": "Allegheny",
    "Province_State": "Pennsylvania",
    "Country_Region": "US",
    "Last_Update": "2020-08-11 04:35:08",
    "Latitude": 40.46809875,
    "Longitude": -79.98167747,
    "Confirmed": 8932,
    "Deaths": 247,
    "Recovered": 0,
    "Active": 8685,
    "Combined_Key": "Allegheny, Pennsylvania, US",
    "Incidence_Rate": 734.5122918970926,
    "Case-Fatality_Ratio": 2.7653381101656964
  },
  {
    "FIPS": 18003,
    "County": "Allen",
    "Province_State": "Indiana",
    "Country_Region": "US",
    "Last_Update": "2020-08-11 04:35:08",
    "Latitude": 41.09194313,
    "Longitude": -85.06800636,
    "Confirmed": 3937,
    "Deaths": 163,
    "Recovered": 0,
    "Active": 3774,
    "Combined_Key": "Allen, Indiana, US",
    "Incidence_Rate": 1037.967408297939,
    "Case-Fatality_Ratio": 4.1402082804165605
  },
  {
    "FIPS": 20001,
    "County": "Allen",
    "Province_State": "Kansas",
    "Country_Region": "US",
    "Last_Update": "2020-08-11 04:35:08",
    "Latitude": 37.88582951,
    "Longitude": -95.30030847,
    "Confirmed": 20,
    "Deaths": 0,
    "Recovered": 0,
    "Active": 20,
    "Combined_Key": "Allen, Kansas, US",
    "Incidence_Rate": 161.69455897809038,
    "Case-Fatality_Ratio": 0
  },
  {
    "FIPS": 21003,
    "County": "Allen",
    "Province_State": "Kentucky",
    "Country_Region": "US",
    "Last_Update": "2020-08-11 04:35:08",
    "Latitude": 36.75197631,
    "Longitude": -86.19457544,
    "Confirmed": 226,
    "Deaths": 8,
    "Recovered": 0,
    "Active": 218,
    "Combined_Key": "Allen, Kentucky, US",
    "Incidence_Rate": 1060.2861834388927,
    "Case-Fatality_Ratio": 3.5398230088495577
  },
  {
    "FIPS": 22003,
    "County": "Allen",
    "Province_State": "Louisiana",
    "Country_Region": "US",
    "Last_Update": "2020-08-11 04:35:08",
    "Latitude": 30.65385745,
    "Longitude": -92.82442028,
    "Confirmed": 1278,
    "Deaths": 30,
    "Recovered": 0,
    "Active": 1248,
    "Combined_Key": "Allen, Louisiana, US",
    "Incidence_Rate": 4986.927849533695,
    "Case-Fatality_Ratio": 2.347417840375587
  },
  {
    "FIPS": 39003,
    "County": "Allen",
    "Province_State": "Ohio",
    "Country_Region": "US",
    "Last_Update": "2020-08-11 04:35:08",
    "Latitude": 40.77285242,
    "Longitude": -84.10802343,
    "Confirmed": 760,
    "Deaths": 44,
    "Recovered": 0,
    "Active": 716,
    "Combined_Key": "Allen, Ohio, US",
    "Incidence_Rate": 742.5428183408078,
    "Case-Fatality_Ratio": 5.7894736842105265
  },
  {
    "FIPS": 45005,
    "County": "Allendale",
    "Province_State": "South Carolina",
    "Country_Region": "US",
    "Last_Update": "2020-08-11 04:35:08",
    "Latitude": 32.98837386,
    "Longitude": -81.35321066,
    "Confirmed": 228,
    "Deaths": 3,
    "Recovered": 0,
    "Active": 225,
    "Combined_Key": "Allendale, South Carolina, US",
    "Incidence_Rate": 2624.309392265193,
    "Case-Fatality_Ratio": 1.3157894736842106
  },
  {
    "FIPS": 26007,
    "County": "Alpena",
    "Province_State": "Michigan",
    "Country_Region": "US",
    "Last_Update": "2020-08-11 04:35:08",
    "Latitude": 45.03477666,
    "Longitude": -83.62212411,
    "Confirmed": 130,
    "Deaths": 13,
    "Recovered": 0,
    "Active": 117,
    "Combined_Key": "Alpena, Michigan, US",
    "Incidence_Rate": 457.6659038901602,
    "Case-Fatality_Ratio": 10
  },
  {
    "FIPS": 6003,
    "County": "Alpine",
    "Province_State": "California",
    "Country_Region": "US",
    "Last_Update": "2020-08-11 04:35:08",
    "Latitude": 38.59678594,
    "Longitude": -119.8223594,
    "Confirmed": 2,
    "Deaths": 0,
    "Recovered": 0,
    "Active": 2,
    "Combined_Key": "Alpine, California, US",
    "Incidence_Rate": 177.14791851195747,
    "Case-Fatality_Ratio": 0
  },
  {
    "FIPS": 6005,
    "County": "Amador",
    "Province_State": "California",
    "Country_Region": "US",
    "Last_Update": "2020-08-11 04:35:08",
    "Latitude": 38.44583082,
    "Longitude": -120.65696,
    "Confirmed": 182,
    "Deaths": 2,
    "Recovered": 0,
    "Active": 180,
    "Combined_Key": "Amador, California, US",
    "Incidence_Rate": 457.8385993157577,
    "Case-Fatality_Ratio": 1.098901098901099
  },
  {
    "FIPS": 51007,
    "County": "Amelia",
    "Province_State": "Virginia",
    "Country_Region": "US",
    "Last_Update": "2020-08-11 04:35:08",
    "Latitude": 37.34081025,
    "Longitude": -77.98584649,
    "Confirmed": 79,
    "Deaths": 2,
    "Recovered": 0,
    "Active": 77,
    "Combined_Key": "Amelia, Virginia, US",
    "Incidence_Rate": 600.988969189806,
    "Case-Fatality_Ratio": 2.5316455696202533
  },
  {
    "FIPS": 51009,
    "County": "Amherst",
    "Province_State": "Virginia",
    "Country_Region": "US",
    "Last_Update": "2020-08-11 04:35:08",
    "Latitude": 37.60308293,
    "Longitude": -79.14548696,
    "Confirmed": 176,
    "Deaths": 0,
    "Recovered": 0,
    "Active": 176,
    "Combined_Key": "Amherst, Virginia, US",
    "Incidence_Rate": 556.8739123556401,
    "Case-Fatality_Ratio": 0
  },
  {
    "FIPS": 28005,
    "County": "Amite",
    "Province_State": "Mississippi",
    "Country_Region": "US",
    "Last_Update": "2020-08-11 04:35:08",
    "Latitude": 31.17467303,
    "Longitude": -90.80501621,
    "Confirmed": 235,
    "Deaths": 6,
    "Recovered": 0,
    "Active": 229,
    "Combined_Key": "Amite, Mississippi, US",
    "Incidence_Rate": 1911.035211840286,
    "Case-Fatality_Ratio": 2.5531914893617023
  },
  {
    "FIPS": 72011,
    "County": "Anasco",
    "Province_State": "Puerto Rico",
    "Country_Region": "US",
    "Last_Update": "2020-08-11 04:35:08",
    "Latitude": 18.287985,
    "Longitude": -67.120611,
    "Confirmed": 145,
    "Deaths": 0,
    "Recovered": 0,
    "Active": 145,
    "Combined_Key": "Anasco, Puerto Rico, US",
    "Incidence_Rate": 495.54013875123877,
    "Case-Fatality_Ratio": 0
  },
  {
    "FIPS": 2020,
    "County": "Anchorage",
    "Province_State": "Alaska",
    "Country_Region": "US",
    "Last_Update": "2020-08-11 04:35:08",
    "Latitude": 61.14998174,
    "Longitude": -149.14269860000005,
    "Confirmed": 2198,
    "Deaths": 14,
    "Recovered": 0,
    "Active": 2184,
    "Combined_Key": "Anchorage, Alaska, US",
    "Incidence_Rate": 763.1944444444445,
    "Case-Fatality_Ratio": 0.6369426751592356
  },
  {
    "FIPS": 20003,
    "County": "Anderson",
    "Province_State": "Kansas",
    "Country_Region": "US",
    "Last_Update": "2020-08-11 04:35:08",
    "Latitude": 38.21413251,
    "Longitude": -95.29272815,
    "Confirmed": 31,
    "Deaths": 0,
    "Recovered": 0,
    "Active": 31,
    "Combined_Key": "Anderson, Kansas, US",
    "Incidence_Rate": 394.50241791804535,
    "Case-Fatality_Ratio": 0
  },
  {
    "FIPS": 21005,
    "County": "Anderson",
    "Province_State": "Kentucky",
    "Country_Region": "US",
    "Last_Update": "2020-08-11 04:35:08",
    "Latitude": 38.00671029,
    "Longitude": -84.99171713,
    "Confirmed": 84,
    "Deaths": 1,
    "Recovered": 0,
    "Active": 83,
    "Combined_Key": "Anderson, Kentucky, US",
    "Incidence_Rate": 369.279465424012,
    "Case-Fatality_Ratio": 1.1904761904761905
  },
  {
    "FIPS": 45007,
    "County": "Anderson",
    "Province_State": "South Carolina",
    "Country_Region": "US",
    "Last_Update": "2020-08-11 04:35:08",
    "Latitude": 34.51828081,
    "Longitude": -82.63959517,
    "Confirmed": 2350,
    "Deaths": 63,
    "Recovered": 0,
    "Active": 2287,
    "Combined_Key": "Anderson, South Carolina, US",
    "Incidence_Rate": 1160.161533980391,
    "Case-Fatality_Ratio": 2.6808510638297873
  },
  {
    "FIPS": 47001,
    "County": "Anderson",
    "Province_State": "Tennessee",
    "Country_Region": "US",
    "Last_Update": "2020-08-11 04:35:08",
    "Latitude": 36.12684348,
    "Longitude": -84.19965764,
    "Confirmed": 693,
    "Deaths": 6,
    "Recovered": 0,
    "Active": 687,
    "Combined_Key": "Anderson, Tennessee, US",
    "Incidence_Rate": 900.2572163475279,
    "Case-Fatality_Ratio": 0.8658008658008658
  },
  {
    "FIPS": 48001,
    "County": "Anderson",
    "Province_State": "Texas",
    "Country_Region": "US",
    "Last_Update": "2020-08-11 04:35:08",
    "Latitude": 31.81534745,
    "Longitude": -95.65354823,
    "Confirmed": 2403,
    "Deaths": 14,
    "Recovered": 0,
    "Active": 2389,
    "Combined_Key": "Anderson, Texas, US",
    "Incidence_Rate": 4162.120031176929,
    "Case-Fatality_Ratio": 0.5826050769870995
  },
  {
    "FIPS": 29003,
    "County": "Andrew",
    "Province_State": "Missouri",
    "Country_Region": "US",
    "Last_Update": "2020-08-11 04:35:08",
    "Latitude": 39.98492163,
    "Longitude": -94.80163024,
    "Confirmed": 88,
    "Deaths": 1,
    "Recovered": 0,
    "Active": 87,
    "Combined_Key": "Andrew, Missouri, US",
    "Incidence_Rate": 496.8383017163505,
    "Case-Fatality_Ratio": 1.1363636363636365
  },
  {
    "FIPS": 48003,
    "County": "Andrews",
    "Province_State": "Texas",
    "Country_Region": "US",
    "Last_Update": "2020-08-11 04:35:08",
    "Latitude": 32.30468633,
    "Longitude": -102.63765479999999,
    "Confirmed": 304,
    "Deaths": 7,
    "Recovered": 0,
    "Active": 297,
    "Combined_Key": "Andrews, Texas, US",
    "Incidence_Rate": 1625.2338946805667,
    "Case-Fatality_Ratio": 2.3026315789473686
  },
  {
    "FIPS": 23001,
    "County": "Androscoggin",
    "Province_State": "Maine",
    "Country_Region": "US",
    "Last_Update": "2020-08-11 04:35:08",
    "Latitude": 44.1664747,
    "Longitude": -70.20380627,
    "Confirmed": 565,
    "Deaths": 8,
    "Recovered": 0,
    "Active": 557,
    "Combined_Key": "Androscoggin, Maine, US",
    "Incidence_Rate": 521.8098026358322,
    "Case-Fatality_Ratio": 1.415929203539823
  },
  {
    "FIPS": 48005,
    "County": "Angelina",
    "Province_State": "Texas",
    "Country_Region": "US",
    "Last_Update": "2020-08-11 04:35:08",
    "Latitude": 31.25457347,
    "Longitude": -94.60901487,
    "Confirmed": 1796,
    "Deaths": 45,
    "Recovered": 0,
    "Active": 1751,
    "Combined_Key": "Angelina, Texas, US",
    "Incidence_Rate": 2071.152626419881,
    "Case-Fatality_Ratio": 2.505567928730512
  },
  {
    "FIPS": 24003,
    "County": "Anne Arundel",
    "Province_State": "Maryland",
    "Country_Region": "US",
    "Last_Update": "2020-08-11 04:35:08",
    "Latitude": 39.00670238,
    "Longitude": -76.60329337,
    "Confirmed": 7416,
    "Deaths": 225,
    "Recovered": 0,
    "Active": 7191,
    "Combined_Key": "Anne Arundel, Maryland, US",
    "Incidence_Rate": 1280.3115839194522,
    "Case-Fatality_Ratio": 3.033980582524272
  },
  {
    "FIPS": 27003,
    "County": "Anoka",
    "Province_State": "Minnesota",
    "Country_Region": "US",
    "Last_Update": "2020-08-11 04:35:08",
    "Latitude": 45.27476015,
    "Longitude": -93.24604565,
    "Confirmed": 3739,
    "Deaths": 115,
    "Recovered": 0,
    "Active": 3624,
    "Combined_Key": "Anoka, Minnesota, US",
    "Incidence_Rate": 1047.5707509504905,
    "Case-Fatality_Ratio": 3.0756886868146562
  },
  {
    "FIPS": 37007,
    "County": "Anson",
    "Province_State": "North Carolina",
    "Country_Region": "US",
    "Last_Update": "2020-08-11 04:35:08",
    "Latitude": 34.97403241,
    "Longitude": -80.09953279,
    "Confirmed": 328,
    "Deaths": 3,
    "Recovered": 0,
    "Active": 325,
    "Combined_Key": "Anson, North Carolina, US",
    "Incidence_Rate": 1341.732798821893,
    "Case-Fatality_Ratio": 0.9146341463414634
  },
  {
    "FIPS": 31003,
    "County": "Antelope",
    "Province_State": "Nebraska",
    "Country_Region": "US",
    "Last_Update": "2020-08-11 04:35:08",
    "Latitude": 42.17695516,
    "Longitude": -98.0666283,
    "Confirmed": 19,
    "Deaths": 1,
    "Recovered": 0,
    "Active": 18,
    "Combined_Key": "Antelope, Nebraska, US",
    "Incidence_Rate": 301.6830739917434,
    "Case-Fatality_Ratio": 5.2631578947368425
  },
  {
    "FIPS": 26009,
    "County": "Antrim",
    "Province_State": "Michigan",
    "Country_Region": "US",
    "Last_Update": "2020-08-11 04:35:08",
    "Latitude": 44.99690221,
    "Longitude": -85.15503082,
    "Confirmed": 41,
    "Deaths": 0,
    "Recovered": 0,
    "Active": 41,
    "Combined_Key": "Antrim, Michigan, US",
    "Incidence_Rate": 175.78459955410736,
    "Case-Fatality_Ratio": 0
  },
  {
    "FIPS": 4001,
    "County": "Apache",
    "Province_State": "Arizona",
    "Country_Region": "US",
    "Last_Update": "2020-08-11 04:35:08",
    "Latitude": 35.39465006,
    "Longitude": -109.4892383,
    "Confirmed": 3194,
    "Deaths": 139,
    "Recovered": 0,
    "Active": 3055,
    "Combined_Key": "Apache, Arizona, US",
    "Incidence_Rate": 4443.084285058495,
    "Case-Fatality_Ratio": 4.351909830933
  },
  {
    "FIPS": 19007,
    "County": "Appanoose",
    "Province_State": "Iowa",
    "Country_Region": "US",
    "Last_Update": "2020-08-11 04:35:08",
    "Latitude": 40.74324454,
    "Longitude": -92.86865906,
    "Confirmed": 49,
    "Deaths": 3,
    "Recovered": 0,
    "Active": 46,
    "Combined_Key": "Appanoose, Iowa, US",
    "Incidence_Rate": 394.33446000321925,
    "Case-Fatality_Ratio": 6.122448979591836
  },
  {
    "FIPS": 13001,
    "County": "Appling",
    "Province_State": "Georgia",
    "Country_Region": "US",
    "Last_Update": "2020-08-11 04:35:08",
    "Latitude": 31.74847232,
    "Longitude": -82.28909114,
    "Confirmed": 678,
    "Deaths": 19,
    "Recovered": 0,
    "Active": 659,
    "Combined_Key": "Appling, Georgia, US",
    "Incidence_Rate": 3687.588382464919,
    "Case-Fatality_Ratio": 2.8023598820059
  },
  {
    "FIPS": 51011,
    "County": "Appomattox",
    "Province_State": "Virginia",
    "Country_Region": "US",
    "Last_Update": "2020-08-11 04:35:08",
    "Latitude": 37.37569884,
    "Longitude": -78.81340003,
    "Confirmed": 87,
    "Deaths": 0,
    "Recovered": 0,
    "Active": 87,
    "Combined_Key": "Appomattox, Virginia, US",
    "Incidence_Rate": 546.791527873798,
    "Case-Fatality_Ratio": 0
  },
  {
    "FIPS": 48007,
    "County": "Aransas",
    "Province_State": "Texas",
    "Country_Region": "US",
    "Last_Update": "2020-08-11 04:35:08",
    "Latitude": 28.10556197,
    "Longitude": -96.9995047,
    "Confirmed": 177,
    "Deaths": 15,
    "Recovered": 0,
    "Active": 162,
    "Combined_Key": "Aransas, Texas, US",
    "Incidence_Rate": 752.8711186729051,
    "Case-Fatality_Ratio": 8.474576271186441
  },
  {
    "FIPS": 8005,
    "County": "Arapahoe",
    "Province_State": "Colorado",
    "Country_Region": "US",
    "Last_Update": "2020-08-11 04:35:08",
    "Latitude": 39.64977461,
    "Longitude": -104.3353617,
    "Confirmed": 7340,
    "Deaths": 364,
    "Recovered": 0,
    "Active": 6976,
    "Combined_Key": "Arapahoe, Colorado, US",
    "Incidence_Rate": 1117.8970133568894,
    "Case-Fatality_Ratio": 4.959128065395095
  },
  {
    "FIPS": 48009,
    "County": "Archer",
    "Province_State": "Texas",
    "Country_Region": "US",
    "Last_Update": "2020-08-11 04:35:08",
    "Latitude": 33.61569967,
    "Longitude": -98.68754589,
    "Confirmed": 21,
    "Deaths": 0,
    "Recovered": 0,
    "Active": 21,
    "Combined_Key": "Archer, Texas, US",
    "Incidence_Rate": 245.5278849526482,
    "Case-Fatality_Ratio": 0
  },
  {
    "FIPS": 8007,
    "County": "Archuleta",
    "Province_State": "Colorado",
    "Country_Region": "US",
    "Last_Update": "2020-08-11 04:35:08",
    "Latitude": 37.19474156,
    "Longitude": -107.04768670000001,
    "Confirmed": 36,
    "Deaths": 0,
    "Recovered": 0,
    "Active": 36,
    "Combined_Key": "Archuleta, Colorado, US",
    "Incidence_Rate": 256.61130515361043,
    "Case-Fatality_Ratio": 0
  },
  {
    "FIPS": 72013,
    "County": "Arecibo",
    "Province_State": "Puerto Rico",
    "Country_Region": "US",
    "Last_Update": "2020-08-11 04:35:08",
    "Latitude": 18.406631,
    "Longitude": -66.675077,
    "Confirmed": 324,
    "Deaths": 0,
    "Recovered": 0,
    "Active": 324,
    "Combined_Key": "Arecibo, Puerto Rico, US",
    "Incidence_Rate": 335.96018249688933,
    "Case-Fatality_Ratio": 0
  },
  {
    "FIPS": 26011,
    "County": "Arenac",
    "Province_State": "Michigan",
    "Country_Region": "US",
    "Last_Update": "2020-08-11 04:35:08",
    "Latitude": 44.0636262,
    "Longitude": -83.89277559,
    "Confirmed": 42,
    "Deaths": 3,
    "Recovered": 0,
    "Active": 39,
    "Combined_Key": "Arenac, Michigan, US",
    "Incidence_Rate": 282.2011691191292,
    "Case-Fatality_Ratio": 7.142857142857143
  },
  {
    "FIPS": 5001,
    "County": "Arkansas",
    "Province_State": "Arkansas",
    "Country_Region": "US",
    "Last_Update": "2020-08-11 04:35:08",
    "Latitude": 34.29145151,
    "Longitude": -91.37277296,
    "Confirmed": 221,
    "Deaths": 1,
    "Recovered": 0,
    "Active": 220,
    "Combined_Key": "Arkansas, Arkansas, US",
    "Incidence_Rate": 1263.8682374471005,
    "Case-Fatality_Ratio": 0.45248868778280543
  },
  {
    "FIPS": 51013,
    "County": "Arlington",
    "Province_State": "Virginia",
    "Country_Region": "US",
    "Last_Update": "2020-08-11 04:35:08",
    "Latitude": 38.8767675,
    "Longitude": -77.10139853,
    "Confirmed": 3091,
    "Deaths": 135,
    "Recovered": 0,
    "Active": 2956,
    "Combined_Key": "Arlington, Virginia, US",
    "Incidence_Rate": 1305.0894689286529,
    "Case-Fatality_Ratio": 4.367518602394047
  },
  {
    "FIPS": 42005,
    "County": "Armstrong",
    "Province_State": "Pennsylvania",
    "Country_Region": "US",
    "Last_Update": "2020-08-11 04:35:08",
    "Latitude": 40.81665618,
    "Longitude": -79.46290811,
    "Confirmed": 216,
    "Deaths": 7,
    "Recovered": 0,
    "Active": 209,
    "Combined_Key": "Armstrong, Pennsylvania, US",
    "Incidence_Rate": 333.66803120413994,
    "Case-Fatality_Ratio": 3.240740740740741
  },
  {
    "FIPS": 48011,
    "County": "Armstrong",
    "Province_State": "Texas",
    "Country_Region": "US",
    "Last_Update": "2020-08-11 04:35:08",
    "Latitude": 34.96507426,
    "Longitude": -101.35748740000001,
    "Confirmed": 8,
    "Deaths": 0,
    "Recovered": 0,
    "Active": 8,
    "Combined_Key": "Armstrong, Texas, US",
    "Incidence_Rate": 423.9533651298357,
    "Case-Fatality_Ratio": 0
  },
  {
    "FIPS": 23003,
    "County": "Aroostook",
    "Province_State": "Maine",
    "Country_Region": "US",
    "Last_Update": "2020-08-11 04:35:08",
    "Latitude": 46.65926321,
    "Longitude": -68.59841248,
    "Confirmed": 33,
    "Deaths": 1,
    "Recovered": 0,
    "Active": 32,
    "Combined_Key": "Aroostook, Maine, US",
    "Incidence_Rate": 49.21333233912461,
    "Case-Fatality_Ratio": 3.0303030303030303
  },
  {
    "FIPS": 72015,
    "County": "Arroyo",
    "Province_State": "Puerto Rico",
    "Country_Region": "US",
    "Last_Update": "2020-08-11 04:35:08",
    "Latitude": 17.998457000000005,
    "Longitude": -66.056546,
    "Confirmed": 92,
    "Deaths": 0,
    "Recovered": 0,
    "Active": 92,
    "Combined_Key": "Arroyo, Puerto Rico, US",
    "Incidence_Rate": 469.9872286079183,
    "Case-Fatality_Ratio": 0
  },
  {
    "FIPS": 31005,
    "County": "Arthur",
    "Province_State": "Nebraska",
    "Country_Region": "US",
    "Last_Update": "2020-08-11 04:35:08",
    "Latitude": 41.56896142,
    "Longitude": -101.6959559,
    "Confirmed": 1,
    "Deaths": 0,
    "Recovered": 0,
    "Active": 1,
    "Combined_Key": "Arthur, Nebraska, US",
    "Incidence_Rate": 215.98272138228938,
    "Case-Fatality_Ratio": 0
  },
  {
    "FIPS": 22005,
    "County": "Ascension",
    "Province_State": "Louisiana",
    "Country_Region": "US",
    "Last_Update": "2020-08-11 04:35:08",
    "Latitude": 30.20406249,
    "Longitude": -90.91328409999998,
    "Confirmed": 2890,
    "Deaths": 74,
    "Recovered": 0,
    "Active": 2816,
    "Combined_Key": "Ascension, Louisiana, US",
    "Incidence_Rate": 2282.708287257907,
    "Case-Fatality_Ratio": 2.5605536332179932
  },
  {
    "FIPS": 37009,
    "County": "Ashe",
    "Province_State": "North Carolina",
    "Country_Region": "US",
    "Last_Update": "2020-08-11 04:35:08",
    "Latitude": 36.43296207,
    "Longitude": -81.49862729,
    "Confirmed": 158,
    "Deaths": 1,
    "Recovered": 0,
    "Active": 157,
    "Combined_Key": "Ashe, North Carolina, US",
    "Incidence_Rate": 580.818292100136,
    "Case-Fatality_Ratio": 0.6329113924050633
  },
  {
    "FIPS": 39005,
    "County": "Ashland",
    "Province_State": "Ohio",
    "Country_Region": "US",
    "Last_Update": "2020-08-11 04:35:08",
    "Latitude": 40.84772277,
    "Longitude": -82.27280781,
    "Confirmed": 149,
    "Deaths": 3,
    "Recovered": 0,
    "Active": 146,
    "Combined_Key": "Ashland, Ohio, US",
    "Incidence_Rate": 278.58798893126914,
    "Case-Fatality_Ratio": 2.0134228187919465
  },
  {
    "FIPS": 55003,
    "County": "Ashland",
    "Province_State": "Wisconsin",
    "Country_Region": "US",
    "Last_Update": "2020-08-11 04:35:08",
    "Latitude": 46.31956891,
    "Longitude": -90.67837132,
    "Confirmed": 25,
    "Deaths": 1,
    "Recovered": 0,
    "Active": 24,
    "Combined_Key": "Ashland, Wisconsin, US",
    "Incidence_Rate": 160.64773165402906,
    "Case-Fatality_Ratio": 4
  },
  {
    "FIPS": 5003,
    "County": "Ashley",
    "Province_State": "Arkansas",
    "Country_Region": "US",
    "Last_Update": "2020-08-11 04:35:08",
    "Latitude": 33.19153461,
    "Longitude": -91.76984709999999,
    "Confirmed": 330,
    "Deaths": 5,
    "Recovered": 0,
    "Active": 325,
    "Combined_Key": "Ashley, Arkansas, US",
    "Incidence_Rate": 1678.7912702853946,
    "Case-Fatality_Ratio": 1.5151515151515151
  },
  {
    "FIPS": 39007,
    "County": "Ashtabula",
    "Province_State": "Ohio",
    "Country_Region": "US",
    "Last_Update": "2020-08-11 04:35:08",
    "Latitude": 41.70860332,
    "Longitude": -80.74830218,
    "Confirmed": 574,
    "Deaths": 46,
    "Recovered": 0,
    "Active": 528,
    "Combined_Key": "Ashtabula, Ohio, US",
    "Incidence_Rate": 590.2859904772678,
    "Case-Fatality_Ratio": 8.013937282229966
  },
  {
    "FIPS": 53003,
    "County": "Asotin",
    "Province_State": "Washington",
    "Country_Region": "US",
    "Last_Update": "2020-08-11 04:35:08",
    "Latitude": 46.18894415,
    "Longitude": -117.2022851,
    "Confirmed": 27,
    "Deaths": 2,
    "Recovered": 0,
    "Active": 25,
    "Combined_Key": "Asotin, Washington, US",
    "Incidence_Rate": 119.5642547161456,
    "Case-Fatality_Ratio": 7.407407407407407
  },
  {
    "FIPS": 22007,
    "County": "Assumption",
    "Province_State": "Louisiana",
    "Country_Region": "US",
    "Last_Update": "2020-08-11 04:35:08",
    "Latitude": 29.89946234,
    "Longitude": -91.06461642,
    "Confirmed": 588,
    "Deaths": 20,
    "Recovered": 0,
    "Active": 568,
    "Combined_Key": "Assumption, Louisiana, US",
    "Incidence_Rate": 2686.0353569960253,
    "Case-Fatality_Ratio": 3.401360544217687
  },
  {
    "FIPS": 48013,
    "County": "Atascosa",
    "Province_State": "Texas",
    "Country_Region": "US",
    "Last_Update": "2020-08-11 04:35:08",
    "Latitude": 28.89333001,
    "Longitude": -98.52730485,
    "Confirmed": 437,
    "Deaths": 18,
    "Recovered": 0,
    "Active": 419,
    "Combined_Key": "Atascosa, Texas, US",
    "Incidence_Rate": 854.2998455613551,
    "Case-Fatality_Ratio": 4.118993135011442
  },
  {
    "FIPS": 20005,
    "County": "Atchison",
    "Province_State": "Kansas",
    "Country_Region": "US",
    "Last_Update": "2020-08-11 04:35:08",
    "Latitude": 39.53185661,
    "Longitude": -95.30870026,
    "Confirmed": 64,
    "Deaths": 0,
    "Recovered": 0,
    "Active": 64,
    "Combined_Key": "Atchison, Kansas, US",
    "Incidence_Rate": 398.18328874510047,
    "Case-Fatality_Ratio": 0
  },
  {
    "FIPS": 29005,
    "County": "Atchison",
    "Province_State": "Missouri",
    "Country_Region": "US",
    "Last_Update": "2020-08-11 04:35:08",
    "Latitude": 40.43238737,
    "Longitude": -95.42970639,
    "Confirmed": 18,
    "Deaths": 0,
    "Recovered": 0,
    "Active": 18,
    "Combined_Key": "Atchison, Missouri, US",
    "Incidence_Rate": 349.990278047832,
    "Case-Fatality_Ratio": 0
  },
  {
    "FIPS": 39009,
    "County": "Athens",
    "Province_State": "Ohio",
    "Country_Region": "US",
    "Last_Update": "2020-08-11 04:35:08",
    "Latitude": 39.33425634,
    "Longitude": -82.04278644,
    "Confirmed": 359,
    "Deaths": 1,
    "Recovered": 0,
    "Active": 358,
    "Combined_Key": "Athens, Ohio, US",
    "Incidence_Rate": 549.5430679504644,
    "Case-Fatality_Ratio": 0.2785515320334262
  },
  {
    "FIPS": 13003,
    "County": "Atkinson",
    "Province_State": "Georgia",
    "Country_Region": "US",
    "Last_Update": "2020-08-11 04:35:08",
    "Latitude": 31.29633502,
    "Longitude": -82.87545866,
    "Confirmed": 320,
    "Deaths": 2,
    "Recovered": 0,
    "Active": 318,
    "Combined_Key": "Atkinson, Georgia, US",
    "Incidence_Rate": 3919.167176974893,
    "Case-Fatality_Ratio": 0.625
  },
  {
    "FIPS": 34001,
    "County": "Atlantic",
    "Province_State": "New Jersey",
    "Country_Region": "US",
    "Last_Update": "2020-08-11 04:35:08",
    "Latitude": 39.47538693,
    "Longitude": -74.65848483,
    "Confirmed": 3469,
    "Deaths": 252,
    "Recovered": 0,
    "Active": 3217,
    "Combined_Key": "Atlantic, New Jersey, US",
    "Incidence_Rate": 1315.6597261728675,
    "Case-Fatality_Ratio": 7.2643413087345055
  },
  {
    "FIPS": 40005,
    "County": "Atoka",
    "Province_State": "Oklahoma",
    "Country_Region": "US",
    "Last_Update": "2020-08-11 04:35:08",
    "Latitude": 34.37366573,
    "Longitude": -96.03802487,
    "Confirmed": 70,
    "Deaths": 0,
    "Recovered": 0,
    "Active": 70,
    "Combined_Key": "Atoka, Oklahoma, US",
    "Incidence_Rate": 508.794882977177,
    "Case-Fatality_Ratio": 0
  },
  {
    "FIPS": 28007,
    "County": "Attala",
    "Province_State": "Mississippi",
    "Country_Region": "US",
    "Last_Update": "2020-08-11 04:35:08",
    "Latitude": 33.08658803,
    "Longitude": -89.57838564,
    "Confirmed": 523,
    "Deaths": 25,
    "Recovered": 0,
    "Active": 498,
    "Combined_Key": "Attala, Mississippi, US",
    "Incidence_Rate": 2877.737427093651,
    "Case-Fatality_Ratio": 4.780114722753346
  },
  {
    "FIPS": 29007,
    "County": "Audrain",
    "Province_State": "Missouri",
    "Country_Region": "US",
    "Last_Update": "2020-08-11 04:35:08",
    "Latitude": 39.215877,
    "Longitude": -91.84242683,
    "Confirmed": 203,
    "Deaths": 1,
    "Recovered": 0,
    "Active": 202,
    "Combined_Key": "Audrain, Missouri, US",
    "Incidence_Rate": 799.5903576492833,
    "Case-Fatality_Ratio": 0.49261083743842365
  },
  {
    "FIPS": 19009,
    "County": "Audubon",
    "Province_State": "Iowa",
    "Country_Region": "US",
    "Last_Update": "2020-08-11 04:35:08",
    "Latitude": 41.6844628,
    "Longitude": -94.90581859,
    "Confirmed": 28,
    "Deaths": 1,
    "Recovered": 0,
    "Active": 27,
    "Combined_Key": "Audubon, Iowa, US",
    "Incidence_Rate": 509.4614264919942,
    "Case-Fatality_Ratio": 3.5714285714285716
  },
  {
    "FIPS": 39011,
    "County": "Auglaize",
    "Province_State": "Ohio",
    "Country_Region": "US",
    "Last_Update": "2020-08-11 04:35:08",
    "Latitude": 40.55998859,
    "Longitude": -84.22421429999999,
    "Confirmed": 256,
    "Deaths": 6,
    "Recovered": 0,
    "Active": 250,
    "Combined_Key": "Auglaize, Ohio, US",
    "Incidence_Rate": 560.714911512178,
    "Case-Fatality_Ratio": 2.34375
  },
  {
    "FIPS": 51015,
    "County": "Augusta",
    "Province_State": "Virginia",
    "Country_Region": "US",
    "Last_Update": "2020-08-11 04:35:08",
    "Latitude": 38.16404586,
    "Longitude": -79.12461614,
    "Confirmed": 280,
    "Deaths": 4,
    "Recovered": 0,
    "Active": 276,
    "Combined_Key": "Augusta, Virginia, US",
    "Incidence_Rate": 370.57624606262743,
    "Case-Fatality_Ratio": 1.4285714285714286
  },
  {
    "FIPS": 46003,
    "County": "Aurora",
    "Province_State": "South Dakota",
    "Country_Region": "US",
    "Last_Update": "2020-08-11 04:35:08",
    "Latitude": 43.71757685,
    "Longitude": -98.56050467,
    "Confirmed": 38,
    "Deaths": 0,
    "Recovered": 0,
    "Active": 38,
    "Combined_Key": "Aurora, South Dakota, US",
    "Incidence_Rate": 1381.315885132679,
    "Case-Fatality_Ratio": 0
  },
  {
    "FIPS": 48015,
    "County": "Austin",
    "Province_State": "Texas",
    "Country_Region": "US",
    "Last_Update": "2020-08-11 04:35:08",
    "Latitude": 29.88548725,
    "Longitude": -96.27736949,
    "Confirmed": 249,
    "Deaths": 4,
    "Recovered": 0,
    "Active": 245,
    "Combined_Key": "Austin, Texas, US",
    "Incidence_Rate": 829.115610015983,
    "Case-Fatality_Ratio": 1.606425702811245
  },
  {
    "FIPS": 1001,
    "County": "Autauga",
    "Province_State": "Alabama",
    "Country_Region": "US",
    "Last_Update": "2020-08-11 04:35:08",
    "Latitude": 32.53952745,
    "Longitude": -86.64408227,
    "Confirmed": 1174,
    "Deaths": 21,
    "Recovered": 0,
    "Active": 1153,
    "Combined_Key": "Autauga, Alabama, US",
    "Incidence_Rate": 2101.344215933702,
    "Case-Fatality_Ratio": 1.788756388415673
  },
  {
    "FIPS": 37011,
    "County": "Avery",
    "Province_State": "North Carolina",
    "Country_Region": "US",
    "Last_Update": "2020-08-11 04:35:08",
    "Latitude": 36.07569796,
    "Longitude": -81.92308483,
    "Confirmed": 109,
    "Deaths": 0,
    "Recovered": 0,
    "Active": 109,
    "Combined_Key": "Avery, North Carolina, US",
    "Incidence_Rate": 620.8349945890527,
    "Case-Fatality_Ratio": 0
  },
  {
    "FIPS": 22009,
    "County": "Avoyelles",
    "Province_State": "Louisiana",
    "Country_Region": "US",
    "Last_Update": "2020-08-11 04:35:08",
    "Latitude": 31.07796211,
    "Longitude": -92.00079449,
    "Confirmed": 1070,
    "Deaths": 32,
    "Recovered": 0,
    "Active": 1038,
    "Combined_Key": "Avoyelles, Louisiana, US",
    "Incidence_Rate": 2665.404543642885,
    "Case-Fatality_Ratio": 2.9906542056074765
  },
  {
    "FIPS": 8009,
    "County": "Baca",
    "Province_State": "Colorado",
    "Country_Region": "US",
    "Last_Update": "2020-08-11 04:35:08",
    "Latitude": 37.31940883,
    "Longitude": -102.5603223,
    "Confirmed": 15,
    "Deaths": 0,
    "Recovered": 0,
    "Active": 15,
    "Combined_Key": "Baca, Colorado, US",
    "Incidence_Rate": 418.8774085450991,
    "Case-Fatality_Ratio": 0
  },
  {
    "FIPS": 13005,
    "County": "Bacon",
    "Province_State": "Georgia",
    "Country_Region": "US",
    "Last_Update": "2020-08-11 04:35:08",
    "Latitude": 31.55456473,
    "Longitude": -82.45936528,
    "Confirmed": 438,
    "Deaths": 8,
    "Recovered": 0,
    "Active": 430,
    "Combined_Key": "Bacon, Georgia, US",
    "Incidence_Rate": 3923.3249731279107,
    "Case-Fatality_Ratio": 1.82648401826484
  },
  {
    "FIPS": 48017,
    "County": "Bailey",
    "Province_State": "Texas",
    "Country_Region": "US",
    "Last_Update": "2020-08-11 04:35:08",
    "Latitude": 34.06854817,
    "Longitude": -102.8299707,
    "Confirmed": 171,
    "Deaths": 4,
    "Recovered": 0,
    "Active": 167,
    "Combined_Key": "Bailey, Texas, US",
    "Incidence_Rate": 2442.857142857143,
    "Case-Fatality_Ratio": 2.3391812865497075
  },
  {
    "FIPS": 12003,
    "County": "Baker",
    "Province_State": "Florida",
    "Country_Region": "US",
    "Last_Update": "2020-08-11 04:35:08",
    "Latitude": 30.33060121,
    "Longitude": -82.28467476,
    "Confirmed": 932,
    "Deaths": 4,
    "Recovered": 0,
    "Active": 928,
    "Combined_Key": "Baker, Florida, US",
    "Incidence_Rate": 3190.688120506676,
    "Case-Fatality_Ratio": 0.4291845493562232
  },
  {
    "FIPS": 13007,
    "County": "Baker",
    "Province_State": "Georgia",
    "Country_Region": "US",
    "Last_Update": "2020-08-11 04:35:08",
    "Latitude": 31.32669878,
    "Longitude": -84.44218806,
    "Confirmed": 63,
    "Deaths": 3,
    "Recovered": 0,
    "Active": 60,
    "Combined_Key": "Baker, Georgia, US",
    "Incidence_Rate": 2073.7327188940094,
    "Case-Fatality_Ratio": 4.761904761904762
  },
  {
    "FIPS": 41001,
    "County": "Baker",
    "Province_State": "Oregon",
    "Country_Region": "US",
    "Last_Update": "2020-08-11 04:35:08",
    "Latitude": 44.70915557,
    "Longitude": -117.6749883,
    "Confirmed": 40,
    "Deaths": 0,
    "Recovered": 0,
    "Active": 40,
    "Combined_Key": "Baker, Oregon, US",
    "Incidence_Rate": 248.07740014884644,
    "Case-Fatality_Ratio": 0
  },
  {
    "FIPS": 1003,
    "County": "Baldwin",
    "Province_State": "Alabama",
    "Country_Region": "US",
    "Last_Update": "2020-08-11 04:35:08",
    "Latitude": 30.72774991,
    "Longitude": -87.72207058,
    "Confirmed": 3651,
    "Deaths": 25,
    "Recovered": 0,
    "Active": 3626,
    "Combined_Key": "Baldwin, Alabama, US",
    "Incidence_Rate": 1635.5035523262586,
    "Case-Fatality_Ratio": 0.6847439057792386
  },
  {
    "FIPS": 13009,
    "County": "Baldwin",
    "Province_State": "Georgia",
    "Country_Region": "US",
    "Last_Update": "2020-08-11 04:35:08",
    "Latitude": 33.06882326,
    "Longitude": -83.24701748,
    "Confirmed": 1051,
    "Deaths": 39,
    "Recovered": 0,
    "Active": 1012,
    "Combined_Key": "Baldwin, Georgia, US",
    "Incidence_Rate": 2341.278681220762,
    "Case-Fatality_Ratio": 3.7107516650808754
  },
  {
    "FIPS": 21007,
    "County": "Ballard",
    "Province_State": "Kentucky",
    "Country_Region": "US",
    "Last_Update": "2020-08-11 04:35:08",
    "Latitude": 37.05842757,
    "Longitude": -88.99427697,
    "Confirmed": 35,
    "Deaths": 0,
    "Recovered": 0,
    "Active": 35,
    "Combined_Key": "Ballard, Kentucky, US",
    "Incidence_Rate": 443.71196754563897,
    "Case-Fatality_Ratio": 0
  },
  {
    "FIPS": 24005,
    "County": "Baltimore",
    "Province_State": "Maryland",
    "Country_Region": "US",
    "Last_Update": "2020-08-11 04:35:08",
    "Latitude": 39.45784712,
    "Longitude": -76.62911955,
    "Confirmed": 13400,
    "Deaths": 563,
    "Recovered": 0,
    "Active": 12837,
    "Combined_Key": "Baltimore, Maryland, US",
    "Incidence_Rate": 1619.5897844978667,
    "Case-Fatality_Ratio": 4.201492537313433
  },
  {
    "FIPS": 24510,
    "County": "Baltimore City",
    "Province_State": "Maryland",
    "Country_Region": "US",
    "Last_Update": "2020-08-11 04:35:08",
    "Latitude": 39.30211911,
    "Longitude": -76.61151012,
    "Confirmed": 12704,
    "Deaths": 430,
    "Recovered": 0,
    "Active": 12274,
    "Combined_Key": "Baltimore City, Maryland, US",
    "Incidence_Rate": 2140.5583918852885,
    "Case-Fatality_Ratio": 3.3847607052896724
  },
  {
    "FIPS": 45009,
    "County": "Bamberg",
    "Province_State": "South Carolina",
    "Country_Region": "US",
    "Last_Update": "2020-08-11 04:35:08",
    "Latitude": 33.21927586,
    "Longitude": -81.05659969,
    "Confirmed": 479,
    "Deaths": 22,
    "Recovered": 0,
    "Active": 457,
    "Combined_Key": "Bamberg, South Carolina, US",
    "Incidence_Rate": 3405.3746623062707,
    "Case-Fatality_Ratio": 4.592901878914405
  },
  {
    "FIPS": 48019,
    "County": "Bandera",
    "Province_State": "Texas",
    "Country_Region": "US",
    "Last_Update": "2020-08-11 04:35:08",
    "Latitude": 29.74619598,
    "Longitude": -99.24598147,
    "Confirmed": 91,
    "Deaths": 3,
    "Recovered": 0,
    "Active": 88,
    "Combined_Key": "Bandera, Texas, US",
    "Incidence_Rate": 393.73485635167884,
    "Case-Fatality_Ratio": 3.2967032967032965
  },
  {
    "FIPS": 13011,
    "County": "Banks",
    "Province_State": "Georgia",
    "Country_Region": "US",
    "Last_Update": "2020-08-11 04:35:08",
    "Latitude": 34.35607081,
    "Longitude": -83.49644388,
    "Confirmed": 271,
    "Deaths": 4,
    "Recovered": 0,
    "Active": 267,
    "Combined_Key": "Banks, Georgia, US",
    "Incidence_Rate": 1408.9632941665802,
    "Case-Fatality_Ratio": 1.4760147601476015
  },
  {
    "FIPS": 31007,
    "County": "Banner",
    "Province_State": "Nebraska",
    "Country_Region": "US",
    "Last_Update": "2020-08-11 04:35:08",
    "Latitude": 41.54634427,
    "Longitude": -103.7114332,
    "Confirmed": 3,
    "Deaths": 0,
    "Recovered": 0,
    "Active": 3,
    "Combined_Key": "Banner, Nebraska, US",
    "Incidence_Rate": 402.6845637583893,
    "Case-Fatality_Ratio": 0
  },
  {
    "FIPS": 16005,
    "County": "Bannock",
    "Province_State": "Idaho",
    "Country_Region": "US",
    "Last_Update": "2020-08-11 04:35:08",
    "Latitude": 42.67002716,
    "Longitude": -112.2233311,
    "Confirmed": 400,
    "Deaths": 2,
    "Recovered": 0,
    "Active": 398,
    "Combined_Key": "Bannock, Idaho, US",
    "Incidence_Rate": 455.5393586005831,
    "Case-Fatality_Ratio": 0.5
  },
  {
    "FIPS": 26013,
    "County": "Baraga",
    "Province_State": "Michigan",
    "Country_Region": "US",
    "Last_Update": "2020-08-11 04:35:08",
    "Latitude": 46.6720582,
    "Longitude": -88.36363591,
    "Confirmed": 5,
    "Deaths": 0,
    "Recovered": 0,
    "Active": 5,
    "Combined_Key": "Baraga, Michigan, US",
    "Incidence_Rate": 60.9087586794981,
    "Case-Fatality_Ratio": 0
  },
  {
    "FIPS": 20007,
    "County": "Barber",
    "Province_State": "Kansas",
    "Country_Region": "US",
    "Last_Update": "2020-08-11 04:35:08",
    "Latitude": 37.2288586,
    "Longitude": -98.68460053,
    "Confirmed": 4,
    "Deaths": 0,
    "Recovered": 0,
    "Active": 4,
    "Combined_Key": "Barber, Kansas, US",
    "Incidence_Rate": 90.35464196973119,
    "Case-Fatality_Ratio": 0
  },
  {
    "FIPS": 1005,
    "County": "Barbour",
    "Province_State": "Alabama",
    "Country_Region": "US",
    "Last_Update": "2020-08-11 04:35:08",
    "Latitude": 31.868263,
    "Longitude": -85.3871286,
    "Confirmed": 576,
    "Deaths": 5,
    "Recovered": 0,
    "Active": 571,
    "Combined_Key": "Barbour, Alabama, US",
    "Incidence_Rate": 2333.3063274730616,
    "Case-Fatality_Ratio": 0.8680555555555556
  },
  {
    "FIPS": 54001,
    "County": "Barbour",
    "Province_State": "West Virginia",
    "Country_Region": "US",
    "Last_Update": "2020-08-11 04:35:08",
    "Latitude": 39.1307219,
    "Longitude": -80.00350858,
    "Confirmed": 29,
    "Deaths": 1,
    "Recovered": 0,
    "Active": 28,
    "Combined_Key": "Barbour, West Virginia, US",
    "Incidence_Rate": 176.38829754881093,
    "Case-Fatality_Ratio": 3.4482758620689653
  },
  {
    "FIPS": 72017,
    "County": "Barceloneta",
    "Province_State": "Puerto Rico",
    "Country_Region": "US",
    "Last_Update": "2020-08-11 04:35:08",
    "Latitude": 18.445532999999998,
    "Longitude": -66.56053100000001,
    "Confirmed": 95,
    "Deaths": 0,
    "Recovered": 0,
    "Active": 95,
    "Combined_Key": "Barceloneta, Puerto Rico, US",
    "Incidence_Rate": 382.8175370728562,
    "Case-Fatality_Ratio": 0
  },
  {
    "FIPS": 38003,
    "County": "Barnes",
    "Province_State": "North Dakota",
    "Country_Region": "US",
    "Last_Update": "2020-08-11 04:35:08",
    "Latitude": 46.93579637,
    "Longitude": -98.06605978,
    "Confirmed": 39,
    "Deaths": 0,
    "Recovered": 0,
    "Active": 39,
    "Combined_Key": "Barnes, North Dakota, US",
    "Incidence_Rate": 374.4599135861738,
    "Case-Fatality_Ratio": 0
  },
  {
    "FIPS": 25001,
    "County": "Barnstable",
    "Province_State": "Massachusetts",
    "Country_Region": "US",
    "Last_Update": "2020-08-11 04:35:08",
    "Latitude": 41.72980578,
    "Longitude": -70.28854339,
    "Confirmed": 1802,
    "Deaths": 158,
    "Recovered": 0,
    "Active": 1644,
    "Combined_Key": "Barnstable, Massachusetts, US",
    "Incidence_Rate": 846.049110286868,
    "Case-Fatality_Ratio": 8.76803551609323
  },
  {
    "FIPS": 45011,
    "County": "Barnwell",
    "Province_State": "South Carolina",
    "Country_Region": "US",
    "Last_Update": "2020-08-11 04:35:08",
    "Latitude": 33.26679302,
    "Longitude": -81.43584352,
    "Confirmed": 420,
    "Deaths": 5,
    "Recovered": 0,
    "Active": 415,
    "Combined_Key": "Barnwell, South Carolina, US",
    "Incidence_Rate": 2012.8438608262243,
    "Case-Fatality_Ratio": 1.1904761904761905
  },
  {
    "FIPS": 72019,
    "County": "Barranquitas",
    "Province_State": "Puerto Rico",
    "Country_Region": "US",
    "Last_Update": "2020-08-11 04:35:08",
    "Latitude": 18.201592,
    "Longitude": -66.30963,
    "Confirmed": 248,
    "Deaths": 0,
    "Recovered": 0,
    "Active": 248,
    "Combined_Key": "Barranquitas, Puerto Rico, US",
    "Incidence_Rate": 817.9959100204499,
    "Case-Fatality_Ratio": 0
  },
  {
    "FIPS": 21009,
    "County": "Barren",
    "Province_State": "Kentucky",
    "Country_Region": "US",
    "Last_Update": "2020-08-11 04:35:08",
    "Latitude": 36.96469836,
    "Longitude": -85.93338945,
    "Confirmed": 364,
    "Deaths": 2,
    "Recovered": 0,
    "Active": 362,
    "Combined_Key": "Barren, Kentucky, US",
    "Incidence_Rate": 822.6174602815883,
    "Case-Fatality_Ratio": 0.5494505494505495
  },
  {
    "FIPS": 55005,
    "County": "Barron",
    "Province_State": "Wisconsin",
    "Country_Region": "US",
    "Last_Update": "2020-08-11 04:35:08",
    "Latitude": 45.42372701,
    "Longitude": -91.84833627,
    "Confirmed": 295,
    "Deaths": 3,
    "Recovered": 0,
    "Active": 292,
    "Combined_Key": "Barron, Wisconsin, US",
    "Incidence_Rate": 652.0201573689329,
    "Case-Fatality_Ratio": 1.0169491525423728
  },
  {
    "FIPS": 13013,
    "County": "Barrow",
    "Province_State": "Georgia",
    "Country_Region": "US",
    "Last_Update": "2020-08-11 04:35:08",
    "Latitude": 33.99148694,
    "Longitude": -83.71436292,
    "Confirmed": 1296,
    "Deaths": 32,
    "Recovered": 0,
    "Active": 1264,
    "Combined_Key": "Barrow, Georgia, US",
    "Incidence_Rate": 1556.9437770302738,
    "Case-Fatality_Ratio": 2.4691358024691357
  },
  {
    "FIPS": 26015,
    "County": "Barry",
    "Province_State": "Michigan",
    "Country_Region": "US",
    "Last_Update": "2020-08-11 04:35:08",
    "Latitude": 42.59513984,
    "Longitude": -85.30834519,
    "Confirmed": 191,
    "Deaths": 2,
    "Recovered": 0,
    "Active": 189,
    "Combined_Key": "Barry, Michigan, US",
    "Incidence_Rate": 310.3168155970756,
    "Case-Fatality_Ratio": 1.0471204188481675
  },
  {
    "FIPS": 29009,
    "County": "Barry",
    "Province_State": "Missouri",
    "Country_Region": "US",
    "Last_Update": "2020-08-11 04:35:08",
    "Latitude": 36.70978521,
    "Longitude": -93.82919888,
    "Confirmed": 258,
    "Deaths": 4,
    "Recovered": 0,
    "Active": 254,
    "Combined_Key": "Barry, Missouri, US",
    "Incidence_Rate": 720.8918941574228,
    "Case-Fatality_Ratio": 1.550387596899225
  },
  {
    "FIPS": 18005,
    "County": "Bartholomew",
    "Province_State": "Indiana",
    "Country_Region": "US",
    "Last_Update": "2020-08-11 04:35:08",
    "Latitude": 39.20744865,
    "Longitude": -85.89558181,
    "Confirmed": 801,
    "Deaths": 47,
    "Recovered": 0,
    "Active": 754,
    "Combined_Key": "Bartholomew, Indiana, US",
    "Incidence_Rate": 956.0868475393596,
    "Case-Fatality_Ratio": 5.867665418227216
  },
  {
    "FIPS": 20009,
    "County": "Barton",
    "Province_State": "Kansas",
    "Country_Region": "US",
    "Last_Update": "2020-08-11 04:35:08",
    "Latitude": 38.47889676,
    "Longitude": -98.75636726,
    "Confirmed": 139,
    "Deaths": 3,
    "Recovered": 0,
    "Active": 136,
    "Combined_Key": "Barton, Kansas, US",
    "Incidence_Rate": 539.1985724814772,
    "Case-Fatality_Ratio": 2.158273381294964
  },
  {
    "FIPS": 29011,
    "County": "Barton",
    "Province_State": "Missouri",
    "Country_Region": "US",
    "Last_Update": "2020-08-11 04:35:08",
    "Latitude": 37.50207671,
    "Longitude": -94.34757022,
    "Confirmed": 69,
    "Deaths": 0,
    "Recovered": 0,
    "Active": 69,
    "Combined_Key": "Barton, Missouri, US",
    "Incidence_Rate": 587.0342011230222,
    "Case-Fatality_Ratio": 0
  },
  {
    "FIPS": 13015,
    "County": "Bartow",
    "Province_State": "Georgia",
    "Country_Region": "US",
    "Last_Update": "2020-08-11 04:35:08",
    "Latitude": 34.23732119,
    "Longitude": -84.83887523,
    "Confirmed": 1885,
    "Deaths": 63,
    "Recovered": 0,
    "Active": 1822,
    "Combined_Key": "Bartow, Georgia, US",
    "Incidence_Rate": 1749.6148062893315,
    "Case-Fatality_Ratio": 3.3421750663129974
  },
  {
    "FIPS": 48021,
    "County": "Bastrop",
    "Province_State": "Texas",
    "Country_Region": "US",
    "Last_Update": "2020-08-11 04:35:08",
    "Latitude": 30.10370699,
    "Longitude": -97.31206354,
    "Confirmed": 1365,
    "Deaths": 21,
    "Recovered": 0,
    "Active": 1344,
    "Combined_Key": "Bastrop, Texas, US",
    "Incidence_Rate": 1538.4962185679026,
    "Case-Fatality_Ratio": 1.5384615384615385
  },
  {
    "FIPS": 29013,
    "County": "Bates",
    "Province_State": "Missouri",
    "Country_Region": "US",
    "Last_Update": "2020-08-11 04:35:08",
    "Latitude": 38.25271289,
    "Longitude": -94.34113157,
    "Confirmed": 48,
    "Deaths": 1,
    "Recovered": 0,
    "Active": 47,
    "Combined_Key": "Bates, Missouri, US",
    "Incidence_Rate": 296.8093000247341,
    "Case-Fatality_Ratio": 2.0833333333333335
  },
  {
    "FIPS": 21011,
    "County": "Bath",
    "Province_State": "Kentucky",
    "Country_Region": "US",
    "Last_Update": "2020-08-11 04:35:08",
    "Latitude": 38.14735938,
    "Longitude": -83.74588932,
    "Confirmed": 37,
    "Deaths": 1,
    "Recovered": 0,
    "Active": 36,
    "Combined_Key": "Bath, Kentucky, US",
    "Incidence_Rate": 296,
    "Case-Fatality_Ratio": 2.7027027027027026
  },
  {
    "FIPS": 51017,
    "County": "Bath",
    "Province_State": "Virginia",
    "Country_Region": "US",
    "Last_Update": "2020-08-11 04:35:08",
    "Latitude": 38.05852573,
    "Longitude": -79.73912095,
    "Confirmed": 4,
    "Deaths": 0,
    "Recovered": 0,
    "Active": 4,
    "Combined_Key": "Bath, Virginia, US",
    "Incidence_Rate": 96.45526886906195,
    "Case-Fatality_Ratio": 0
  },
  {
    "FIPS": 5005,
    "County": "Baxter",
    "Province_State": "Arkansas",
    "Country_Region": "US",
    "Last_Update": "2020-08-11 04:35:08",
    "Latitude": 36.28784385,
    "Longitude": -92.33782872,
    "Confirmed": 71,
    "Deaths": 0,
    "Recovered": 0,
    "Active": 71,
    "Combined_Key": "Baxter, Arkansas, US",
    "Incidence_Rate": 169.3217590384432,
    "Case-Fatality_Ratio": 0
  },
  {
    "FIPS": 12005,
    "County": "Bay",
    "Province_State": "Florida",
    "Country_Region": "US",
    "Last_Update": "2020-08-11 04:35:08",
    "Latitude": 30.26548745,
    "Longitude": -85.62122584,
    "Confirmed": 4447,
    "Deaths": 51,
    "Recovered": 0,
    "Active": 4396,
    "Combined_Key": "Bay, Florida, US",
    "Incidence_Rate": 2545.4337311467903,
    "Case-Fatality_Ratio": 1.1468405666741623
  },
  {
    "FIPS": 26017,
    "County": "Bay",
    "Province_State": "Michigan",
    "Country_Region": "US",
    "Last_Update": "2020-08-11 04:35:08",
    "Latitude": 43.70639106,
    "Longitude": -83.98731479,
    "Confirmed": 638,
    "Deaths": 31,
    "Recovered": 0,
    "Active": 607,
    "Combined_Key": "Bay, Michigan, US",
    "Incidence_Rate": 618.6606675329208,
    "Case-Fatality_Ratio": 4.858934169278997
  },
  {
    "FIPS": 72021,
    "County": "Bayamon",
    "Province_State": "Puerto Rico",
    "Country_Region": "US",
    "Last_Update": "2020-08-11 04:35:08",
    "Latitude": 18.34946,
    "Longitude": -66.168435,
    "Confirmed": 1565,
    "Deaths": 0,
    "Recovered": 0,
    "Active": 1565,
    "Combined_Key": "Bayamon, Puerto Rico, US",
    "Incidence_Rate": 751.9844701993117,
    "Case-Fatality_Ratio": 0
  },
  {
    "FIPS": 55007,
    "County": "Bayfield",
    "Province_State": "Wisconsin",
    "Country_Region": "US",
    "Last_Update": "2020-08-11 04:35:08",
    "Latitude": 46.52868768,
    "Longitude": -91.19716729,
    "Confirmed": 28,
    "Deaths": 1,
    "Recovered": 0,
    "Active": 27,
    "Combined_Key": "Bayfield, Wisconsin, US",
    "Incidence_Rate": 186.21973929236492,
    "Case-Fatality_Ratio": 3.5714285714285716
  },
  {
    "FIPS": 48023,
    "County": "Baylor",
    "Province_State": "Texas",
    "Country_Region": "US",
    "Last_Update": "2020-08-11 04:35:08",
    "Latitude": 33.61640794,
    "Longitude": -99.21352901,
    "Confirmed": 11,
    "Deaths": 0,
    "Recovered": 0,
    "Active": 11,
    "Combined_Key": "Baylor, Texas, US",
    "Incidence_Rate": 313.47962382445144,
    "Case-Fatality_Ratio": 0
  },
  {
    "FIPS": 46005,
    "County": "Beadle",
    "Province_State": "South Dakota",
    "Country_Region": "US",
    "Last_Update": "2020-08-11 04:35:08",
    "Latitude": 44.41464384,
    "Longitude": -98.27858469,
    "Confirmed": 594,
    "Deaths": 9,
    "Recovered": 0,
    "Active": 585,
    "Combined_Key": "Beadle, South Dakota, US",
    "Incidence_Rate": 3218.9887823118193,
    "Case-Fatality_Ratio": 1.5151515151515151
  },
  {
    "FIPS": 16007,
    "County": "Bear Lake",
    "Province_State": "Idaho",
    "Country_Region": "US",
    "Last_Update": "2020-08-11 04:35:08",
    "Latitude": 42.28269683,
    "Longitude": -111.32892379999998,
    "Confirmed": 17,
    "Deaths": 0,
    "Recovered": 0,
    "Active": 17,
    "Combined_Key": "Bear Lake, Idaho, US",
    "Incidence_Rate": 277.55102040816325,
    "Case-Fatality_Ratio": 0
  },
  {
    "FIPS": null,
    "County": "Bear River",
    "Province_State": "Utah",
    "Country_Region": "US",
    "Last_Update": "2020-08-11 04:35:08",
    "Latitude": 41.52106798,
    "Longitude": -113.08328159999999,
    "Confirmed": 2316,
    "Deaths": 7,
    "Recovered": 0,
    "Active": 2309,
    "Combined_Key": "Bear River, Utah, US",
    "Incidence_Rate": 1239.7092357267502,
    "Case-Fatality_Ratio": 0.3022452504317789
  },
  {
    "FIPS": 37013,
    "County": "Beaufort",
    "Province_State": "North Carolina",
    "Country_Region": "US",
    "Last_Update": "2020-08-11 04:35:08",
    "Latitude": 35.48531943,
    "Longitude": -76.84325809,
    "Confirmed": 428,
    "Deaths": 2,
    "Recovered": 0,
    "Active": 426,
    "Combined_Key": "Beaufort, North Carolina, US",
    "Incidence_Rate": 910.7545644124782,
    "Case-Fatality_Ratio": 0.4672897196261682
  },
  {
    "FIPS": 45013,
    "County": "Beaufort",
    "Province_State": "South Carolina",
    "Country_Region": "US",
    "Last_Update": "2020-08-11 04:35:08",
    "Latitude": 32.39226291,
    "Longitude": -80.72619758,
    "Confirmed": 4131,
    "Deaths": 56,
    "Recovered": 0,
    "Active": 4075,
    "Combined_Key": "Beaufort, South Carolina, US",
    "Incidence_Rate": 2150.1962294791847,
    "Case-Fatality_Ratio": 1.3556039699830549
  },
  {
    "FIPS": 22011,
    "County": "Beauregard",
    "Province_State": "Louisiana",
    "Country_Region": "US",
    "Last_Update": "2020-08-11 04:35:08",
    "Latitude": 30.64836518,
    "Longitude": -93.34173616,
    "Confirmed": 835,
    "Deaths": 18,
    "Recovered": 0,
    "Active": 817,
    "Combined_Key": "Beauregard, Louisiana, US",
    "Incidence_Rate": 2226.844814251807,
    "Case-Fatality_Ratio": 2.155688622754491
  },
  {
    "FIPS": 40007,
    "County": "Beaver",
    "Province_State": "Oklahoma",
    "Country_Region": "US",
    "Last_Update": "2020-08-11 04:35:08",
    "Latitude": 36.7496847,
    "Longitude": -100.4758872,
    "Confirmed": 36,
    "Deaths": 0,
    "Recovered": 0,
    "Active": 36,
    "Combined_Key": "Beaver, Oklahoma, US",
    "Incidence_Rate": 677.8384485031067,
    "Case-Fatality_Ratio": 0
  },
  {
    "FIPS": 42007,
    "County": "Beaver",
    "Province_State": "Pennsylvania",
    "Country_Region": "US",
    "Last_Update": "2020-08-11 04:35:08",
    "Latitude": 40.6825484,
    "Longitude": -80.34921611,
    "Confirmed": 1326,
    "Deaths": 92,
    "Recovered": 0,
    "Active": 1234,
    "Combined_Key": "Beaver, Pennsylvania, US",
    "Incidence_Rate": 808.8867741522245,
    "Case-Fatality_Ratio": 6.93815987933635
  },
  {
    "FIPS": 30001,
    "County": "Beaverhead",
    "Province_State": "Montana",
    "Country_Region": "US",
    "Last_Update": "2020-08-11 04:35:08",
    "Latitude": 45.13434354,
    "Longitude": -112.8984694,
    "Confirmed": 64,
    "Deaths": 0,
    "Recovered": 0,
    "Active": 64,
    "Combined_Key": "Beaverhead, Montana, US",
    "Incidence_Rate": 677.0337459007723,
    "Case-Fatality_Ratio": 0
  },
  {
    "FIPS": 27005,
    "County": "Becker",
    "Province_State": "Minnesota",
    "Country_Region": "US",
    "Last_Update": "2020-08-11 04:35:08",
    "Latitude": 46.93479392,
    "Longitude": -95.67158144,
    "Confirmed": 161,
    "Deaths": 1,
    "Recovered": 0,
    "Active": 160,
    "Combined_Key": "Becker, Minnesota, US",
    "Incidence_Rate": 467.7105423699271,
    "Case-Fatality_Ratio": 0.6211180124223602
  },
  {
    "FIPS": 40009,
    "County": "Beckham",
    "Province_State": "Oklahoma",
    "Country_Region": "US",
    "Last_Update": "2020-08-11 04:35:08",
    "Latitude": 35.26862449,
    "Longitude": -99.68128023,
    "Confirmed": 59,
    "Deaths": 1,
    "Recovered": 0,
    "Active": 58,
    "Combined_Key": "Beckham, Oklahoma, US",
    "Incidence_Rate": 269.9117068484377,
    "Case-Fatality_Ratio": 1.694915254237288
  },
  {
    "FIPS": 42009,
    "County": "Bedford",
    "Province_State": "Pennsylvania",
    "Country_Region": "US",
    "Last_Update": "2020-08-11 04:35:08",
    "Latitude": 40.00522157,
    "Longitude": -78.48998442,
    "Confirmed": 143,
    "Deaths": 4,
    "Recovered": 0,
    "Active": 139,
    "Combined_Key": "Bedford, Pennsylvania, US",
    "Incidence_Rate": 298.61343133979284,
    "Case-Fatality_Ratio": 2.797202797202797
  },
  {
    "FIPS": 47003,
    "County": "Bedford",
    "Province_State": "Tennessee",
    "Country_Region": "US",
    "Last_Update": "2020-08-11 04:35:08",
    "Latitude": 35.51123746,
    "Longitude": -86.45549096,
    "Confirmed": 928,
    "Deaths": 11,
    "Recovered": 0,
    "Active": 917,
    "Combined_Key": "Bedford, Tennessee, US",
    "Incidence_Rate": 1866.7149437772812,
    "Case-Fatality_Ratio": 1.1853448275862069
  },
  {
    "FIPS": 51019,
    "County": "Bedford",
    "Province_State": "Virginia",
    "Country_Region": "US",
    "Last_Update": "2020-08-11 04:35:08",
    "Latitude": 37.3080028,
    "Longitude": -79.5281964,
    "Confirmed": 361,
    "Deaths": 7,
    "Recovered": 0,
    "Active": 354,
    "Combined_Key": "Bedford, Virginia, US",
    "Incidence_Rate": 456.9793789637581,
    "Case-Fatality_Ratio": 1.9390581717451523
  },
  {
    "FIPS": 48025,
    "County": "Bee",
    "Province_State": "Texas",
    "Country_Region": "US",
    "Last_Update": "2020-08-11 04:35:08",
    "Latitude": 28.41761668,
    "Longitude": -97.74215593,
    "Confirmed": 1207,
    "Deaths": 11,
    "Recovered": 0,
    "Active": 1196,
    "Combined_Key": "Bee, Texas, US",
    "Incidence_Rate": 3706.4332872716095,
    "Case-Fatality_Ratio": 0.9113504556752279
  },
  {
    "FIPS": 33001,
    "County": "Belknap",
    "Province_State": "New Hampshire",
    "Country_Region": "US",
    "Last_Update": "2020-08-11 04:35:08",
    "Latitude": 43.51637314,
    "Longitude": -71.41684235,
    "Confirmed": 115,
    "Deaths": 4,
    "Recovered": 0,
    "Active": 111,
    "Combined_Key": "Belknap, New Hampshire, US",
    "Incidence_Rate": 187.59277686246998,
    "Case-Fatality_Ratio": 3.4782608695652173
  },
  {
    "FIPS": 21013,
    "County": "Bell",
    "Province_State": "Kentucky",
    "Country_Region": "US",
    "Last_Update": "2020-08-11 04:35:08",
    "Latitude": 36.73355174,
    "Longitude": -83.67766671,
    "Confirmed": 312,
    "Deaths": 4,
    "Recovered": 0,
    "Active": 308,
    "Combined_Key": "Bell, Kentucky, US",
    "Incidence_Rate": 1198.5248924400735,
    "Case-Fatality_Ratio": 1.2820512820512822
  },
  {
    "FIPS": 48027,
    "County": "Bell",
    "Province_State": "Texas",
    "Country_Region": "US",
    "Last_Update": "2020-08-11 04:35:08",
    "Latitude": 31.03736027,
    "Longitude": -97.4785025,
    "Confirmed": 3831,
    "Deaths": 38,
    "Recovered": 0,
    "Active": 3793,
    "Combined_Key": "Bell, Texas, US",
    "Incidence_Rate": 1055.592906503841,
    "Case-Fatality_Ratio": 0.9919081179848603
  },
  {
    "FIPS": 39013,
    "County": "Belmont",
    "Province_State": "Ohio",
    "Country_Region": "US",
    "Last_Update": "2020-08-11 04:35:08",
    "Latitude": 40.01625942,
    "Longitude": -80.9924051,
    "Confirmed": 621,
    "Deaths": 26,
    "Recovered": 0,
    "Active": 595,
    "Combined_Key": "Belmont, Ohio, US",
    "Incidence_Rate": 926.7826761782527,
    "Case-Fatality_Ratio": 4.186795491143317
  },
  {
    "FIPS": 27007,
    "County": "Beltrami",
    "Province_State": "Minnesota",
    "Country_Region": "US",
    "Last_Update": "2020-08-11 04:35:08",
    "Latitude": 47.97373527,
    "Longitude": -94.93732139,
    "Confirmed": 241,
    "Deaths": 0,
    "Recovered": 0,
    "Active": 241,
    "Combined_Key": "Beltrami, Minnesota, US",
    "Incidence_Rate": 510.7230651860643,
    "Case-Fatality_Ratio": 0
  },
  {
    "FIPS": 13017,
    "County": "Ben Hill",
    "Province_State": "Georgia",
    "Country_Region": "US",
    "Last_Update": "2020-08-11 04:35:08",
    "Latitude": 31.76095874,
    "Longitude": -83.22145359,
    "Confirmed": 452,
    "Deaths": 4,
    "Recovered": 0,
    "Active": 448,
    "Combined_Key": "Ben Hill, Georgia, US",
    "Incidence_Rate": 2706.586826347305,
    "Case-Fatality_Ratio": 0.8849557522123894
  },
  {
    "FIPS": 16009,
    "County": "Benewah",
    "Province_State": "Idaho",
    "Country_Region": "US",
    "Last_Update": "2020-08-11 04:35:08",
    "Latitude": 47.21754179,
    "Longitude": -116.6586851,
    "Confirmed": 64,
    "Deaths": 0,
    "Recovered": 0,
    "Active": 64,
    "Combined_Key": "Benewah, Idaho, US",
    "Incidence_Rate": 688.3200688320069,
    "Case-Fatality_Ratio": 0
  },
  {
    "FIPS": 46007,
    "County": "Bennett",
    "Province_State": "South Dakota",
    "Country_Region": "US",
    "Last_Update": "2020-08-11 04:35:08",
    "Latitude": 43.19486375,
    "Longitude": -101.6665572,
    "Confirmed": 6,
    "Deaths": 0,
    "Recovered": 0,
    "Active": 6,
    "Combined_Key": "Bennett, South Dakota, US",
    "Incidence_Rate": 178.30609212481426,
    "Case-Fatality_Ratio": 0
  },
  {
    "FIPS": 50003,
    "County": "Bennington",
    "Province_State": "Vermont",
    "Country_Region": "US",
    "Last_Update": "2020-08-11 04:35:08",
    "Latitude": 43.03519828,
    "Longitude": -73.09048868,
    "Confirmed": 88,
    "Deaths": 1,
    "Recovered": 0,
    "Active": 87,
    "Combined_Key": "Bennington, Vermont, US",
    "Incidence_Rate": 248.09698336622498,
    "Case-Fatality_Ratio": 1.1363636363636365
  },
  {
    "FIPS": 38005,
    "County": "Benson",
    "Province_State": "North Dakota",
    "Country_Region": "US",
    "Last_Update": "2020-08-11 04:35:08",
    "Latitude": 48.0683985,
    "Longitude": -99.35916363,
    "Confirmed": 137,
    "Deaths": 2,
    "Recovered": 0,
    "Active": 135,
    "Combined_Key": "Benson, North Dakota, US",
    "Incidence_Rate": 2005.2693208430912,
    "Case-Fatality_Ratio": 1.4598540145985401
  },
  {
    "FIPS": 8011,
    "County": "Bent",
    "Province_State": "Colorado",
    "Country_Region": "US",
    "Last_Update": "2020-08-11 04:35:08",
    "Latitude": 37.95474293,
    "Longitude": -103.0720195,
    "Confirmed": 9,
    "Deaths": 0,
    "Recovered": 0,
    "Active": 9,
    "Combined_Key": "Bent, Colorado, US",
    "Incidence_Rate": 161.37708445400753,
    "Case-Fatality_Ratio": 0
  },
  {
    "FIPS": 5007,
    "County": "Benton",
    "Province_State": "Arkansas",
    "Country_Region": "US",
    "Last_Update": "2020-08-11 04:35:08",
    "Latitude": 36.33644656,
    "Longitude": -94.25680817,
    "Confirmed": 4794,
    "Deaths": 43,
    "Recovered": 0,
    "Active": 4751,
    "Combined_Key": "Benton, Arkansas, US",
    "Incidence_Rate": 1717.4116306812687,
    "Case-Fatality_Ratio": 0.8969545264914477
  },
  {
    "FIPS": 18007,
    "County": "Benton",
    "Province_State": "Indiana",
    "Country_Region": "US",
    "Last_Update": "2020-08-11 04:35:08",
    "Latitude": 40.60626947,
    "Longitude": -87.31093999,
    "Confirmed": 62,
    "Deaths": 0,
    "Recovered": 0,
    "Active": 62,
    "Combined_Key": "Benton, Indiana, US",
    "Incidence_Rate": 708.7334247828073,
    "Case-Fatality_Ratio": 0
  },
  {
    "FIPS": 19011,
    "County": "Benton",
    "Province_State": "Iowa",
    "Country_Region": "US",
    "Last_Update": "2020-08-11 04:35:08",
    "Latitude": 42.08011739,
    "Longitude": -92.06463573,
    "Confirmed": 160,
    "Deaths": 1,
    "Recovered": 0,
    "Active": 159,
    "Combined_Key": "Benton, Iowa, US",
    "Incidence_Rate": 623.9032949892768,
    "Case-Fatality_Ratio": 0.625
  },
  {
    "FIPS": 27009,
    "County": "Benton",
    "Province_State": "Minnesota",
    "Country_Region": "US",
    "Last_Update": "2020-08-11 04:35:08",
    "Latitude": 45.69804958,
    "Longitude": -93.99514135,
    "Confirmed": 320,
    "Deaths": 3,
    "Recovered": 0,
    "Active": 317,
    "Combined_Key": "Benton, Minnesota, US",
    "Incidence_Rate": 782.6065690038886,
    "Case-Fatality_Ratio": 0.9375
  },
  {
    "FIPS": 28009,
    "County": "Benton",
    "Province_State": "Mississippi",
    "Country_Region": "US",
    "Last_Update": "2020-08-11 04:35:08",
    "Latitude": 34.81681228,
    "Longitude": -89.18945516,
    "Confirmed": 143,
    "Deaths": 1,
    "Recovered": 0,
    "Active": 142,
    "Combined_Key": "Benton, Mississippi, US",
    "Incidence_Rate": 1731.4444848044557,
    "Case-Fatality_Ratio": 0.6993006993006993
  },
  {
    "FIPS": 29015,
    "County": "Benton",
    "Province_State": "Missouri",
    "Country_Region": "US",
    "Last_Update": "2020-08-11 04:35:08",
    "Latitude": 38.29503305,
    "Longitude": -93.28756116,
    "Confirmed": 104,
    "Deaths": 1,
    "Recovered": 0,
    "Active": 103,
    "Combined_Key": "Benton, Missouri, US",
    "Incidence_Rate": 534.8968780537983,
    "Case-Fatality_Ratio": 0.9615384615384616
  },
  {
    "FIPS": 41003,
    "County": "Benton",
    "Province_State": "Oregon",
    "Country_Region": "US",
    "Last_Update": "2020-08-11 04:35:08",
    "Latitude": 44.49167306,
    "Longitude": -123.4316987,
    "Confirmed": 169,
    "Deaths": 6,
    "Recovered": 0,
    "Active": 163,
    "Combined_Key": "Benton, Oregon, US",
    "Incidence_Rate": 181.61692798727609,
    "Case-Fatality_Ratio": 3.5502958579881656
  },
  {
    "FIPS": 47005,
    "County": "Benton",
    "Province_State": "Tennessee",
    "Country_Region": "US",
    "Last_Update": "2020-08-11 04:35:08",
    "Latitude": 36.07110411,
    "Longitude": -88.06849355,
    "Confirmed": 159,
    "Deaths": 1,
    "Recovered": 0,
    "Active": 158,
    "Combined_Key": "Benton, Tennessee, US",
    "Incidence_Rate": 983.9108910891088,
    "Case-Fatality_Ratio": 0.6289308176100629
  },
  {
    "FIPS": 53005,
    "County": "Benton",
    "Province_State": "Washington",
    "Country_Region": "US",
    "Last_Update": "2020-08-11 04:35:08",
    "Latitude": 46.23946995,
    "Longitude": -119.5120834,
    "Confirmed": 3748,
    "Deaths": 116,
    "Recovered": 0,
    "Active": 3632,
    "Combined_Key": "Benton, Washington, US",
    "Incidence_Rate": 1833.7492049513185,
    "Case-Fatality_Ratio": 3.0949839914621133
  },
  {
    "FIPS": 26019,
    "County": "Benzie",
    "Province_State": "Michigan",
    "Country_Region": "US",
    "Last_Update": "2020-08-11 04:35:08",
    "Latitude": 44.63899297,
    "Longitude": -86.01608482,
    "Confirmed": 29,
    "Deaths": 1,
    "Recovered": 0,
    "Active": 28,
    "Combined_Key": "Benzie, Michigan, US",
    "Incidence_Rate": 163.2331419565462,
    "Case-Fatality_Ratio": 3.4482758620689653
  },
  {
    "FIPS": 34003,
    "County": "Bergen",
    "Province_State": "New Jersey",
    "Country_Region": "US",
    "Last_Update": "2020-08-11 04:35:08",
    "Latitude": 40.96010917,
    "Longitude": -74.07164325,
    "Confirmed": 20825,
    "Deaths": 2038,
    "Recovered": 0,
    "Active": 18787,
    "Combined_Key": "Bergen, New Jersey, US",
    "Incidence_Rate": 2233.957876082652,
    "Case-Fatality_Ratio": 9.786314525810324
  },
  {
    "FIPS": 45015,
    "County": "Berkeley",
    "Province_State": "South Carolina",
    "Country_Region": "US",
    "Last_Update": "2020-08-11 04:35:08",
    "Latitude": 33.20222596,
    "Longitude": -79.94654523,
    "Confirmed": 4186,
    "Deaths": 67,
    "Recovered": 0,
    "Active": 4119,
    "Combined_Key": "Berkeley, South Carolina, US",
    "Incidence_Rate": 1836.71409829448,
    "Case-Fatality_Ratio": 1.6005733397037745
  },
  {
    "FIPS": 54003,
    "County": "Berkeley",
    "Province_State": "West Virginia",
    "Country_Region": "US",
    "Last_Update": "2020-08-11 04:35:08",
    "Latitude": 39.46704621,
    "Longitude": -78.02414609,
    "Confirmed": 698,
    "Deaths": 11,
    "Recovered": 0,
    "Active": 687,
    "Combined_Key": "Berkeley, West Virginia, US",
    "Incidence_Rate": 585.7129670809173,
    "Case-Fatality_Ratio": 1.5759312320916905
  },
  {
    "FIPS": 42011,
    "County": "Berks",
    "Province_State": "Pennsylvania",
    "Country_Region": "US",
    "Last_Update": "2020-08-11 04:35:08",
    "Latitude": 40.41570541,
    "Longitude": -75.92457766,
    "Confirmed": 5407,
    "Deaths": 368,
    "Recovered": 0,
    "Active": 5039,
    "Combined_Key": "Berks, Pennsylvania, US",
    "Incidence_Rate": 1283.822928835323,
    "Case-Fatality_Ratio": 6.805992232291474
  },
  {
    "FIPS": 25003,
    "County": "Berkshire",
    "Province_State": "Massachusetts",
    "Country_Region": "US",
    "Last_Update": "2020-08-11 04:35:08",
    "Latitude": 42.37428441,
    "Longitude": -73.20524838,
    "Confirmed": 668,
    "Deaths": 46,
    "Recovered": 0,
    "Active": 622,
    "Combined_Key": "Berkshire, Massachusetts, US",
    "Incidence_Rate": 534.6395185042899,
    "Case-Fatality_Ratio": 6.88622754491018
  },
  {
    "FIPS": 35001,
    "County": "Bernalillo",
    "Province_State": "New Mexico",
    "Country_Region": "US",
    "Last_Update": "2020-08-11 04:35:08",
    "Latitude": 35.05163625,
    "Longitude": -106.6703554,
    "Confirmed": 5161,
    "Deaths": 134,
    "Recovered": 0,
    "Active": 5027,
    "Combined_Key": "Bernalillo, New Mexico, US",
    "Incidence_Rate": 759.9529391669525,
    "Case-Fatality_Ratio": 2.5963960472776595
  },
  {
    "FIPS": 13019,
    "County": "Berrien",
    "Province_State": "Georgia",
    "Country_Region": "US",
    "Last_Update": "2020-08-11 04:35:08",
    "Latitude": 31.27590016,
    "Longitude": -83.22529920000002,
    "Confirmed": 295,
    "Deaths": 0,
    "Recovered": 0,
    "Active": 295,
    "Combined_Key": "Berrien, Georgia, US",
    "Incidence_Rate": 1520.8537402691138,
    "Case-Fatality_Ratio": 0
  },
  {
    "FIPS": 26021,
    "County": "Berrien",
    "Province_State": "Michigan",
    "Country_Region": "US",
    "Last_Update": "2020-08-11 04:35:08",
    "Latitude": 41.95447397,
    "Longitude": -86.41313079999998,
    "Confirmed": 1376,
    "Deaths": 66,
    "Recovered": 0,
    "Active": 1310,
    "Combined_Key": "Berrien, Michigan, US",
    "Incidence_Rate": 896.9954563529573,
    "Case-Fatality_Ratio": 4.796511627906977
  },
  {
    "FIPS": 37015,
    "County": "Bertie",
    "Province_State": "North Carolina",
    "Country_Region": "US",
    "Last_Update": "2020-08-11 04:35:08",
    "Latitude": 36.0688473,
    "Longitude": -76.96545943,
    "Confirmed": 275,
    "Deaths": 5,
    "Recovered": 0,
    "Active": 270,
    "Combined_Key": "Bertie, North Carolina, US",
    "Incidence_Rate": 1451.4171108882672,
    "Case-Fatality_Ratio": 1.8181818181818181
  },
  {
    "FIPS": 2050,
    "County": "Bethel",
    "Province_State": "Alaska",
    "Country_Region": "US",
    "Last_Update": "2020-08-11 04:35:08",
    "Latitude": 60.90980451,
    "Longitude": -159.8561831,
    "Confirmed": 23,
    "Deaths": 0,
    "Recovered": 0,
    "Active": 23,
    "Combined_Key": "Bethel, Alaska, US",
    "Incidence_Rate": 125.09518111606657,
    "Case-Fatality_Ratio": 0
  },
  {
    "FIPS": 48029,
    "County": "Bexar",
    "Province_State": "Texas",
    "Country_Region": "US",
    "Last_Update": "2020-08-11 04:35:08",
    "Latitude": 29.44928723,
    "Longitude": -98.52019748,
    "Confirmed": 42959,
    "Deaths": 784,
    "Recovered": 0,
    "Active": 42175,
    "Combined_Key": "Bexar, Texas, US",
    "Incidence_Rate": 2144.139863462627,
    "Case-Fatality_Ratio": 1.8249959263483786
  },
  {
    "FIPS": 1007,
    "County": "Bibb",
    "Province_State": "Alabama",
    "Country_Region": "US",
    "Last_Update": "2020-08-11 04:35:08",
    "Latitude": 32.99642064,
    "Longitude": -87.12511459999996,
    "Confirmed": 442,
    "Deaths": 5,
    "Recovered": 0,
    "Active": 437,
    "Combined_Key": "Bibb, Alabama, US",
    "Incidence_Rate": 1973.7429668661248,
    "Case-Fatality_Ratio": 1.1312217194570136
  },
  {
    "FIPS": 13021,
    "County": "Bibb",
    "Province_State": "Georgia",
    "Country_Region": "US",
    "Last_Update": "2020-08-11 04:35:08",
    "Latitude": 32.80904227,
    "Longitude": -83.70489165,
    "Confirmed": 3645,
    "Deaths": 68,
    "Recovered": 0,
    "Active": 3577,
    "Combined_Key": "Bibb, Georgia, US",
    "Incidence_Rate": 2379.8797328266705,
    "Case-Fatality_Ratio": 1.8655692729766804
  },
  {
    "FIPS": 22013,
    "County": "Bienville",
    "Province_State": "Louisiana",
    "Country_Region": "US",
    "Last_Update": "2020-08-11 04:35:08",
    "Latitude": 32.34569994,
    "Longitude": -93.05398492,
    "Confirmed": 382,
    "Deaths": 30,
    "Recovered": 0,
    "Active": 352,
    "Combined_Key": "Bienville, Louisiana, US",
    "Incidence_Rate": 2884.9784759459253,
    "Case-Fatality_Ratio": 7.853403141361256
  },
  {
    "FIPS": 30003,
    "County": "Big Horn",
    "Province_State": "Montana",
    "Country_Region": "US",
    "Last_Update": "2020-08-11 04:35:08",
    "Latitude": 45.42335905,
    "Longitude": -107.492347,
    "Confirmed": 437,
    "Deaths": 13,
    "Recovered": 0,
    "Active": 424,
    "Combined_Key": "Big Horn, Montana, US",
    "Incidence_Rate": 3281.0271041369483,
    "Case-Fatality_Ratio": 2.9748283752860414
  },
  {
    "FIPS": 56003,
    "County": "Big Horn",
    "Province_State": "Wyoming",
    "Country_Region": "US",
    "Last_Update": "2020-08-11 04:35:08",
    "Latitude": 44.52405055,
    "Longitude": -107.9960365,
    "Confirmed": 37,
    "Deaths": 0,
    "Recovered": 0,
    "Active": 37,
    "Combined_Key": "Big Horn, Wyoming, US",
    "Incidence_Rate": 313.8252756573367,
    "Case-Fatality_Ratio": 0
  },
  {
    "FIPS": 27011,
    "County": "Big Stone",
    "Province_State": "Minnesota",
    "Country_Region": "US",
    "Last_Update": "2020-08-11 04:35:08",
    "Latitude": 45.42712824,
    "Longitude": -96.41403739,
    "Confirmed": 22,
    "Deaths": 0,
    "Recovered": 0,
    "Active": 22,
    "Combined_Key": "Big Stone, Minnesota, US",
    "Incidence_Rate": 440.7934281707073,
    "Case-Fatality_Ratio": 0
  },
  {
    "FIPS": 38007,
    "County": "Billings",
    "Province_State": "North Dakota",
    "Country_Region": "US",
    "Last_Update": "2020-08-11 04:35:08",
    "Latitude": 47.02366884,
    "Longitude": -103.3762965,
    "Confirmed": 2,
    "Deaths": 0,
    "Recovered": 0,
    "Active": 2,
    "Combined_Key": "Billings, North Dakota, US",
    "Incidence_Rate": 215.5172413793104,
    "Case-Fatality_Ratio": 0
  },
  {
    "FIPS": 16011,
    "County": "Bingham",
    "Province_State": "Idaho",
    "Country_Region": "US",
    "Last_Update": "2020-08-11 04:35:08",
    "Latitude": 43.21672879999999,
    "Longitude": -112.3978437,
    "Confirmed": 254,
    "Deaths": 2,
    "Recovered": 0,
    "Active": 252,
    "Combined_Key": "Bingham, Idaho, US",
    "Incidence_Rate": 542.6075067825939,
    "Case-Fatality_Ratio": 0.7874015748031497
  },
  {
    "FIPS": 19013,
    "County": "Black Hawk",
    "Province_State": "Iowa",
    "Country_Region": "US",
    "Last_Update": "2020-08-11 04:35:08",
    "Latitude": 42.4704581,
    "Longitude": -92.30524729,
    "Confirmed": 3134,
    "Deaths": 66,
    "Recovered": 0,
    "Active": 3068,
    "Combined_Key": "Black Hawk, Iowa, US",
    "Incidence_Rate": 2388.209833267291,
    "Case-Fatality_Ratio": 2.1059349074664966
  },
  {
    "FIPS": 18009,
    "County": "Blackford",
    "Province_State": "Indiana",
    "Country_Region": "US",
    "Last_Update": "2020-08-11 04:35:08",
    "Latitude": 40.47388153,
    "Longitude": -85.32499702,
    "Confirmed": 65,
    "Deaths": 2,
    "Recovered": 0,
    "Active": 63,
    "Combined_Key": "Blackford, Indiana, US",
    "Incidence_Rate": 552.8151046096275,
    "Case-Fatality_Ratio": 3.076923076923077
  },
  {
    "FIPS": 37017,
    "County": "Bladen",
    "Province_State": "North Carolina",
    "Country_Region": "US",
    "Last_Update": "2020-08-11 04:35:08",
    "Latitude": 34.61296243,
    "Longitude": -78.56180059,
    "Confirmed": 625,
    "Deaths": 7,
    "Recovered": 0,
    "Active": 618,
    "Combined_Key": "Bladen, North Carolina, US",
    "Incidence_Rate": 1910.0299492696045,
    "Case-Fatality_Ratio": 1.12
  },
  {
    "FIPS": 16013,
    "County": "Blaine",
    "Province_State": "Idaho",
    "Country_Region": "US",
    "Last_Update": "2020-08-11 04:35:08",
    "Latitude": 43.4085812,
    "Longitude": -113.9752658,
    "Confirmed": 577,
    "Deaths": 6,
    "Recovered": 0,
    "Active": 571,
    "Combined_Key": "Blaine, Idaho, US",
    "Incidence_Rate": 2506.407193432084,
    "Case-Fatality_Ratio": 1.0398613518197575
  },
  {
    "FIPS": 30005,
    "County": "Blaine",
    "Province_State": "Montana",
    "Country_Region": "US",
    "Last_Update": "2020-08-11 04:35:08",
    "Latitude": 48.43175214,
    "Longitude": -108.9582723,
    "Confirmed": 10,
    "Deaths": 0,
    "Recovered": 0,
    "Active": 10,
    "Combined_Key": "Blaine, Montana, US",
    "Incidence_Rate": 149.678191887442,
    "Case-Fatality_Ratio": 0
  },
  {
    "FIPS": 31009,
    "County": "Blaine",
    "Province_State": "Nebraska",
    "Country_Region": "US",
    "Last_Update": "2020-08-11 04:35:08",
    "Latitude": 41.91311716,
    "Longitude": -99.97677845,
    "Confirmed": 0,
    "Deaths": 0,
    "Recovered": 0,
    "Active": 0,
    "Combined_Key": "Blaine, Nebraska, US",
    "Incidence_Rate": 0,
    "Case-Fatality_Ratio": null
  },
  {
    "FIPS": 40011,
    "County": "Blaine",
    "Province_State": "Oklahoma",
    "Country_Region": "US",
    "Last_Update": "2020-08-11 04:35:08",
    "Latitude": 35.87518314,
    "Longitude": -98.43307003,
    "Confirmed": 42,
    "Deaths": 0,
    "Recovered": 0,
    "Active": 42,
    "Combined_Key": "Blaine, Oklahoma, US",
    "Incidence_Rate": 445.43429844098,
    "Case-Fatality_Ratio": 0
  },
  {
    "FIPS": 42013,
    "County": "Blair",
    "Province_State": "Pennsylvania",
    "Country_Region": "US",
    "Last_Update": "2020-08-11 04:35:08",
    "Latitude": 40.47961444,
    "Longitude": -78.34917412,
    "Confirmed": 293,
    "Deaths": 5,
    "Recovered": 0,
    "Active": 288,
    "Combined_Key": "Blair, Pennsylvania, US",
    "Incidence_Rate": 240.50103013239868,
    "Case-Fatality_Ratio": 1.7064846416382253
  },
  {
    "FIPS": 48031,
    "County": "Blanco",
    "Province_State": "Texas",
    "Country_Region": "US",
    "Last_Update": "2020-08-11 04:35:08",
    "Latitude": 30.26640707,
    "Longitude": -98.3999852,
    "Confirmed": 98,
    "Deaths": 5,
    "Recovered": 0,
    "Active": 93,
    "Combined_Key": "Blanco, Texas, US",
    "Incidence_Rate": 821.3896571955411,
    "Case-Fatality_Ratio": 5.1020408163265305
  },
  {
    "FIPS": 51021,
    "County": "Bland",
    "Province_State": "Virginia",
    "Country_Region": "US",
    "Last_Update": "2020-08-11 04:35:08",
    "Latitude": 37.13128068,
    "Longitude": -81.13599391,
    "Confirmed": 19,
    "Deaths": 0,
    "Recovered": 0,
    "Active": 19,
    "Combined_Key": "Bland, Virginia, US",
    "Incidence_Rate": 302.54777070063693,
    "Case-Fatality_Ratio": 0
  },
  {
    "FIPS": 13023,
    "County": "Bleckley",
    "Province_State": "Georgia",
    "Country_Region": "US",
    "Last_Update": "2020-08-11 04:35:08",
    "Latitude": 32.43829035,
    "Longitude": -83.33035166,
    "Confirmed": 242,
    "Deaths": 9,
    "Recovered": 0,
    "Active": 233,
    "Combined_Key": "Bleckley, Georgia, US",
    "Incidence_Rate": 1879.9036743571814,
    "Case-Fatality_Ratio": 3.71900826446281
  },
  {
    "FIPS": 47007,
    "County": "Bledsoe",
    "Province_State": "Tennessee",
    "Country_Region": "US",
    "Last_Update": "2020-08-11 04:35:08",
    "Latitude": 35.59942968,
    "Longitude": -85.20611967,
    "Confirmed": 708,
    "Deaths": 1,
    "Recovered": 0,
    "Active": 707,
    "Combined_Key": "Bledsoe, Tennessee, US",
    "Incidence_Rate": 4699.946893255444,
    "Case-Fatality_Ratio": 0.14124293785310735
  },
  {
    "FIPS": 1009,
    "County": "Blount",
    "Province_State": "Alabama",
    "Country_Region": "US",
    "Last_Update": "2020-08-11 04:35:08",
    "Latitude": 33.98210918,
    "Longitude": -86.56790593,
    "Confirmed": 812,
    "Deaths": 4,
    "Recovered": 0,
    "Active": 808,
    "Combined_Key": "Blount, Alabama, US",
    "Incidence_Rate": 1404.2126379137412,
    "Case-Fatality_Ratio": 0.49261083743842365
  },
  {
    "FIPS": 47009,
    "County": "Blount",
    "Province_State": "Tennessee",
    "Country_Region": "US",
    "Last_Update": "2020-08-11 04:35:08",
    "Latitude": 35.68938198,
    "Longitude": -83.92847788,
    "Confirmed": 1314,
    "Deaths": 11,
    "Recovered": 0,
    "Active": 1303,
    "Combined_Key": "Blount, Tennessee, US",
    "Incidence_Rate": 987.3166626592932,
    "Case-Fatality_Ratio": 0.837138508371385
  },
  {
    "FIPS": 27013,
    "County": "Blue Earth",
    "Province_State": "Minnesota",
    "Country_Region": "US",
    "Last_Update": "2020-08-11 04:35:08",
    "Latitude": 44.03554215,
    "Longitude": -94.06699781,
    "Confirmed": 927,
    "Deaths": 5,
    "Recovered": 0,
    "Active": 922,
    "Combined_Key": "Blue Earth, Minnesota, US",
    "Incidence_Rate": 1370.2274843687642,
    "Case-Fatality_Ratio": 0.5393743257820928
  },
  {
    "FIPS": 16015,
    "County": "Boise",
    "Province_State": "Idaho",
    "Country_Region": "US",
    "Last_Update": "2020-08-11 04:35:08",
    "Latitude": 43.98829931,
    "Longitude": -115.7309284,
    "Confirmed": 50,
    "Deaths": 1,
    "Recovered": 0,
    "Active": 49,
    "Combined_Key": "Boise, Idaho, US",
    "Incidence_Rate": 638.4880602732728,
    "Case-Fatality_Ratio": 2
  },